{
    "https://pleiades.stoa.org/places/1004": {
        "alignments": [
            "https://resource.manto.unh.edu/11309854"
        ],
        "place_title": "(H)Adriaticum/Superum Mare",
        "place_types": [
            "water-open"
        ],
        "representative_latitude": 44.90974317072782,
        "representative_longitude": 13.757172667463283,
        "uri": "https://pleiades.stoa.org/places/1004"
    },
    "https://pleiades.stoa.org/places/1046": {
        "alignments": [
            "https://resource.manto.unh.edu/8253941"
        ],
        "place_title": "Ionium Mare",
        "place_types": [
            "water-open"
        ],
        "representative_latitude": 38.84541402167047,
        "representative_longitude": 17.10639083568919,
        "uri": "https://pleiades.stoa.org/places/1046"
    },
    "https://pleiades.stoa.org/places/1052": {
        "alignments": [
            "https://resource.manto.unh.edu/9603205"
        ],
        "place_title": "Italia",
        "place_types": [
            "region"
        ],
        "representative_latitude": 43.6941505,
        "representative_longitude": 11.0949512,
        "uri": "https://pleiades.stoa.org/places/1052"
    },
    "https://pleiades.stoa.org/places/109277": {
        "alignments": [
            "https://resource.manto.unh.edu/11309770"
        ],
        "place_title": "Rhenus (river)",
        "place_types": [
            "river"
        ],
        "representative_latitude": 49.6380760082032,
        "representative_longitude": 7.46057338682521,
        "uri": "https://pleiades.stoa.org/places/109277"
    },
    "https://pleiades.stoa.org/places/1113": {
        "alignments": [
            "https://resource.manto.unh.edu/9587567"
        ],
        "place_title": "Magna Graecia",
        "place_types": [
            "region"
        ],
        "representative_latitude": 39.717478434906866,
        "representative_longitude": 16.493114897544928,
        "uri": "https://pleiades.stoa.org/places/1113"
    },
    "https://pleiades.stoa.org/places/122572945": {
        "alignments": [
            "https://resource.manto.unh.edu/10151508"
        ],
        "place_title": "Lyceum",
        "place_types": [
            "sanctuary",
            "architecturalcomplex",
            "gymnasium"
        ],
        "representative_latitude": 37.97403098290296,
        "representative_longitude": 23.743379697192637,
        "uri": "https://pleiades.stoa.org/places/122572945"
    },
    "https://pleiades.stoa.org/places/1273": {
        "alignments": [
            "https://resource.manto.unh.edu/8253946"
        ],
        "place_title": "Scythia",
        "place_types": [
            "region",
            "label"
        ],
        "representative_latitude": 46.688700708155956,
        "representative_longitude": 29.47509903778682,
        "uri": "https://pleiades.stoa.org/places/1273"
    },
    "https://pleiades.stoa.org/places/1356": {
        "alignments": [
            "https://resource.manto.unh.edu/9051553"
        ],
        "place_title": "Tyrrhenum/Inferum Mare",
        "place_types": [
            "water-open"
        ],
        "representative_latitude": 41.646782949306164,
        "representative_longitude": 12.671075447443245,
        "uri": "https://pleiades.stoa.org/places/1356"
    },
    "https://pleiades.stoa.org/places/148168": {
        "alignments": [
            "https://resource.manto.unh.edu/11309771"
        ],
        "place_title": "Rhodanus (river)",
        "place_types": [
            "river"
        ],
        "representative_latitude": 45.12852163430194,
        "representative_longitude": 6.335532195147458,
        "uri": "https://pleiades.stoa.org/places/148168"
    },
    "https://pleiades.stoa.org/places/157868": {
        "alignments": [
            "https://resource.manto.unh.edu/11310305"
        ],
        "place_title": "Herakles Monoikos/Portus Monoeci",
        "place_types": [
            "settlement"
        ],
        "representative_latitude": 43.740339,
        "representative_longitude": 7.425673,
        "uri": "https://pleiades.stoa.org/places/157868"
    },
    "https://pleiades.stoa.org/places/157878": {
        "alignments": [
            "https://resource.manto.unh.edu/9587596"
        ],
        "place_title": "Ligusticum Mare",
        "place_types": [
            "water-open"
        ],
        "representative_latitude": 43.5000002,
        "representative_longitude": 8.9999997,
        "uri": "https://pleiades.stoa.org/places/157878"
    },
    "https://pleiades.stoa.org/places/160459928": {
        "alignments": [
            "https://resource.manto.unh.edu/11066733"
        ],
        "place_title": "Sanctuary of Metaneira",
        "place_types": [
            "unlocated",
            "sanctuary"
        ],
        "representative_latitude": 38.041101,
        "representative_longitude": 23.537401,
        "uri": "https://pleiades.stoa.org/places/160459928"
    },
    "https://pleiades.stoa.org/places/162490152": {
        "alignments": [
            "https://resource.manto.unh.edu/10774932",
            "https://resource.manto.unh.edu/9610214"
        ],
        "place_title": "Sanctuary of Poseidon (Onchestos)",
        "place_types": [
            "sanctuary",
            "archaeological-site"
        ],
        "representative_latitude": 38.36248070609776,
        "representative_longitude": 23.14507310796321,
        "uri": "https://pleiades.stoa.org/places/162490152"
    },
    "https://pleiades.stoa.org/places/167652": {
        "alignments": [
            "https://resource.manto.unh.edu/11299763"
        ],
        "place_title": "Arar (river)",
        "place_types": [
            "river"
        ],
        "representative_latitude": 47.154259198131285,
        "representative_longitude": 5.4168233347046275,
        "uri": "https://pleiades.stoa.org/places/167652"
    },
    "https://pleiades.stoa.org/places/167717": {
        "alignments": [
            "https://resource.manto.unh.edu/11299774"
        ],
        "place_title": "Col. Lugdunum",
        "place_types": [
            "settlement"
        ],
        "representative_latitude": 45.758866,
        "representative_longitude": 4.8194815,
        "uri": "https://pleiades.stoa.org/places/167717"
    },
    "https://pleiades.stoa.org/places/197248": {
        "alignments": [
            "https://resource.manto.unh.edu/9746305"
        ],
        "place_title": "Diomedeae (islands)",
        "place_types": [
            "archipelago",
            "island"
        ],
        "representative_latitude": 42.38607222756864,
        "representative_longitude": 16.289867891629967,
        "uri": "https://pleiades.stoa.org/places/197248"
    },
    "https://pleiades.stoa.org/places/203037083": {
        "alignments": [
            "https://resource.manto.unh.edu/10270831"
        ],
        "place_title": "Castalian spring",
        "place_types": [
            "spring"
        ],
        "representative_latitude": 38.48305005,
        "representative_longitude": 22.50541595,
        "uri": "https://pleiades.stoa.org/places/203037083"
    },
    "https://pleiades.stoa.org/places/207271756": {
        "alignments": [
            "https://resource.manto.unh.edu/11319931"
        ],
        "place_title": "Forum Boarium (at Rome)",
        "place_types": [
            "plaza",
            "forum"
        ],
        "representative_latitude": 41.88886022041392,
        "representative_longitude": 12.480897208288818,
        "uri": "https://pleiades.stoa.org/places/207271756"
    },
    "https://pleiades.stoa.org/places/207271757": {
        "alignments": [
            "https://resource.manto.unh.edu/11319932"
        ],
        "place_title": "Ara Maxima Herculis",
        "place_types": [
            "shrine"
        ],
        "representative_latitude": 41.88847168011437,
        "representative_longitude": 12.481298126974986,
        "uri": "https://pleiades.stoa.org/places/207271757"
    },
    "https://pleiades.stoa.org/places/216830": {
        "alignments": [
            "https://resource.manto.unh.edu/8253943"
        ],
        "place_title": "Haemus (mountain range)",
        "place_types": [
            "mountain"
        ],
        "representative_latitude": 42.7175,
        "representative_longitude": 24.916667,
        "uri": "https://pleiades.stoa.org/places/216830"
    },
    "https://pleiades.stoa.org/places/216906": {
        "alignments": [
            "https://resource.manto.unh.edu/10126156"
        ],
        "place_title": "Odrysae",
        "place_types": [
            "region",
            "label",
            "state",
            "people"
        ],
        "representative_latitude": 42.40480250589457,
        "representative_longitude": 26.82807280151704,
        "uri": "https://pleiades.stoa.org/places/216906"
    },
    "https://pleiades.stoa.org/places/226506": {
        "alignments": [
            "https://resource.manto.unh.edu/10055489"
        ],
        "place_title": "Achilleios Dromos",
        "place_types": [
            "peninsula",
            "label"
        ],
        "representative_latitude": 46.21817533129236,
        "representative_longitude": 31.70685777052436,
        "uri": "https://pleiades.stoa.org/places/226506"
    },
    "https://pleiades.stoa.org/places/226577": {
        "alignments": [
            "https://resource.manto.unh.edu/9878388"
        ],
        "place_title": "Danuvius/Istros/Hister (river)",
        "place_types": [
            "river"
        ],
        "representative_latitude": 46.27649151763111,
        "representative_longitude": 19.448023719383958,
        "uri": "https://pleiades.stoa.org/places/226577"
    },
    "https://pleiades.stoa.org/places/226677": {
        "alignments": [
            "https://resource.manto.unh.edu/9746337"
        ],
        "place_title": "Leuke Ins./Achilleos Nesos",
        "place_types": [
            "island"
        ],
        "representative_latitude": 45.25379450875873,
        "representative_longitude": 30.20465019362168,
        "uri": "https://pleiades.stoa.org/places/226677"
    },
    "https://pleiades.stoa.org/places/226778": {
        "alignments": [
            "https://resource.manto.unh.edu/8194768"
        ],
        "place_title": "Taurike Chersonesos",
        "place_types": [
            "peninsula",
            "region"
        ],
        "representative_latitude": 45.398822,
        "representative_longitude": 35.819354,
        "uri": "https://pleiades.stoa.org/places/226778"
    },
    "https://pleiades.stoa.org/places/256045": {
        "alignments": [
            "https://resource.manto.unh.edu/11304947"
        ],
        "place_title": "Calpe (mountain)",
        "place_types": [
            "mountain",
            "cape"
        ],
        "representative_latitude": 36.128447,
        "representative_longitude": -5.3442398,
        "uri": "https://pleiades.stoa.org/places/256045"
    },
    "https://pleiades.stoa.org/places/256468": {
        "alignments": [
            "https://resource.manto.unh.edu/8254001"
        ],
        "place_title": "Tartessos",
        "place_types": [
            "unlocated",
            "settlement",
            "port",
            "label"
        ],
        "representative_latitude": 37.292979882205444,
        "representative_longitude": -6.6715420065789655,
        "uri": "https://pleiades.stoa.org/places/256468"
    },
    "https://pleiades.stoa.org/places/257097394": {
        "alignments": [
            "https://resource.manto.unh.edu/11313847"
        ],
        "place_title": "Aedes Apollinis Palatini",
        "place_types": [
            "sanctuary",
            "temple-2"
        ],
        "representative_latitude": 41.888779101709815,
        "representative_longitude": 12.485661118399905,
        "uri": "https://pleiades.stoa.org/places/257097394"
    },
    "https://pleiades.stoa.org/places/265762": {
        "alignments": [
            "https://resource.manto.unh.edu/8254003"
        ],
        "place_title": "Abdera",
        "place_types": [
            "settlement"
        ],
        "representative_latitude": 36.748068,
        "representative_longitude": -3.022514,
        "uri": "https://pleiades.stoa.org/places/265762"
    },
    "https://pleiades.stoa.org/places/265817": {
        "alignments": [
            "https://resource.manto.unh.edu/10085271"
        ],
        "place_title": "Baliares/Gymnesiae Inss. (Maior et Minor)",
        "place_types": [
            "archipelago",
            "label"
        ],
        "representative_latitude": 39.52042639856468,
        "representative_longitude": 3.675956886312532,
        "uri": "https://pleiades.stoa.org/places/265817"
    },
    "https://pleiades.stoa.org/places/266001": {
        "alignments": [
            "https://resource.manto.unh.edu/11010553"
        ],
        "place_title": "Pityussae (islands)",
        "place_types": [
            "archipelago"
        ],
        "representative_latitude": 38.83439753824669,
        "representative_longitude": 1.4381882913561421,
        "uri": "https://pleiades.stoa.org/places/266001"
    },
    "https://pleiades.stoa.org/places/275736": {
        "alignments": [
            "https://resource.manto.unh.edu/11304491"
        ],
        "place_title": "Tingi",
        "place_types": [
            "settlement",
            "port"
        ],
        "representative_latitude": 35.787546,
        "representative_longitude": -5.8102335,
        "uri": "https://pleiades.stoa.org/places/275736"
    },
    "https://pleiades.stoa.org/places/29856869": {
        "alignments": [
            "https://resource.manto.unh.edu/11066685"
        ],
        "place_title": "Anthion",
        "place_types": [
            "unlocated",
            "well"
        ],
        "representative_latitude": null,
        "representative_longitude": null,
        "uri": "https://pleiades.stoa.org/places/29856869"
    },
    "https://pleiades.stoa.org/places/30249": {
        "alignments": [
            "https://resource.manto.unh.edu/9746355"
        ],
        "place_title": "Ogyris (island)",
        "place_types": [
            "island"
        ],
        "representative_latitude": null,
        "representative_longitude": null,
        "uri": "https://pleiades.stoa.org/places/30249"
    },
    "https://pleiades.stoa.org/places/314921": {
        "alignments": [
            "https://resource.manto.unh.edu/9721278"
        ],
        "place_title": "Carthago",
        "place_types": [
            "settlement",
            "port"
        ],
        "representative_latitude": 36.853056,
        "representative_longitude": 10.323056,
        "uri": "https://pleiades.stoa.org/places/314921"
    },
    "https://pleiades.stoa.org/places/322942899": {
        "alignments": [
            "https://resource.manto.unh.edu/11320309"
        ],
        "place_title": "Thermae Antoninianae",
        "place_types": [
            "bath"
        ],
        "representative_latitude": 41.8789180459977,
        "representative_longitude": 12.492404983273032,
        "uri": "https://pleiades.stoa.org/places/322942899"
    },
    "https://pleiades.stoa.org/places/334110567": {
        "alignments": [
            "https://resource.manto.unh.edu/11304376"
        ],
        "place_title": "Tomb of Antaios (Libya)",
        "place_types": [
            "hill"
        ],
        "representative_latitude": 35.787546,
        "representative_longitude": -5.8102335,
        "uri": "https://pleiades.stoa.org/places/334110567"
    },
    "https://pleiades.stoa.org/places/334481": {
        "alignments": [
            "https://resource.manto.unh.edu/8228939"
        ],
        "place_title": "Aethiopia",
        "place_types": [
            "region",
            "label"
        ],
        "representative_latitude": 33.082980308109605,
        "representative_longitude": 5.776170507906518,
        "uri": "https://pleiades.stoa.org/places/334481"
    },
    "https://pleiades.stoa.org/places/340380318": {
        "alignments": [
            "https://resource.manto.unh.edu/11319115"
        ],
        "place_title": "House of the Ara Maxima",
        "place_types": [
            "townhouse"
        ],
        "representative_latitude": 40.75268520373143,
        "representative_longitude": 14.48476107375942,
        "uri": "https://pleiades.stoa.org/places/340380318"
    },
    "https://pleiades.stoa.org/places/344448": {
        "alignments": [
            "https://resource.manto.unh.edu/9721290"
        ],
        "place_title": "Neapolis/Lepcis Magna",
        "place_types": [
            "settlement",
            "port",
            "archaeological-site"
        ],
        "representative_latitude": 32.636447832647285,
        "representative_longitude": 14.297093517366152,
        "uri": "https://pleiades.stoa.org/places/344448"
    },
    "https://pleiades.stoa.org/places/344491": {
        "alignments": [
            "https://resource.manto.unh.edu/10085292"
        ],
        "place_title": "Syrtis Maior",
        "place_types": [
            "water-open"
        ],
        "representative_latitude": 31.474808472421035,
        "representative_longitude": 17.827474591075145,
        "uri": "https://pleiades.stoa.org/places/344491"
    },
    "https://pleiades.stoa.org/places/347036492": {
        "alignments": [
            "https://resource.manto.unh.edu/11313730"
        ],
        "place_title": "Capitolinus Mons",
        "place_types": [
            "hill"
        ],
        "representative_latitude": 41.8925778,
        "representative_longitude": 12.4822154,
        "uri": "https://pleiades.stoa.org/places/347036492"
    },
    "https://pleiades.stoa.org/places/35711529": {
        "alignments": [
            "https://resource.manto.unh.edu/11302746"
        ],
        "place_title": "Atrium Caci",
        "place_types": [
            "unknown"
        ],
        "representative_latitude": null,
        "representative_longitude": null,
        "uri": "https://pleiades.stoa.org/places/35711529"
    },
    "https://pleiades.stoa.org/places/372843530": {
        "alignments": [
            "https://resource.manto.unh.edu/9614063"
        ],
        "place_title": "Temple of Athena Alea at Tegea",
        "place_types": [
            "sanctuary",
            "temple-2"
        ],
        "representative_latitude": 37.45548012994524,
        "representative_longitude": 22.420396704425567,
        "uri": "https://pleiades.stoa.org/places/372843530"
    },
    "https://pleiades.stoa.org/places/373778": {
        "alignments": [
            "https://resource.manto.unh.edu/10272335"
        ],
        "place_title": "Cyrene",
        "place_types": [
            "settlement"
        ],
        "representative_latitude": 32.82002662733894,
        "representative_longitude": 21.856538513413255,
        "uri": "https://pleiades.stoa.org/places/373778"
    },
    "https://pleiades.stoa.org/places/383698": {
        "alignments": [
            "https://resource.manto.unh.edu/9962650"
        ],
        "place_title": "Liguria (region)",
        "place_types": [
            "region"
        ],
        "representative_latitude": 44.330391399897366,
        "representative_longitude": 8.786200437113399,
        "uri": "https://pleiades.stoa.org/places/383698"
    },
    "https://pleiades.stoa.org/places/39290": {
        "alignments": [
            "https://resource.manto.unh.edu/11304394"
        ],
        "place_title": "Arabicus Sinus/Erythr(ae)um/Rubrum Mare",
        "place_types": [
            "water-open"
        ],
        "representative_latitude": 19.0,
        "representative_longitude": 39.5,
        "uri": "https://pleiades.stoa.org/places/39290"
    },
    "https://pleiades.stoa.org/places/393469": {
        "alignments": [
            "https://resource.manto.unh.edu/11306854"
        ],
        "place_title": "Padus/Eridanus (river)",
        "place_types": [
            "river"
        ],
        "representative_latitude": 44.997289767588214,
        "representative_longitude": 9.965122781413118,
        "uri": "https://pleiades.stoa.org/places/393469"
    },
    "https://pleiades.stoa.org/places/393473": {
        "alignments": [
            "https://resource.manto.unh.edu/11305181"
        ],
        "place_title": "Patavium",
        "place_types": [
            "settlement"
        ],
        "representative_latitude": 45.409561,
        "representative_longitude": 11.876975,
        "uri": "https://pleiades.stoa.org/places/393473"
    },
    "https://pleiades.stoa.org/places/393511": {
        "alignments": [
            "https://resource.manto.unh.edu/11310147"
        ],
        "place_title": "Venetia (region)",
        "place_types": [
            "region",
            "label"
        ],
        "representative_latitude": 45.76003342221921,
        "representative_longitude": 11.69679710328039,
        "uri": "https://pleiades.stoa.org/places/393511"
    },
    "https://pleiades.stoa.org/places/397011004": {
        "alignments": [
            "https://resource.manto.unh.edu/10956126"
        ],
        "place_title": "Temple of Athena Skiras at Phaleron",
        "place_types": [
            "temple-2"
        ],
        "representative_latitude": 37.937309,
        "representative_longitude": 23.706248,
        "uri": "https://pleiades.stoa.org/places/397011004"
    },
    "https://pleiades.stoa.org/places/403253": {
        "alignments": [
            "https://resource.manto.unh.edu/11313573"
        ],
        "place_title": "Pisae",
        "place_types": [
            "settlement"
        ],
        "representative_latitude": 43.719417,
        "representative_longitude": 10.400106,
        "uri": "https://pleiades.stoa.org/places/403253"
    },
    "https://pleiades.stoa.org/places/405322395": {
        "alignments": [
            "https://resource.manto.unh.edu/11319759"
        ],
        "place_title": "Unnamed domus in Via Graziosa",
        "place_types": [
            "townhouse"
        ],
        "representative_latitude": 41.895913201803026,
        "representative_longitude": 12.49379537638648,
        "uri": "https://pleiades.stoa.org/places/405322395"
    },
    "https://pleiades.stoa.org/places/413114": {
        "alignments": [
            "https://resource.manto.unh.edu/11313736"
        ],
        "place_title": "Cures",
        "place_types": [
            "settlement"
        ],
        "representative_latitude": 42.1802695,
        "representative_longitude": 12.68544,
        "uri": "https://pleiades.stoa.org/places/413114"
    },
    "https://pleiades.stoa.org/places/413122": {
        "alignments": [
            "https://resource.manto.unh.edu/9882132"
        ],
        "place_title": "Etruria/Tuscia (region)",
        "place_types": [
            "region"
        ],
        "representative_latitude": 42.67345024052548,
        "representative_longitude": 11.533787709531843,
        "uri": "https://pleiades.stoa.org/places/413122"
    },
    "https://pleiades.stoa.org/places/413126": {
        "alignments": [
            "https://resource.manto.unh.edu/11315514"
        ],
        "place_title": "Falerii Veteres",
        "place_types": [
            "settlement",
            "findspot"
        ],
        "representative_latitude": 42.2988,
        "representative_longitude": 12.4217,
        "uri": "https://pleiades.stoa.org/places/413126"
    },
    "https://pleiades.stoa.org/places/422834": {
        "alignments": [
            "https://resource.manto.unh.edu/11315475"
        ],
        "place_title": "Anio (river)",
        "place_types": [
            "river"
        ],
        "representative_latitude": 41.94294029060882,
        "representative_longitude": 12.900089881667098,
        "uri": "https://pleiades.stoa.org/places/422834"
    },
    "https://pleiades.stoa.org/places/422836": {
        "alignments": [
            "https://resource.manto.unh.edu/11313724"
        ],
        "place_title": "Antemnae",
        "place_types": [
            "settlement"
        ],
        "representative_latitude": 41.937528,
        "representative_longitude": 12.500656,
        "uri": "https://pleiades.stoa.org/places/422836"
    },
    "https://pleiades.stoa.org/places/422837": {
        "alignments": [
            "https://resource.manto.unh.edu/11313752"
        ],
        "place_title": "Antium",
        "place_types": [
            "settlement",
            "port"
        ],
        "representative_latitude": 41.44795,
        "representative_longitude": 12.628995,
        "uri": "https://pleiades.stoa.org/places/422837"
    },
    "https://pleiades.stoa.org/places/422843": {
        "alignments": [
            "https://resource.manto.unh.edu/11313695"
        ],
        "place_title": "Ardea",
        "place_types": [
            "urban",
            "settlement"
        ],
        "representative_latitude": 41.609389,
        "representative_longitude": 12.547028,
        "uri": "https://pleiades.stoa.org/places/422843"
    },
    "https://pleiades.stoa.org/places/422844": {
        "alignments": [
            "https://resource.manto.unh.edu/10158897"
        ],
        "place_title": "Aricia",
        "place_types": [
            "settlement"
        ],
        "representative_latitude": 41.721399649999995,
        "representative_longitude": 12.673347150000001,
        "uri": "https://pleiades.stoa.org/places/422844"
    },
    "https://pleiades.stoa.org/places/422898": {
        "alignments": [
            "https://resource.manto.unh.edu/11313723"
        ],
        "place_title": "Collatia",
        "place_types": [
            "settlement"
        ],
        "representative_latitude": 41.925248,
        "representative_longitude": 12.667077,
        "uri": "https://pleiades.stoa.org/places/422898"
    },
    "https://pleiades.stoa.org/places/422923": {
        "alignments": [
            "https://resource.manto.unh.edu/11313725"
        ],
        "place_title": "Fidenae",
        "place_types": [
            "settlement"
        ],
        "representative_latitude": 41.982053,
        "representative_longitude": 12.515431,
        "uri": "https://pleiades.stoa.org/places/422923"
    },
    "https://pleiades.stoa.org/places/422952": {
        "alignments": [
            "https://resource.manto.unh.edu/11313726"
        ],
        "place_title": "Labicum",
        "place_types": [
            "settlement"
        ],
        "representative_latitude": 41.820426499999996,
        "representative_longitude": 12.743204500000001,
        "uri": "https://pleiades.stoa.org/places/422952"
    },
    "https://pleiades.stoa.org/places/422958": {
        "alignments": [
            "https://resource.manto.unh.edu/11310149"
        ],
        "place_title": "Latium Vetus (region)",
        "place_types": [
            "region"
        ],
        "representative_latitude": 41.86734115798325,
        "representative_longitude": 12.682319260978995,
        "uri": "https://pleiades.stoa.org/places/422958"
    },
    "https://pleiades.stoa.org/places/423025": {
        "alignments": [
            "https://resource.manto.unh.edu/10266956"
        ],
        "place_title": "Roma",
        "place_types": [
            "urban",
            "settlement"
        ],
        "representative_latitude": 41.88978698013976,
        "representative_longitude": 12.492137782260473,
        "uri": "https://pleiades.stoa.org/places/423025"
    },
    "https://pleiades.stoa.org/places/432622": {
        "alignments": [
            "https://resource.manto.unh.edu/11313780"
        ],
        "place_title": "Acherusia Palus",
        "place_types": [
            "lake"
        ],
        "representative_latitude": 40.822539748615924,
        "representative_longitude": 14.05456982525995,
        "uri": "https://pleiades.stoa.org/places/432622"
    },
    "https://pleiades.stoa.org/places/432648": {
        "alignments": [
            "https://resource.manto.unh.edu/10093375"
        ],
        "place_title": "Aenaria/Pithekoussai (island)",
        "place_types": [
            "island"
        ],
        "representative_latitude": 40.72770001276983,
        "representative_longitude": 13.904894978169331,
        "uri": "https://pleiades.stoa.org/places/432648"
    },
    "https://pleiades.stoa.org/places/432712": {
        "alignments": [
            "https://resource.manto.unh.edu/11306302"
        ],
        "place_title": "Avernus (lake)",
        "place_types": [
            "lake"
        ],
        "representative_latitude": 40.83873683012817,
        "representative_longitude": 14.076166848047855,
        "uri": "https://pleiades.stoa.org/places/432712"
    },
    "https://pleiades.stoa.org/places/432716": {
        "alignments": [
            "https://resource.manto.unh.edu/10093378"
        ],
        "place_title": "Baiae",
        "place_types": [
            "settlement",
            "archaeological-site",
            "bath"
        ],
        "representative_latitude": 40.81736068543394,
        "representative_longitude": 14.070273402205403,
        "uri": "https://pleiades.stoa.org/places/432716"
    },
    "https://pleiades.stoa.org/places/432734": {
        "alignments": [
            "https://resource.manto.unh.edu/11303455"
        ],
        "place_title": "Caieta",
        "place_types": [
            "settlement",
            "port"
        ],
        "representative_latitude": 41.214072,
        "representative_longitude": 13.570989,
        "uri": "https://pleiades.stoa.org/places/432734"
    },
    "https://pleiades.stoa.org/places/432781": {
        "alignments": [
            "https://resource.manto.unh.edu/11303335"
        ],
        "place_title": "Kirkaion Akron/Veneris Pr.",
        "place_types": [
            "cape",
            "mountain"
        ],
        "representative_latitude": 41.2356231,
        "representative_longitude": 13.047962550000001,
        "uri": "https://pleiades.stoa.org/places/432781"
    },
    "https://pleiades.stoa.org/places/432808": {
        "alignments": [
            "https://resource.manto.unh.edu/10214289"
        ],
        "place_title": "Cumae/Kyme (Campanian)",
        "place_types": [
            "settlement",
            "port"
        ],
        "representative_latitude": 40.847949650000004,
        "representative_longitude": 14.0563813,
        "uri": "https://pleiades.stoa.org/places/432808"
    },
    "https://pleiades.stoa.org/places/432815": {
        "alignments": [
            "https://resource.manto.unh.edu/11309930"
        ],
        "place_title": "Dikaiarcheia/Puteoli",
        "place_types": [
            "settlement"
        ],
        "representative_latitude": 40.825838,
        "representative_longitude": 14.121741499999999,
        "uri": "https://pleiades.stoa.org/places/432815"
    },
    "https://pleiades.stoa.org/places/432900": {
        "alignments": [
            "https://resource.manto.unh.edu/11310149"
        ],
        "place_title": "Latium (region)",
        "place_types": [
            "region"
        ],
        "representative_latitude": 41.59054311194667,
        "representative_longitude": 13.192265006213466,
        "uri": "https://pleiades.stoa.org/places/432900"
    },
    "https://pleiades.stoa.org/places/432915": {
        "alignments": [
            "https://resource.manto.unh.edu/10093382"
        ],
        "place_title": "Lucrinus (lake)",
        "place_types": [
            "lake"
        ],
        "representative_latitude": 40.82920520720852,
        "representative_longitude": 14.080163455011595,
        "uri": "https://pleiades.stoa.org/places/432915"
    },
    "https://pleiades.stoa.org/places/432942": {
        "alignments": [
            "https://resource.manto.unh.edu/11304521"
        ],
        "place_title": "Misenum (promontory)",
        "place_types": [
            "cape"
        ],
        "representative_latitude": 40.77771,
        "representative_longitude": 14.08941,
        "uri": "https://pleiades.stoa.org/places/432942"
    },
    "https://pleiades.stoa.org/places/433014": {
        "alignments": [
            "https://resource.manto.unh.edu/9721323"
        ],
        "place_title": "Parthenope/Neapolis",
        "place_types": [
            "urban",
            "settlement"
        ],
        "representative_latitude": 40.839995,
        "representative_longitude": 14.25287,
        "uri": "https://pleiades.stoa.org/places/433014"
    },
    "https://pleiades.stoa.org/places/433032": {
        "alignments": [
            "https://resource.manto.unh.edu/11316362"
        ],
        "place_title": "Pompeii",
        "place_types": [
            "urban",
            "settlement"
        ],
        "representative_latitude": 40.74941,
        "representative_longitude": 14.485429,
        "uri": "https://pleiades.stoa.org/places/433032"
    },
    "https://pleiades.stoa.org/places/433124": {
        "alignments": [
            "https://resource.manto.unh.edu/9358812"
        ],
        "place_title": "Sirenes/Seirenoussai (islands)",
        "place_types": [
            "archipelago",
            "island"
        ],
        "representative_latitude": 40.581220825311135,
        "representative_longitude": 14.43181449645628,
        "uri": "https://pleiades.stoa.org/places/433124"
    },
    "https://pleiades.stoa.org/places/442476": {
        "alignments": [
            "https://resource.manto.unh.edu/10082252"
        ],
        "place_title": "Argos Hippium/Arpi/Argyripa",
        "place_types": [
            "settlement"
        ],
        "representative_latitude": 41.475654,
        "representative_longitude": 15.555444,
        "uri": "https://pleiades.stoa.org/places/442476"
    },
    "https://pleiades.stoa.org/places/442564": {
        "alignments": [
            "https://resource.manto.unh.edu/1008226"
        ],
        "place_title": "Daunii",
        "place_types": [
            "label",
            "people"
        ],
        "representative_latitude": 41.47370293024823,
        "representative_longitude": 15.500222129482696,
        "uri": "https://pleiades.stoa.org/places/442564"
    },
    "https://pleiades.stoa.org/places/442618": {
        "alignments": [
            "https://resource.manto.unh.edu/10769671"
        ],
        "place_title": "Iapyges",
        "place_types": [
            "label",
            "people"
        ],
        "representative_latitude": 40.724800812864174,
        "representative_longitude": 17.17666983598178,
        "uri": "https://pleiades.stoa.org/places/442618"
    },
    "https://pleiades.stoa.org/places/442632": {
        "alignments": [
            "https://resource.manto.unh.edu/11314916"
        ],
        "place_title": "Leuca/Portus Sallentinus",
        "place_types": [
            "settlement",
            "port"
        ],
        "representative_latitude": 39.801,
        "representative_longitude": 18.356944,
        "uri": "https://pleiades.stoa.org/places/442632"
    },
    "https://pleiades.stoa.org/places/442640": {
        "alignments": [
            "https://resource.manto.unh.edu/11314863"
        ],
        "place_title": "Luceria/Noukeria (Apoulon)",
        "place_types": [
            "settlement"
        ],
        "representative_latitude": 41.5086475,
        "representative_longitude": 15.3354745,
        "uri": "https://pleiades.stoa.org/places/442640"
    },
    "https://pleiades.stoa.org/places/442658": {
        "alignments": [
            "https://resource.manto.unh.edu/11258656"
        ],
        "place_title": "Metapontum",
        "place_types": [
            "settlement"
        ],
        "representative_latitude": 40.38364140322288,
        "representative_longitude": 16.824331523620337,
        "uri": "https://pleiades.stoa.org/places/442658"
    },
    "https://pleiades.stoa.org/places/442704": {
        "alignments": [
            "https://resource.manto.unh.edu/11309855"
        ],
        "place_title": "Paestanus Sinus",
        "place_types": [
            "water-open"
        ],
        "representative_latitude": 40.51166295892573,
        "representative_longitude": 14.68904021860841,
        "uri": "https://pleiades.stoa.org/places/442704"
    },
    "https://pleiades.stoa.org/places/442733": {
        "alignments": [
            "https://resource.manto.unh.edu/11302797"
        ],
        "place_title": "Poseidonia/Paestum",
        "place_types": [
            "settlement",
            "archaeological-site"
        ],
        "representative_latitude": 40.420848339395185,
        "representative_longitude": 15.005078600555327,
        "uri": "https://pleiades.stoa.org/places/442733"
    },
    "https://pleiades.stoa.org/places/442810": {
        "alignments": [
            "https://resource.manto.unh.edu/10272458"
        ],
        "place_title": "Taras/Tarentum/Neptunia",
        "place_types": [
            "settlement"
        ],
        "representative_latitude": 40.4737866,
        "representative_longitude": 17.2330416,
        "uri": "https://pleiades.stoa.org/places/442810"
    },
    "https://pleiades.stoa.org/places/442811": {
        "alignments": [
            "https://resource.manto.unh.edu/10272457"
        ],
        "place_title": "Taras (river)",
        "place_types": [
            "river"
        ],
        "representative_latitude": 40.517012291381945,
        "representative_longitude": 17.14739762187503,
        "uri": "https://pleiades.stoa.org/places/442811"
    },
    "https://pleiades.stoa.org/places/44420465": {
        "alignments": [
            "https://resource.manto.unh.edu/9055591"
        ],
        "place_title": "Korykion Antron (Kilikia)",
        "place_types": [
            "cave"
        ],
        "representative_latitude": 36.4533768339881,
        "representative_longitude": 34.105832985386144,
        "uri": "https://pleiades.stoa.org/places/44420465"
    },
    "https://pleiades.stoa.org/places/444395424": {
        "alignments": [
            "https://resource.manto.unh.edu/11313727"
        ],
        "place_title": "Festoi",
        "place_types": [
            "unknown"
        ],
        "representative_latitude": null,
        "representative_longitude": null,
        "uri": "https://pleiades.stoa.org/places/444395424"
    },
    "https://pleiades.stoa.org/places/452317": {
        "alignments": [
            "https://resource.manto.unh.edu/9358724"
        ],
        "place_title": "Croto(n)",
        "place_types": [
            "settlement"
        ],
        "representative_latitude": 39.0811675,
        "representative_longitude": 17.127966,
        "uri": "https://pleiades.stoa.org/places/452317"
    },
    "https://pleiades.stoa.org/places/452389": {
        "alignments": [
            "https://resource.manto.unh.edu/9358754"
        ],
        "place_title": "Neaethus (river)",
        "place_types": [
            "river"
        ],
        "representative_latitude": 39.24193479162499,
        "representative_longitude": 16.772195424446238,
        "uri": "https://pleiades.stoa.org/places/452389"
    },
    "https://pleiades.stoa.org/places/452395": {
        "alignments": [
            "https://resource.manto.unh.edu/10137174"
        ],
        "place_title": "Oenotri",
        "place_types": [
            "label",
            "people"
        ],
        "representative_latitude": 40.43095547114045,
        "representative_longitude": 16.443132258449403,
        "uri": "https://pleiades.stoa.org/places/452395"
    },
    "https://pleiades.stoa.org/places/452416": {
        "alignments": [
            "https://resource.manto.unh.edu/8254006"
        ],
        "place_title": "Rhegion/Regium",
        "place_types": [
            "settlement"
        ],
        "representative_latitude": 38.109279,
        "representative_longitude": 15.64393,
        "uri": "https://pleiades.stoa.org/places/452416"
    },
    "https://pleiades.stoa.org/places/452436": {
        "alignments": [
            "https://resource.manto.unh.edu/11309915"
        ],
        "place_title": "Scylla",
        "place_types": [
            "fort"
        ],
        "representative_latitude": 38.253702,
        "representative_longitude": 15.715194,
        "uri": "https://pleiades.stoa.org/places/452436"
    },
    "https://pleiades.stoa.org/places/452457": {
        "alignments": [
            "https://resource.manto.unh.edu/9358727"
        ],
        "place_title": "Sybaris/Thurii/Copia",
        "place_types": [
            "settlement",
            "port",
            "archaeological-site"
        ],
        "representative_latitude": 39.71732767319154,
        "representative_longitude": 16.494262352883187,
        "uri": "https://pleiades.stoa.org/places/452457"
    },
    "https://pleiades.stoa.org/places/452469": {
        "alignments": [
            "https://resource.manto.unh.edu/10217837"
        ],
        "place_title": "Temesa/Tempsa",
        "place_types": [
            "settlement"
        ],
        "representative_latitude": 39.036454,
        "representative_longitude": 16.159633,
        "uri": "https://pleiades.stoa.org/places/452469"
    },
    "https://pleiades.stoa.org/places/462076": {
        "alignments": [
            "https://resource.manto.unh.edu/9746287"
        ],
        "place_title": "Aeoliae (islands)",
        "place_types": [
            "archipelago"
        ],
        "representative_latitude": 38.57983842819504,
        "representative_longitude": 14.882582216034839,
        "uri": "https://pleiades.stoa.org/places/462076"
    },
    "https://pleiades.stoa.org/places/462077": {
        "alignments": [
            "https://resource.manto.unh.edu/9055602"
        ],
        "place_title": "Aetna (mountain)",
        "place_types": [
            "mountain",
            "volcano"
        ],
        "representative_latitude": 37.75723275646079,
        "representative_longitude": 14.984597856051682,
        "uri": "https://pleiades.stoa.org/places/462077"
    },
    "https://pleiades.stoa.org/places/462086": {
        "alignments": [
            "https://resource.manto.unh.edu/11297708"
        ],
        "place_title": "Akragas/Agrigentum",
        "place_types": [
            "ekklesiasterion",
            "settlement",
            "temple",
            "church"
        ],
        "representative_latitude": 37.290594,
        "representative_longitude": 13.585475,
        "uri": "https://pleiades.stoa.org/places/462086"
    },
    "https://pleiades.stoa.org/places/462126": {
        "alignments": [
            "https://resource.manto.unh.edu/11298422"
        ],
        "place_title": "Camarina",
        "place_types": [
            "sanctuary",
            "settlement",
            "settlement-modern",
            "plaza"
        ],
        "representative_latitude": 36.87187848744483,
        "representative_longitude": 14.448323419479632,
        "uri": "https://pleiades.stoa.org/places/462126"
    },
    "https://pleiades.stoa.org/places/462201": {
        "alignments": [
            "https://resource.manto.unh.edu/9603207"
        ],
        "place_title": "Eryx",
        "place_types": [
            "settlement"
        ],
        "representative_latitude": 38.036517,
        "representative_longitude": 12.583607,
        "uri": "https://pleiades.stoa.org/places/462201"
    },
    "https://pleiades.stoa.org/places/462213": {
        "alignments": [
            "https://resource.manto.unh.edu/11306921"
        ],
        "place_title": "Gaulos (island)",
        "place_types": [
            "island"
        ],
        "representative_latitude": 36.045462725738716,
        "representative_longitude": 14.25557099762312,
        "uri": "https://pleiades.stoa.org/places/462213"
    },
    "https://pleiades.stoa.org/places/462214": {
        "alignments": [
            "https://resource.manto.unh.edu/10266964"
        ],
        "place_title": "Gela",
        "place_types": [
            "settlement"
        ],
        "representative_latitude": 37.063092499999996,
        "representative_longitude": 14.258470500000001,
        "uri": "https://pleiades.stoa.org/places/462214"
    },
    "https://pleiades.stoa.org/places/462236": {
        "alignments": [
            "https://resource.manto.unh.edu/10055351"
        ],
        "place_title": "(H)Enna",
        "place_types": [
            "settlement",
            "settlement-modern"
        ],
        "representative_latitude": 37.56720465,
        "representative_longitude": 14.28015265,
        "uri": "https://pleiades.stoa.org/places/462236"
    },
    "https://pleiades.stoa.org/places/462238": {
        "alignments": [
            "https://resource.manto.unh.edu/11304203"
        ],
        "place_title": "Heraia (mountain)",
        "place_types": [
            "mountain"
        ],
        "representative_latitude": 37.25,
        "representative_longitude": 14.25,
        "uri": "https://pleiades.stoa.org/places/462238"
    },
    "https://pleiades.stoa.org/places/462244": {
        "alignments": [
            "https://resource.manto.unh.edu/10149945"
        ],
        "place_title": "Himera",
        "place_types": [
            "settlement",
            "archaeological-site"
        ],
        "representative_latitude": 37.969836616449996,
        "representative_longitude": 13.822343795481169,
        "uri": "https://pleiades.stoa.org/places/462244"
    },
    "https://pleiades.stoa.org/places/462251": {
        "alignments": [
            "https://resource.manto.unh.edu/10268901"
        ],
        "place_title": "Hybla Gereatis",
        "place_types": [
            "settlement"
        ],
        "representative_latitude": 37.567342,
        "representative_longitude": 14.90091,
        "uri": "https://pleiades.stoa.org/places/462251"
    },
    "https://pleiades.stoa.org/places/462402": {
        "alignments": [
            "https://resource.manto.unh.edu/10215661"
        ],
        "place_title": "Ortygia (island)",
        "place_types": [
            "island"
        ],
        "representative_latitude": 37.060712723961686,
        "representative_longitude": 15.294473888591286,
        "uri": "https://pleiades.stoa.org/places/462402"
    },
    "https://pleiades.stoa.org/places/462492": {
        "alignments": [
            "https://resource.manto.unh.edu/8254007"
        ],
        "place_title": "Sicilia (island)",
        "place_types": [
            "island"
        ],
        "representative_latitude": 37.61459173747466,
        "representative_longitude": 14.04347904427738,
        "uri": "https://pleiades.stoa.org/places/462492"
    },
    "https://pleiades.stoa.org/places/462494": {
        "alignments": [
            "https://resource.manto.unh.edu/9746299"
        ],
        "place_title": "Siculum Fretum",
        "place_types": [
            "water-open",
            "strait"
        ],
        "representative_latitude": 38.11676404652523,
        "representative_longitude": 15.596238794188865,
        "uri": "https://pleiades.stoa.org/places/462494"
    },
    "https://pleiades.stoa.org/places/462503": {
        "alignments": [
            "https://resource.manto.unh.edu/11295783"
        ],
        "place_title": "Syracusae/Syrakousai",
        "place_types": [
            "settlement"
        ],
        "representative_latitude": 37.070078971013665,
        "representative_longitude": 15.283335658142617,
        "uri": "https://pleiades.stoa.org/places/462503"
    },
    "https://pleiades.stoa.org/places/471979": {
        "alignments": [
            "https://resource.manto.unh.edu/10272322"
        ],
        "place_title": "Nora",
        "place_types": [
            "settlement"
        ],
        "representative_latitude": 38.98439611765766,
        "representative_longitude": 9.015980360058585,
        "uri": "https://pleiades.stoa.org/places/471979"
    },
    "https://pleiades.stoa.org/places/471987": {
        "alignments": [
            "https://resource.manto.unh.edu/10272341"
        ],
        "place_title": "Olbia",
        "place_types": [
            "settlement",
            "port"
        ],
        "representative_latitude": 40.923,
        "representative_longitude": 9.500426,
        "uri": "https://pleiades.stoa.org/places/471987"
    },
    "https://pleiades.stoa.org/places/472014": {
        "alignments": [
            "https://resource.manto.unh.edu/8254032"
        ],
        "place_title": "Sardinia (island)",
        "place_types": [
            "island"
        ],
        "representative_latitude": 39.98553648783659,
        "representative_longitude": 8.990248170869132,
        "uri": "https://pleiades.stoa.org/places/472014"
    },
    "https://pleiades.stoa.org/places/472063": {
        "alignments": [
            "https://resource.manto.unh.edu/10272383"
        ],
        "place_title": "Corsica/Kyrnos (island)",
        "place_types": [
            "island"
        ],
        "representative_latitude": 42.1441461,
        "representative_longitude": 9.1903461,
        "uri": "https://pleiades.stoa.org/places/472063"
    },
    "https://pleiades.stoa.org/places/481739": {
        "alignments": [
            "https://resource.manto.unh.edu/11307461"
        ],
        "place_title": "Argos Orestikon",
        "place_types": [
            "settlement"
        ],
        "representative_latitude": 40.47373973491136,
        "representative_longitude": 21.244160396693676,
        "uri": "https://pleiades.stoa.org/places/481739"
    },
    "https://pleiades.stoa.org/places/481787": {
        "alignments": [
            "https://resource.manto.unh.edu/11307417"
        ],
        "place_title": "Chaonia",
        "place_types": [
            "region",
            "label"
        ],
        "representative_latitude": 40.21844758661315,
        "representative_longitude": 19.934544741752966,
        "uri": "https://pleiades.stoa.org/places/481787"
    },
    "https://pleiades.stoa.org/places/481829": {
        "alignments": [
            "https://resource.manto.unh.edu/9713796"
        ],
        "place_title": "Encheleioi",
        "place_types": [
            "label",
            "people"
        ],
        "representative_latitude": 41.20329281991122,
        "representative_longitude": 20.70501852127915,
        "uri": "https://pleiades.stoa.org/places/481829"
    },
    "https://pleiades.stoa.org/places/481866": {
        "alignments": [
            "https://resource.manto.unh.edu/8253942"
        ],
        "place_title": "Illyrii",
        "place_types": [
            "label"
        ],
        "representative_latitude": 41.8908585495261,
        "representative_longitude": 19.80654505616561,
        "uri": "https://pleiades.stoa.org/places/481866"
    },
    "https://pleiades.stoa.org/places/481953": {
        "alignments": [
            "https://resource.manto.unh.edu/11307152"
        ],
        "place_title": "Pelagonia",
        "place_types": [
            "region",
            "label"
        ],
        "representative_latitude": 41.31188172991739,
        "representative_longitude": 21.61008661982432,
        "uri": "https://pleiades.stoa.org/places/481953"
    },
    "https://pleiades.stoa.org/places/491522": {
        "alignments": [
            "https://resource.manto.unh.edu/8254005"
        ],
        "place_title": "Anthemous (river)",
        "place_types": [
            "river"
        ],
        "representative_latitude": 40.48052047729802,
        "representative_longitude": 23.127050847865533,
        "uri": "https://pleiades.stoa.org/places/491522"
    },
    "https://pleiades.stoa.org/places/491525": {
        "alignments": [
            "https://resource.manto.unh.edu/10148863"
        ],
        "place_title": "Aphytis",
        "place_types": [
            "settlement"
        ],
        "representative_latitude": 40.099366,
        "representative_longitude": 23.436606,
        "uri": "https://pleiades.stoa.org/places/491525"
    },
    "https://pleiades.stoa.org/places/491534": {
        "alignments": [
            "https://resource.manto.unh.edu/8195680"
        ],
        "place_title": "Axios (river)",
        "place_types": [
            "river"
        ],
        "representative_latitude": 41.54557774647995,
        "representative_longitude": 21.876266198662144,
        "uri": "https://pleiades.stoa.org/places/491534"
    },
    "https://pleiades.stoa.org/places/491553": {
        "alignments": [
            "https://resource.manto.unh.edu/9909052"
        ],
        "place_title": "Botti(ai)a/Emathia",
        "place_types": [
            "region",
            "label"
        ],
        "representative_latitude": 40.740344800905476,
        "representative_longitude": 22.32520580977991,
        "uri": "https://pleiades.stoa.org/places/491553"
    },
    "https://pleiades.stoa.org/places/491572": {
        "alignments": [
            "https://resource.manto.unh.edu/10268173"
        ],
        "place_title": "Dion",
        "place_types": [
            "settlement",
            "archaeological-site"
        ],
        "representative_latitude": 40.17638805619207,
        "representative_longitude": 22.4914368240037,
        "uri": "https://pleiades.stoa.org/places/491572"
    },
    "https://pleiades.stoa.org/places/491614": {
        "alignments": [
            "https://resource.manto.unh.edu/9878403"
        ],
        "place_title": "Haliakmon (river)",
        "place_types": [
            "river"
        ],
        "representative_latitude": 40.30689731920669,
        "representative_longitude": 21.6498645485174,
        "uri": "https://pleiades.stoa.org/places/491614"
    },
    "https://pleiades.stoa.org/places/491650": {
        "alignments": [
            "https://resource.manto.unh.edu/10055563"
        ],
        "place_title": "Leibethra",
        "place_types": [
            "settlement",
            "archaeological-site"
        ],
        "representative_latitude": 40.025415554721114,
        "representative_longitude": 22.535016835003518,
        "uri": "https://pleiades.stoa.org/places/491650"
    },
    "https://pleiades.stoa.org/places/491656": {
        "alignments": [
            "https://resource.manto.unh.edu/10267703"
        ],
        "place_title": "Macedonia (region)",
        "place_types": [
            "region",
            "label"
        ],
        "representative_latitude": 40.969115247784025,
        "representative_longitude": 22.4920786436148,
        "uri": "https://pleiades.stoa.org/places/491656"
    },
    "https://pleiades.stoa.org/places/491677": {
        "alignments": [
            "https://resource.manto.unh.edu/8253991"
        ],
        "place_title": "Olympos (mountain in Greece)",
        "place_types": [
            "mountain"
        ],
        "representative_latitude": 40.085556,
        "representative_longitude": 22.358611,
        "uri": "https://pleiades.stoa.org/places/491677"
    },
    "https://pleiades.stoa.org/places/491680": {
        "alignments": [
            "https://resource.manto.unh.edu/8195619"
        ],
        "place_title": "Paionia",
        "place_types": [
            "label",
            "people"
        ],
        "representative_latitude": 41.75,
        "representative_longitude": 21.75,
        "uri": "https://pleiades.stoa.org/places/491680"
    },
    "https://pleiades.stoa.org/places/491689": {
        "alignments": [
            "https://resource.manto.unh.edu/11288769"
        ],
        "place_title": "Perraibia",
        "place_types": [
            "region",
            "label",
            "people"
        ],
        "representative_latitude": 39.946586306421366,
        "representative_longitude": 22.08752791118756,
        "uri": "https://pleiades.stoa.org/places/491689"
    },
    "https://pleiades.stoa.org/places/491696": {
        "alignments": [
            "https://resource.manto.unh.edu/8358998"
        ],
        "place_title": "Pieria",
        "place_types": [
            "region",
            "label",
            "people"
        ],
        "representative_latitude": 40.36007295152933,
        "representative_longitude": 22.487177163189624,
        "uri": "https://pleiades.stoa.org/places/491696"
    },
    "https://pleiades.stoa.org/places/491697": {
        "alignments": [
            "https://resource.manto.unh.edu/10055564"
        ],
        "place_title": "Pimpleia",
        "place_types": [
            "settlement"
        ],
        "representative_latitude": 40.143408,
        "representative_longitude": 22.493148,
        "uri": "https://pleiades.stoa.org/places/491697"
    },
    "https://pleiades.stoa.org/places/491712": {
        "alignments": [
            "https://resource.manto.unh.edu/11315307"
        ],
        "place_title": "Rhaikelos",
        "place_types": [
            "settlement"
        ],
        "representative_latitude": 40.471036,
        "representative_longitude": 22.854091,
        "uri": "https://pleiades.stoa.org/places/491712"
    },
    "https://pleiades.stoa.org/places/50004": {
        "alignments": [
            "https://resource.manto.unh.edu/9612990"
        ],
        "place_title": "India",
        "place_types": [
            "region",
            "label"
        ],
        "representative_latitude": 20.63673796159033,
        "representative_longitude": 79.53326050324434,
        "uri": "https://pleiades.stoa.org/places/50004"
    },
    "https://pleiades.stoa.org/places/501323": {
        "alignments": [
            "https://resource.manto.unh.edu/8253990"
        ],
        "place_title": "Abdera",
        "place_types": [
            "settlement"
        ],
        "representative_latitude": 40.932827748724776,
        "representative_longitude": 24.974308259841017,
        "uri": "https://pleiades.stoa.org/places/501323"
    },
    "https://pleiades.stoa.org/places/501325": {
        "alignments": [
            "https://resource.manto.unh.edu/9718664"
        ],
        "place_title": "Abydos",
        "place_types": [
            "settlement",
            "archaeological-site"
        ],
        "representative_latitude": 40.194215640043836,
        "representative_longitude": 26.411312762572948,
        "uri": "https://pleiades.stoa.org/places/501325"
    },
    "https://pleiades.stoa.org/places/501364": {
        "alignments": [
            "https://resource.manto.unh.edu/11311527"
        ],
        "place_title": "Astyra",
        "place_types": [
            "settlement"
        ],
        "representative_latitude": 40.043192,
        "representative_longitude": 26.682841,
        "uri": "https://pleiades.stoa.org/places/501364"
    },
    "https://pleiades.stoa.org/places/501366": {
        "alignments": [
            "https://resource.manto.unh.edu/9909053"
        ],
        "place_title": "Athos (mountain)",
        "place_types": [
            "mountain"
        ],
        "representative_latitude": 40.157222,
        "representative_longitude": 24.326389,
        "uri": "https://pleiades.stoa.org/places/501366"
    },
    "https://pleiades.stoa.org/places/501410": {
        "alignments": [
            "https://resource.manto.unh.edu/10057160"
        ],
        "place_title": "Eion",
        "place_types": [
            "settlement"
        ],
        "representative_latitude": 40.7893235,
        "representative_longitude": 23.872847999999998,
        "uri": "https://pleiades.stoa.org/places/501410"
    },
    "https://pleiades.stoa.org/places/501411": {
        "alignments": [
            "https://resource.manto.unh.edu/10073065"
        ],
        "place_title": "Elaious",
        "place_types": [
            "settlement"
        ],
        "representative_latitude": 40.054457,
        "representative_longitude": 26.223326,
        "uri": "https://pleiades.stoa.org/places/501411"
    },
    "https://pleiades.stoa.org/places/501412": {
        "alignments": [
            "https://resource.manto.unh.edu/9358758"
        ],
        "place_title": "Ennea Hodoi",
        "place_types": [
            "settlement",
            "archaeological-site"
        ],
        "representative_latitude": 40.8403,
        "representative_longitude": 23.8556,
        "uri": "https://pleiades.stoa.org/places/501412"
    },
    "https://pleiades.stoa.org/places/501439": {
        "alignments": [
            "https://resource.manto.unh.edu/9905860"
        ],
        "place_title": "Imbros (island)",
        "place_types": [
            "island"
        ],
        "representative_latitude": 40.1633120125065,
        "representative_longitude": 25.856712893679294,
        "uri": "https://pleiades.stoa.org/places/501439"
    },
    "https://pleiades.stoa.org/places/501551": {
        "alignments": [
            "https://resource.manto.unh.edu/9612998"
        ],
        "place_title": "Pangaion (mountain)",
        "place_types": [
            "mountain"
        ],
        "representative_latitude": 40.916944,
        "representative_longitude": 24.082778,
        "uri": "https://pleiades.stoa.org/places/501551"
    },
    "https://pleiades.stoa.org/places/501556": {
        "alignments": [
            "https://resource.manto.unh.edu/9718661"
        ],
        "place_title": "Perkote",
        "place_types": [
            "settlement"
        ],
        "representative_latitude": 40.273913,
        "representative_longitude": 26.588806,
        "uri": "https://pleiades.stoa.org/places/501556"
    },
    "https://pleiades.stoa.org/places/501570": {
        "alignments": [
            "https://resource.manto.unh.edu/10268768"
        ],
        "place_title": "Pityoussa/Lampsacus",
        "place_types": [
            "settlement"
        ],
        "representative_latitude": 40.346685,
        "representative_longitude": 26.699162,
        "uri": "https://pleiades.stoa.org/places/501570"
    },
    "https://pleiades.stoa.org/places/501592": {
        "alignments": [
            "https://resource.manto.unh.edu/11299930"
        ],
        "place_title": "Rhodope (mountain)",
        "place_types": [
            "mountain",
            "label"
        ],
        "representative_latitude": 41.583604985683245,
        "representative_longitude": 24.53427132151436,
        "uri": "https://pleiades.stoa.org/places/501592"
    },
    "https://pleiades.stoa.org/places/501597": {
        "alignments": [
            "https://resource.manto.unh.edu/9615907"
        ],
        "place_title": "Samothrace (island)",
        "place_types": [
            "island"
        ],
        "representative_latitude": 40.45231423322517,
        "representative_longitude": 25.57623818601237,
        "uri": "https://pleiades.stoa.org/places/501597"
    },
    "https://pleiades.stoa.org/places/501602": {
        "alignments": [
            "https://resource.manto.unh.edu/11293793"
        ],
        "place_title": "Sarpedon (promontory in Thrace)",
        "place_types": [
            "cape"
        ],
        "representative_latitude": 40.640181,
        "representative_longitude": 26.061206,
        "uri": "https://pleiades.stoa.org/places/501602"
    },
    "https://pleiades.stoa.org/places/501604": {
        "alignments": [
            "https://resource.manto.unh.edu/9744210"
        ],
        "place_title": "Selleis (river)",
        "place_types": [
            "river"
        ],
        "representative_latitude": null,
        "representative_longitude": null,
        "uri": "https://pleiades.stoa.org/places/501604"
    },
    "https://pleiades.stoa.org/places/501609": {
        "alignments": [
            "https://resource.manto.unh.edu/9718663"
        ],
        "place_title": "Sestos",
        "place_types": [
            "settlement"
        ],
        "representative_latitude": 40.21339676714569,
        "representative_longitude": 26.389269150961123,
        "uri": "https://pleiades.stoa.org/places/501609"
    },
    "https://pleiades.stoa.org/places/501629": {
        "alignments": [
            "https://resource.manto.unh.edu/8254009"
        ],
        "place_title": "Strymon (river)",
        "place_types": [
            "river"
        ],
        "representative_latitude": 41.809453061026176,
        "representative_longitude": 23.16118989299337,
        "uri": "https://pleiades.stoa.org/places/501629"
    },
    "https://pleiades.stoa.org/places/501634": {
        "alignments": [
            "https://resource.manto.unh.edu/9612855"
        ],
        "place_title": "Thasos (settlement)",
        "place_types": [
            "settlement"
        ],
        "representative_latitude": 40.78201,
        "representative_longitude": 24.717535,
        "uri": "https://pleiades.stoa.org/places/501634"
    },
    "https://pleiades.stoa.org/places/501635": {
        "alignments": [
            "https://resource.manto.unh.edu/8253997"
        ],
        "place_title": "Thasos (island)",
        "place_types": [
            "island"
        ],
        "representative_latitude": 40.67649468758827,
        "representative_longitude": 24.66503521487604,
        "uri": "https://pleiades.stoa.org/places/501635"
    },
    "https://pleiades.stoa.org/places/501646": {
        "alignments": [
            "https://resource.manto.unh.edu/8253998"
        ],
        "place_title": "Torone",
        "place_types": [
            "settlement"
        ],
        "representative_latitude": 39.97708095663752,
        "representative_longitude": 23.9007922870719,
        "uri": "https://pleiades.stoa.org/places/501646"
    },
    "https://pleiades.stoa.org/places/511138": {
        "alignments": [
            "https://resource.manto.unh.edu/8195173"
        ],
        "place_title": "Adrasteia",
        "place_types": [
            "settlement"
        ],
        "representative_latitude": 40.383655,
        "representative_longitude": 27.191289,
        "uri": "https://pleiades.stoa.org/places/511138"
    },
    "https://pleiades.stoa.org/places/511141": {
        "alignments": [
            "https://resource.manto.unh.edu/9718653"
        ],
        "place_title": "Aisepos (river)",
        "place_types": [
            "river"
        ],
        "representative_latitude": 40.01658956621533,
        "representative_longitude": 27.45986930262158,
        "uri": "https://pleiades.stoa.org/places/511141"
    },
    "https://pleiades.stoa.org/places/511189": {
        "alignments": [
            "https://resource.manto.unh.edu/11297903"
        ],
        "place_title": "Bithynia (region)",
        "place_types": [
            "region",
            "label"
        ],
        "representative_latitude": 40.562857811901765,
        "representative_longitude": 30.72017621181448,
        "uri": "https://pleiades.stoa.org/places/511189"
    },
    "https://pleiades.stoa.org/places/511268": {
        "alignments": [
            "https://resource.manto.unh.edu/10815223"
        ],
        "place_title": "Helikore/Nicaea",
        "place_types": [
            "settlement"
        ],
        "representative_latitude": 40.42909366666667,
        "representative_longitude": 29.714681666666667,
        "uri": "https://pleiades.stoa.org/places/511268"
    },
    "https://pleiades.stoa.org/places/511337": {
        "alignments": [
            "https://resource.manto.unh.edu/10146662"
        ],
        "place_title": "Nicomedia",
        "place_types": [
            "settlement"
        ],
        "representative_latitude": 40.7651905,
        "representative_longitude": 29.919887000000003,
        "uri": "https://pleiades.stoa.org/places/511337"
    },
    "https://pleiades.stoa.org/places/511354": {
        "alignments": [
            "https://resource.manto.unh.edu/10774934"
        ],
        "place_title": "Parium/Col. Gemella Iulia *Hadriana",
        "place_types": [
            "settlement",
            "port"
        ],
        "representative_latitude": 40.42369835459142,
        "representative_longitude": 27.07026170519081,
        "uri": "https://pleiades.stoa.org/places/511354"
    },
    "https://pleiades.stoa.org/places/511381": {
        "alignments": [
            "https://resource.manto.unh.edu/11310130"
        ],
        "place_title": "Propontis",
        "place_types": [
            "water-open"
        ],
        "representative_latitude": 40.6666672,
        "representative_longitude": 28.2499999,
        "uri": "https://pleiades.stoa.org/places/511381"
    },
    "https://pleiades.stoa.org/places/511385": {
        "alignments": [
            "https://resource.manto.unh.edu/11301701"
        ],
        "place_title": "Prusias ad Mare/Kios",
        "place_types": [
            "settlement",
            "port"
        ],
        "representative_latitude": 40.432469,
        "representative_longitude": 29.15639,
        "uri": "https://pleiades.stoa.org/places/511385"
    },
    "https://pleiades.stoa.org/places/511391": {
        "alignments": [
            "https://resource.manto.unh.edu/10815232"
        ],
        "place_title": "Pythopolis",
        "place_types": [
            "settlement"
        ],
        "representative_latitude": 40.396001,
        "representative_longitude": 29.413577,
        "uri": "https://pleiades.stoa.org/places/511391"
    },
    "https://pleiades.stoa.org/places/511404": {
        "alignments": [
            "https://resource.manto.unh.edu/9374909"
        ],
        "place_title": "Salmydessos (settlement)",
        "place_types": [
            "settlement",
            "settlement-modern"
        ],
        "representative_latitude": 41.6347531,
        "representative_longitude": 28.0957289,
        "uri": "https://pleiades.stoa.org/places/511404"
    },
    "https://pleiades.stoa.org/places/511406": {
        "alignments": [
            "https://resource.manto.unh.edu/9611997"
        ],
        "place_title": "Sangarius (river)",
        "place_types": [
            "river"
        ],
        "representative_latitude": 40.00874868169215,
        "representative_longitude": 31.084122109083374,
        "uri": "https://pleiades.stoa.org/places/511406"
    },
    "https://pleiades.stoa.org/places/511461": {
        "alignments": [
            "https://resource.manto.unh.edu/8195169"
        ],
        "place_title": "Zeleia",
        "place_types": [
            "settlement"
        ],
        "representative_latitude": 40.203574149999994,
        "representative_longitude": 27.59613655000002,
        "uri": "https://pleiades.stoa.org/places/511461"
    },
    "https://pleiades.stoa.org/places/520977": {
        "alignments": [
            "https://resource.manto.unh.edu/8253945"
        ],
        "place_title": "Bosphorus",
        "place_types": [
            "water-open"
        ],
        "representative_latitude": 41.114862975362485,
        "representative_longitude": 29.062150411489657,
        "uri": "https://pleiades.stoa.org/places/520977"
    },
    "https://pleiades.stoa.org/places/521160": {
        "alignments": [
            "https://resource.manto.unh.edu/8190052"
        ],
        "place_title": "Symplegades/Kyaneai (islands)",
        "place_types": [
            "archipelago",
            "label",
            "island"
        ],
        "representative_latitude": 41.260189234641295,
        "representative_longitude": 29.164478930815502,
        "uri": "https://pleiades.stoa.org/places/521160"
    },
    "https://pleiades.stoa.org/places/524143100": {
        "alignments": [
            "https://resource.manto.unh.edu/10151060"
        ],
        "place_title": "Amnisos",
        "place_types": [
            "settlement",
            "port"
        ],
        "representative_latitude": 35.32,
        "representative_longitude": 25.2,
        "uri": "https://pleiades.stoa.org/places/524143100"
    },
    "https://pleiades.stoa.org/places/530767": {
        "alignments": [
            "https://resource.manto.unh.edu/9613867"
        ],
        "place_title": "Acarnania",
        "place_types": [
            "region",
            "label"
        ],
        "representative_latitude": 38.69172145440447,
        "representative_longitude": 21.049797905284336,
        "uri": "https://pleiades.stoa.org/places/530767"
    },
    "https://pleiades.stoa.org/places/530768": {
        "alignments": [
            "https://resource.manto.unh.edu/9611994"
        ],
        "place_title": "Achelous (river)",
        "place_types": [
            "river"
        ],
        "representative_latitude": 38.985219561347925,
        "representative_longitude": 21.32854494701516,
        "uri": "https://pleiades.stoa.org/places/530768"
    },
    "https://pleiades.stoa.org/places/530769": {
        "alignments": [
            "https://resource.manto.unh.edu/10267634"
        ],
        "place_title": "Acheron (river)",
        "place_types": [
            "river"
        ],
        "representative_latitude": 39.23582444333076,
        "representative_longitude": 20.479480263011936,
        "uri": "https://pleiades.stoa.org/places/530769"
    },
    "https://pleiades.stoa.org/places/530789": {
        "alignments": [
            "https://resource.manto.unh.edu/9720481"
        ],
        "place_title": "Aithikia",
        "place_types": [
            "region",
            "label"
        ],
        "representative_latitude": 39.716520737719385,
        "representative_longitude": 21.276163016850315,
        "uri": "https://pleiades.stoa.org/places/530789"
    },
    "https://pleiades.stoa.org/places/530797": {
        "alignments": [
            "https://resource.manto.unh.edu/10160107"
        ],
        "place_title": "Amphilochia",
        "place_types": [
            "region",
            "label"
        ],
        "representative_latitude": 38.989617832069726,
        "representative_longitude": 21.242527169063973,
        "uri": "https://pleiades.stoa.org/places/530797"
    },
    "https://pleiades.stoa.org/places/530809": {
        "alignments": [
            "https://resource.manto.unh.edu/9613865"
        ],
        "place_title": "Argos Amphilochikon",
        "place_types": [
            "settlement",
            "archaeological-site"
        ],
        "representative_latitude": 38.93,
        "representative_longitude": 21.19,
        "uri": "https://pleiades.stoa.org/places/530809"
    },
    "https://pleiades.stoa.org/places/530816": {
        "alignments": [
            "https://resource.manto.unh.edu/11293043"
        ],
        "place_title": "Asteria (island)",
        "place_types": [
            "island",
            "port"
        ],
        "representative_latitude": 38.431574888038796,
        "representative_longitude": 20.598143035081932,
        "uri": "https://pleiades.stoa.org/places/530816"
    },
    "https://pleiades.stoa.org/places/530824": {
        "alignments": [
            "https://resource.manto.unh.edu/9603548"
        ],
        "place_title": "Bouthroton",
        "place_types": [
            "settlement",
            "port",
            "theatre",
            "archaeological-site"
        ],
        "representative_latitude": 39.74582571596043,
        "representative_longitude": 20.0207810013099,
        "uri": "https://pleiades.stoa.org/places/530824"
    },
    "https://pleiades.stoa.org/places/530826": {
        "alignments": [
            "https://resource.manto.unh.edu/8228872"
        ],
        "place_title": "Cephallania (island)",
        "place_types": [
            "island"
        ],
        "representative_latitude": 38.24942238382119,
        "representative_longitude": 20.547402460941214,
        "uri": "https://pleiades.stoa.org/places/530826"
    },
    "https://pleiades.stoa.org/places/530835": {
        "alignments": [
            "https://resource.manto.unh.edu/9587576"
        ],
        "place_title": "Corcyra (island)",
        "place_types": [
            "island"
        ],
        "representative_latitude": 39.61996963797889,
        "representative_longitude": 19.86654164868683,
        "uri": "https://pleiades.stoa.org/places/530835"
    },
    "https://pleiades.stoa.org/places/530845": {
        "alignments": [
            "https://resource.manto.unh.edu/8228869"
        ],
        "place_title": "Dolicha (island)",
        "place_types": [
            "island",
            "hill"
        ],
        "representative_latitude": 38.32248,
        "representative_longitude": 21.14824,
        "uri": "https://pleiades.stoa.org/places/530845"
    },
    "https://pleiades.stoa.org/places/530870": {
        "alignments": [
            "https://resource.manto.unh.edu/10150527"
        ],
        "place_title": "Ephyra/Kichyros",
        "place_types": [
            "settlement",
            "archaeological-site"
        ],
        "representative_latitude": 39.24348525994008,
        "representative_longitude": 20.53068963880464,
        "uri": "https://pleiades.stoa.org/places/530870"
    },
    "https://pleiades.stoa.org/places/530871": {
        "alignments": [
            "https://resource.manto.unh.edu/9358745"
        ],
        "place_title": "Epirus",
        "place_types": [
            "region",
            "label"
        ],
        "representative_latitude": 39.6854576580975,
        "representative_longitude": 20.71392032322251,
        "uri": "https://pleiades.stoa.org/places/530871"
    },
    "https://pleiades.stoa.org/places/530906": {
        "alignments": [
            "https://resource.manto.unh.edu/8194720"
        ],
        "place_title": "Ithaca (island)",
        "place_types": [
            "island"
        ],
        "representative_latitude": 38.40031697849913,
        "representative_longitude": 20.692808605771482,
        "uri": "https://pleiades.stoa.org/places/530906"
    },
    "https://pleiades.stoa.org/places/531074": {
        "alignments": [
            "https://resource.manto.unh.edu/11309426"
        ],
        "place_title": "Pronnoi",
        "place_types": [
            "settlement",
            "port"
        ],
        "representative_latitude": 38.145962,
        "representative_longitude": 20.776722,
        "uri": "https://pleiades.stoa.org/places/531074"
    },
    "https://pleiades.stoa.org/places/531113": {
        "alignments": [
            "https://resource.manto.unh.edu/8253962"
        ],
        "place_title": "Taphiae? (islands)",
        "place_types": [
            "archipelago",
            "island"
        ],
        "representative_latitude": 38.61076631314831,
        "representative_longitude": 20.86758031499232,
        "uri": "https://pleiades.stoa.org/places/531113"
    },
    "https://pleiades.stoa.org/places/531114": {
        "alignments": [
            "https://resource.manto.unh.edu/8253959"
        ],
        "place_title": "Taphos (island)",
        "place_types": [
            "island"
        ],
        "representative_latitude": 38.644024825535276,
        "representative_longitude": 20.77773592315459,
        "uri": "https://pleiades.stoa.org/places/531114"
    },
    "https://pleiades.stoa.org/places/531124": {
        "alignments": [
            "https://resource.manto.unh.edu/11297019"
        ],
        "place_title": "T(o)maros (mountain)",
        "place_types": [
            "mountain"
        ],
        "representative_latitude": 39.488,
        "representative_longitude": 20.791,
        "uri": "https://pleiades.stoa.org/places/531124"
    },
    "https://pleiades.stoa.org/places/531154": {
        "alignments": [
            "https://resource.manto.unh.edu/10214285"
        ],
        "place_title": "Zakythos/Zacynthus (settlement)",
        "place_types": [
            "settlement",
            "archaeological-site"
        ],
        "representative_latitude": 37.791389,
        "representative_longitude": 20.895278,
        "uri": "https://pleiades.stoa.org/places/531154"
    },
    "https://pleiades.stoa.org/places/531536068": {
        "alignments": [
            "https://resource.manto.unh.edu/11319107"
        ],
        "place_title": "House of the Vettii",
        "place_types": [
            "townhouse"
        ],
        "representative_latitude": 40.752098772352525,
        "representative_longitude": 14.484572700170595,
        "uri": "https://pleiades.stoa.org/places/531536068"
    },
    "https://pleiades.stoa.org/places/538289364": {
        "alignments": [
            "https://resource.manto.unh.edu/10214296"
        ],
        "place_title": "Tomb of Alcmaion (Psophis)",
        "place_types": [
            "unlocated",
            "tomb"
        ],
        "representative_latitude": null,
        "representative_longitude": null,
        "uri": "https://pleiades.stoa.org/places/538289364"
    },
    "https://pleiades.stoa.org/places/540582": {
        "alignments": [
            "https://resource.manto.unh.edu/10274687"
        ],
        "place_title": "Abai",
        "place_types": [
            "settlement",
            "archaeological-site"
        ],
        "representative_latitude": 38.58020157516997,
        "representative_longitude": 22.917061082075815,
        "uri": "https://pleiades.stoa.org/places/540582"
    },
    "https://pleiades.stoa.org/places/540611": {
        "alignments": [
            "https://resource.manto.unh.edu/8228899"
        ],
        "place_title": "Ainis",
        "place_types": [
            "region",
            "label",
            "people"
        ],
        "representative_latitude": 38.869852353300544,
        "representative_longitude": 22.176318496915897,
        "uri": "https://pleiades.stoa.org/places/540611"
    },
    "https://pleiades.stoa.org/places/540634": {
        "alignments": [
            "https://resource.manto.unh.edu/9372774"
        ],
        "place_title": "Anauros (river)",
        "place_types": [
            "river"
        ],
        "representative_latitude": 39.25,
        "representative_longitude": 22.75,
        "uri": "https://pleiades.stoa.org/places/540634"
    },
    "https://pleiades.stoa.org/places/540642": {
        "alignments": [
            "https://resource.manto.unh.edu/10274703"
        ],
        "place_title": "Antikyra",
        "place_types": [
            "settlement",
            "port"
        ],
        "representative_latitude": 38.375439,
        "representative_longitude": 22.626059,
        "uri": "https://pleiades.stoa.org/places/540642"
    },
    "https://pleiades.stoa.org/places/540644": {
        "alignments": [
            "https://resource.manto.unh.edu/9720422"
        ],
        "place_title": "Antron(es)",
        "place_types": [
            "settlement"
        ],
        "representative_latitude": 38.95098,
        "representative_longitude": 22.967482,
        "uri": "https://pleiades.stoa.org/places/540644"
    },
    "https://pleiades.stoa.org/places/540645": {
        "alignments": [
            "https://resource.manto.unh.edu/9374895"
        ],
        "place_title": "Aphetai?",
        "place_types": [
            "settlement"
        ],
        "representative_latitude": 39.146291,
        "representative_longitude": 23.312404,
        "uri": "https://pleiades.stoa.org/places/540645"
    },
    "https://pleiades.stoa.org/places/540662": {
        "alignments": [
            "https://resource.manto.unh.edu/8228905"
        ],
        "place_title": "Armenion",
        "place_types": [
            "settlement"
        ],
        "representative_latitude": 39.483449,
        "representative_longitude": 22.639119,
        "uri": "https://pleiades.stoa.org/places/540662"
    },
    "https://pleiades.stoa.org/places/540670": {
        "alignments": [
            "https://resource.manto.unh.edu/10267610"
        ],
        "place_title": "Askra",
        "place_types": [
            "settlement"
        ],
        "representative_latitude": 38.328222,
        "representative_longitude": 23.075384,
        "uri": "https://pleiades.stoa.org/places/540670"
    },
    "https://pleiades.stoa.org/places/540672": {
        "alignments": [
            "https://resource.manto.unh.edu/9612000"
        ],
        "place_title": "Asopos (river)",
        "place_types": [
            "river"
        ],
        "representative_latitude": 38.292260643993274,
        "representative_longitude": 23.61326323601511,
        "uri": "https://pleiades.stoa.org/places/540672"
    },
    "https://pleiades.stoa.org/places/540673": {
        "alignments": [
            "https://resource.manto.unh.edu/9651977"
        ],
        "place_title": "Aspledon/Eudeielos",
        "place_types": [
            "settlement"
        ],
        "representative_latitude": 38.540995,
        "representative_longitude": 22.992716,
        "uri": "https://pleiades.stoa.org/places/540673"
    },
    "https://pleiades.stoa.org/places/540676": {
        "alignments": [
            "https://resource.manto.unh.edu/9364246"
        ],
        "place_title": "Athamania",
        "place_types": [
            "label",
            "people"
        ],
        "representative_latitude": 39.29090087954501,
        "representative_longitude": 21.52209011501743,
        "uri": "https://pleiades.stoa.org/places/540676"
    },
    "https://pleiades.stoa.org/places/540689": {
        "alignments": [
            "https://resource.manto.unh.edu/8195196"
        ],
        "place_title": "Boeotia",
        "place_types": [
            "region"
        ],
        "representative_latitude": 38.31689716720101,
        "representative_longitude": 23.13491914185319,
        "uri": "https://pleiades.stoa.org/places/540689"
    },
    "https://pleiades.stoa.org/places/540690": {
        "alignments": [
            "https://resource.manto.unh.edu/9720433"
        ],
        "place_title": "Boibe (lake)",
        "place_types": [
            "lake"
        ],
        "representative_latitude": 39.49337651294463,
        "representative_longitude": 22.81816386532787,
        "uri": "https://pleiades.stoa.org/places/540690"
    },
    "https://pleiades.stoa.org/places/540700": {
        "alignments": [
            "https://resource.manto.unh.edu/9688209"
        ],
        "place_title": "Cephisus (river)",
        "place_types": [
            "river"
        ],
        "representative_latitude": 38.511215365590004,
        "representative_longitude": 22.89421227404161,
        "uri": "https://pleiades.stoa.org/places/540700"
    },
    "https://pleiades.stoa.org/places/540715": {
        "alignments": [
            "https://resource.manto.unh.edu/10774304"
        ],
        "place_title": "Copais L.",
        "place_types": [
            "lake"
        ],
        "representative_latitude": 38.447092,
        "representative_longitude": 23.068726,
        "uri": "https://pleiades.stoa.org/places/540715"
    },
    "https://pleiades.stoa.org/places/540717": {
        "alignments": [
            "https://resource.manto.unh.edu/9651955"
        ],
        "place_title": "Coronea",
        "place_types": [
            "settlement"
        ],
        "representative_latitude": 38.391204,
        "representative_longitude": 22.957112,
        "uri": "https://pleiades.stoa.org/places/540717"
    },
    "https://pleiades.stoa.org/places/540719": {
        "alignments": [
            "https://resource.manto.unh.edu/10833986"
        ],
        "place_title": "Cynoscephalae",
        "place_types": [
            "hill"
        ],
        "representative_latitude": 39.25,
        "representative_longitude": 22.75,
        "uri": "https://pleiades.stoa.org/places/540719"
    },
    "https://pleiades.stoa.org/places/540723": {
        "alignments": [
            "https://resource.manto.unh.edu/9619303"
        ],
        "place_title": "Daulis",
        "place_types": [
            "settlement",
            "acropolis"
        ],
        "representative_latitude": 38.50749688014156,
        "representative_longitude": 22.72885773684517,
        "uri": "https://pleiades.stoa.org/places/540723"
    },
    "https://pleiades.stoa.org/places/540726": {
        "alignments": [
            "https://resource.manto.unh.edu/8253972"
        ],
        "place_title": "Delphi",
        "place_types": [
            "sanctuary",
            "settlement"
        ],
        "representative_latitude": 38.482289,
        "representative_longitude": 22.501169,
        "uri": "https://pleiades.stoa.org/places/540726"
    },
    "https://pleiades.stoa.org/places/540737": {
        "alignments": [
            "https://resource.manto.unh.edu/9619213"
        ],
        "place_title": "Dolopia",
        "place_types": [
            "region",
            "label"
        ],
        "representative_latitude": 39.09070217443264,
        "representative_longitude": 21.953546124601502,
        "uri": "https://pleiades.stoa.org/places/540737"
    },
    "https://pleiades.stoa.org/places/540740": {
        "alignments": [
            "https://resource.manto.unh.edu/9055651"
        ],
        "place_title": "Doris",
        "place_types": [
            "region",
            "label"
        ],
        "representative_latitude": 38.72285136186436,
        "representative_longitude": 22.424770778198358,
        "uri": "https://pleiades.stoa.org/places/540740"
    },
    "https://pleiades.stoa.org/places/540743": {
        "alignments": [
            "https://resource.manto.unh.edu/10274656"
        ],
        "place_title": "Drymaia",
        "place_types": [
            "settlement"
        ],
        "representative_latitude": 38.7061605,
        "representative_longitude": 22.5409903,
        "uri": "https://pleiades.stoa.org/places/540743"
    },
    "https://pleiades.stoa.org/places/540755": {
        "alignments": [
            "https://resource.manto.unh.edu/10146542"
        ],
        "place_title": "Elateia",
        "place_types": [
            "settlement",
            "archaeological-site",
            "settlement-modern"
        ],
        "representative_latitude": 38.64563331290165,
        "representative_longitude": 22.779986871112573,
        "uri": "https://pleiades.stoa.org/places/540755"
    },
    "https://pleiades.stoa.org/places/540756": {
        "alignments": [
            "https://resource.manto.unh.edu/9613044"
        ],
        "place_title": "Eleutherai",
        "place_types": [
            "settlement",
            "fort"
        ],
        "representative_latitude": 38.17944455630571,
        "representative_longitude": 23.37562158824775,
        "uri": "https://pleiades.stoa.org/places/540756"
    },
    "https://pleiades.stoa.org/places/540775": {
        "alignments": [
            "https://resource.manto.unh.edu/8195202"
        ],
        "place_title": "Euboea (island)",
        "place_types": [
            "island"
        ],
        "representative_latitude": 38.53,
        "representative_longitude": 23.87,
        "uri": "https://pleiades.stoa.org/places/540775"
    },
    "https://pleiades.stoa.org/places/540780": {
        "alignments": [
            "https://resource.manto.unh.edu/8253984"
        ],
        "place_title": "Euenos (river)",
        "place_types": [
            "river"
        ],
        "representative_latitude": 38.32639505998928,
        "representative_longitude": 21.518464666413397,
        "uri": "https://pleiades.stoa.org/places/540780"
    },
    "https://pleiades.stoa.org/places/540804": {
        "alignments": [
            "https://resource.manto.unh.edu/11307235"
        ],
        "place_title": "Halos",
        "place_types": [
            "settlement"
        ],
        "representative_latitude": 39.155182167717115,
        "representative_longitude": 22.834365564165577,
        "uri": "https://pleiades.stoa.org/places/540804"
    },
    "https://pleiades.stoa.org/places/540805": {
        "alignments": [
            "https://resource.manto.unh.edu/9651941"
        ],
        "place_title": "Harma",
        "place_types": [
            "settlement"
        ],
        "representative_latitude": 38.375735,
        "representative_longitude": 23.484128,
        "uri": "https://pleiades.stoa.org/places/540805"
    },
    "https://pleiades.stoa.org/places/540808": {
        "alignments": [
            "https://resource.manto.unh.edu/9878166"
        ],
        "place_title": "Helicon (mountain)",
        "place_types": [
            "mountain"
        ],
        "representative_latitude": 38.352778,
        "representative_longitude": 22.8225,
        "uri": "https://pleiades.stoa.org/places/540808"
    },
    "https://pleiades.stoa.org/places/540820": {
        "alignments": [
            "https://resource.manto.unh.edu/9688205"
        ],
        "place_title": "Hyampolis",
        "place_types": [
            "settlement"
        ],
        "representative_latitude": 38.59607190513586,
        "representative_longitude": 22.905583901325627,
        "uri": "https://pleiades.stoa.org/places/540820"
    },
    "https://pleiades.stoa.org/places/540823": {
        "alignments": [
            "https://resource.manto.unh.edu/10272433"
        ],
        "place_title": "Hyettos",
        "place_types": [
            "ruin",
            "settlement"
        ],
        "representative_latitude": 38.558,
        "representative_longitude": 23.1031,
        "uri": "https://pleiades.stoa.org/places/540823"
    },
    "https://pleiades.stoa.org/places/540829": {
        "alignments": [
            "https://resource.manto.unh.edu/9719432"
        ],
        "place_title": "(Hypo)Chalkis",
        "place_types": [
            "settlement"
        ],
        "representative_latitude": 38.354052,
        "representative_longitude": 21.6313226,
        "uri": "https://pleiades.stoa.org/places/540829"
    },
    "https://pleiades.stoa.org/places/540830": {
        "alignments": [
            "https://resource.manto.unh.edu/9613030"
        ],
        "place_title": "Hyria (Boeotia)",
        "place_types": [
            "settlement"
        ],
        "representative_latitude": 38.456822,
        "representative_longitude": 23.564791,
        "uri": "https://pleiades.stoa.org/places/540830"
    },
    "https://pleiades.stoa.org/places/540837": {
        "alignments": [
            "https://resource.manto.unh.edu/9356921"
        ],
        "place_title": "Iolkos",
        "place_types": [
            "settlement"
        ],
        "representative_latitude": 39.366305,
        "representative_longitude": 22.96886,
        "uri": "https://pleiades.stoa.org/places/540837"
    },
    "https://pleiades.stoa.org/places/540842": {
        "alignments": [
            "https://resource.manto.unh.edu/9720421"
        ],
        "place_title": "Iton?",
        "place_types": [
            "temple"
        ],
        "representative_latitude": 39.154769,
        "representative_longitude": 22.725931,
        "uri": "https://pleiades.stoa.org/places/540842"
    },
    "https://pleiades.stoa.org/places/540844": {
        "alignments": [
            "https://resource.manto.unh.edu/10214638"
        ],
        "place_title": "Kabeirion",
        "place_types": [
            "sanctuary",
            "archaeological-site"
        ],
        "representative_latitude": 38.31811638639703,
        "representative_longitude": 23.25502892087001,
        "uri": "https://pleiades.stoa.org/places/540844"
    },
    "https://pleiades.stoa.org/places/540861": {
        "alignments": [
            "https://resource.manto.unh.edu/9718702"
        ],
        "place_title": "Kerinthos",
        "place_types": [
            "settlement",
            "acropolis"
        ],
        "representative_latitude": 38.8346269,
        "representative_longitude": 23.4719437,
        "uri": "https://pleiades.stoa.org/places/540861"
    },
    "https://pleiades.stoa.org/places/540867": {
        "alignments": [
            "https://resource.manto.unh.edu/11307441"
        ],
        "place_title": "Kierion",
        "place_types": [
            "settlement",
            "acropolis",
            "archaeological-site"
        ],
        "representative_latitude": 39.36685607148667,
        "representative_longitude": 22.066459120950302,
        "uri": "https://pleiades.stoa.org/places/540867"
    },
    "https://pleiades.stoa.org/places/540883": {
        "alignments": [
            "https://resource.manto.unh.edu/10269113"
        ],
        "place_title": "Korykion Antron (Parnassos)",
        "place_types": [
            "sanctuary",
            "cave"
        ],
        "representative_latitude": 38.5159209,
        "representative_longitude": 22.5215268,
        "uri": "https://pleiades.stoa.org/places/540883"
    },
    "https://pleiades.stoa.org/places/540888": {
        "alignments": [
            "https://resource.manto.unh.edu/11292650"
        ],
        "place_title": "Kreusis",
        "place_types": [
            "settlement"
        ],
        "representative_latitude": 38.208277,
        "representative_longitude": 23.112105,
        "uri": "https://pleiades.stoa.org/places/540888"
    },
    "https://pleiades.stoa.org/places/540899": {
        "alignments": [
            "https://resource.manto.unh.edu/11303632"
        ],
        "place_title": "Kytinion",
        "place_types": [
            "settlement"
        ],
        "representative_latitude": 38.715386,
        "representative_longitude": 22.508769,
        "uri": "https://pleiades.stoa.org/places/540899"
    },
    "https://pleiades.stoa.org/places/540904": {
        "alignments": [
            "https://resource.manto.unh.edu/8195179"
        ],
        "place_title": "Larisa Kremaste/Pelasgia",
        "place_types": [
            "settlement",
            "fort"
        ],
        "representative_latitude": 38.964328,
        "representative_longitude": 22.838629,
        "uri": "https://pleiades.stoa.org/places/540904"
    },
    "https://pleiades.stoa.org/places/540905": {
        "alignments": [
            "https://resource.manto.unh.edu/10159447"
        ],
        "place_title": "Larissa",
        "place_types": [
            "settlement"
        ],
        "representative_latitude": 39.634851,
        "representative_longitude": 22.42097025,
        "uri": "https://pleiades.stoa.org/places/540905"
    },
    "https://pleiades.stoa.org/places/540906": {
        "alignments": [
            "https://resource.manto.unh.edu/10210705"
        ],
        "place_title": "Larymna (Boeotia)",
        "place_types": [
            "settlement",
            "port"
        ],
        "representative_latitude": 38.567348,
        "representative_longitude": 23.281349,
        "uri": "https://pleiades.stoa.org/places/540906"
    },
    "https://pleiades.stoa.org/places/540907": {
        "alignments": [
            "https://resource.manto.unh.edu/10159947"
        ],
        "place_title": "Lebadeia",
        "place_types": [
            "settlement"
        ],
        "representative_latitude": 38.43363023333333,
        "representative_longitude": 22.87072996666667,
        "uri": "https://pleiades.stoa.org/places/540907"
    },
    "https://pleiades.stoa.org/places/540908": {
        "alignments": [
            "https://resource.manto.unh.edu/11003301"
        ],
        "place_title": "Ledon",
        "place_types": [
            "settlement"
        ],
        "representative_latitude": 38.6583935,
        "representative_longitude": 22.6760767,
        "uri": "https://pleiades.stoa.org/places/540908"
    },