{
    "https://pleiades.stoa.org/places/1052": {
        "alignments": [
            "https://resource.manto.unh.edu/9603205"
        ],
        "place_title": "Italia",
        "place_types": [
            "region"
        ],
        "representative_latitude": 43.6941505,
        "representative_longitude": 11.0949512,
        "uri": "https://pleiades.stoa.org/places/1052"
    },
    "https://pleiades.stoa.org/places/122572945": {
        "alignments": [
            "https://resource.manto.unh.edu/10151508"
        ],
        "place_title": "Lyceum",
        "place_types": [
            "sanctuary",
            "architecturalcomplex",
            "gymnasium"
        ],
        "representative_latitude": 37.97403098290296,
        "representative_longitude": 23.743379697192637,
        "uri": "https://pleiades.stoa.org/places/122572945"
    },
    "https://pleiades.stoa.org/places/1273": {
        "alignments": [
            "https://resource.manto.unh.edu/8253946"
        ],
        "place_title": "Scythia",
        "place_types": [
            "region",
            "label"
        ],
        "representative_latitude": 46.688700708155956,
        "representative_longitude": 29.47509903778682,
        "uri": "https://pleiades.stoa.org/places/1273"
    },
    "https://pleiades.stoa.org/places/1356": {
        "alignments": [
            "https://resource.manto.unh.edu/9051553"
        ],
        "place_title": "Tyrrhenum/Inferum Mare",
        "place_types": [
            "water-open"
        ],
        "representative_latitude": 41.72760268125288,
        "representative_longitude": 12.571656776761861,
        "uri": "https://pleiades.stoa.org/places/1356"
    },
    "https://pleiades.stoa.org/places/160459928": {
        "alignments": [
            "https://resource.manto.unh.edu/11066733"
        ],
        "place_title": "Sanctuary of Metaneira",
        "place_types": [
            "unlocated",
            "sanctuary"
        ],
        "representative_latitude": 38.041101,
        "representative_longitude": 23.537401,
        "uri": "https://pleiades.stoa.org/places/160459928"
    },
    "https://pleiades.stoa.org/places/162490152": {
        "alignments": [
            "https://resource.manto.unh.edu/10774932",
            "https://resource.manto.unh.edu/9610214"
        ],
        "place_title": "Sanctuary of Poseidon (Onchestos)",
        "place_types": [
            "sanctuary",
            "archaeological-site"
        ],
        "representative_latitude": 38.36248070609776,
        "representative_longitude": 23.14507310796321,
        "uri": "https://pleiades.stoa.org/places/162490152"
    },
    "https://pleiades.stoa.org/places/197248": {
        "alignments": [
            "https://resource.manto.unh.edu/9746305"
        ],
        "place_title": "Diomedeae (islands)",
        "place_types": [
            "archipelago",
            "island"
        ],
        "representative_latitude": 42.38607222756864,
        "representative_longitude": 16.289867891629967,
        "uri": "https://pleiades.stoa.org/places/197248"
    },
    "https://pleiades.stoa.org/places/216830": {
        "alignments": [
            "https://resource.manto.unh.edu/8253943"
        ],
        "place_title": "Haemus (mountain range)",
        "place_types": [
            "mountain"
        ],
        "representative_latitude": 42.7175,
        "representative_longitude": 24.916667,
        "uri": "https://pleiades.stoa.org/places/216830"
    },
    "https://pleiades.stoa.org/places/226577": {
        "alignments": [
            "https://resource.manto.unh.edu/9878388"
        ],
        "place_title": "Danuvius/Istros/Hister (river)",
        "place_types": [
            "river"
        ],
        "representative_latitude": 46.27649151763111,
        "representative_longitude": 19.448023719383958,
        "uri": "https://pleiades.stoa.org/places/226577"
    },
    "https://pleiades.stoa.org/places/226677": {
        "alignments": [
            "https://resource.manto.unh.edu/9746337"
        ],
        "place_title": "Leuke Ins./Achilleos Nesos",
        "place_types": [
            "island"
        ],
        "representative_latitude": 45.25379450875873,
        "representative_longitude": 30.20465019362168,
        "uri": "https://pleiades.stoa.org/places/226677"
    },
    "https://pleiades.stoa.org/places/226778": {
        "alignments": [
            "https://resource.manto.unh.edu/8194768"
        ],
        "place_title": "Taurike Chersonesos",
        "place_types": [
            "peninsula",
            "region"
        ],
        "representative_latitude": 45.398822,
        "representative_longitude": 35.819354,
        "uri": "https://pleiades.stoa.org/places/226778"
    },
    "https://pleiades.stoa.org/places/265762": {
        "alignments": [
            "https://resource.manto.unh.edu/8254003"
        ],
        "place_title": "Abdera",
        "place_types": [
            "settlement"
        ],
        "representative_latitude": 36.748068,
        "representative_longitude": -3.022514,
        "uri": "https://pleiades.stoa.org/places/265762"
    },
    "https://pleiades.stoa.org/places/29856869": {
        "alignments": [
            "https://resource.manto.unh.edu/11066685"
        ],
        "place_title": "Anthion",
        "place_types": [
            "unlocated",
            "well"
        ],
        "representative_latitude": null,
        "representative_longitude": null,
        "uri": "https://pleiades.stoa.org/places/29856869"
    },
    "https://pleiades.stoa.org/places/30249": {
        "alignments": [
            "https://resource.manto.unh.edu/9746355"
        ],
        "place_title": "Ogyris (island)",
        "place_types": [
            "island"
        ],
        "representative_latitude": null,
        "representative_longitude": null,
        "uri": "https://pleiades.stoa.org/places/30249"
    },
    "https://pleiades.stoa.org/places/314921": {
        "alignments": [
            "https://resource.manto.unh.edu/9721278"
        ],
        "place_title": "Carthago",
        "place_types": [
            "settlement",
            "port"
        ],
        "representative_latitude": 36.853056,
        "representative_longitude": 10.323056,
        "uri": "https://pleiades.stoa.org/places/314921"
    },
    "https://pleiades.stoa.org/places/334481": {
        "alignments": [
            "https://resource.manto.unh.edu/8228939"
        ],
        "place_title": "Aethiopia",
        "place_types": [
            "region",
            "label"
        ],
        "representative_latitude": 33.082980308109605,
        "representative_longitude": 5.776170507906518,
        "uri": "https://pleiades.stoa.org/places/334481"
    },
    "https://pleiades.stoa.org/places/383698": {
        "alignments": [
            "https://resource.manto.unh.edu/9962650"
        ],
        "place_title": "Liguria (region)",
        "place_types": [
            "region"
        ],
        "representative_latitude": 44.330391399897366,
        "representative_longitude": 8.786200437113399,
        "uri": "https://pleiades.stoa.org/places/383698"
    },
    "https://pleiades.stoa.org/places/413122": {
        "alignments": [
            "https://resource.manto.unh.edu/9882132"
        ],
        "place_title": "Etruria/Tuscia (region)",
        "place_types": [
            "region"
        ],
        "representative_latitude": 42.73925736767506,
        "representative_longitude": 11.508538703401781,
        "uri": "https://pleiades.stoa.org/places/413122"
    },
    "https://pleiades.stoa.org/places/422844": {
        "alignments": [
            "https://resource.manto.unh.edu/10158897"
        ],
        "place_title": "Aricia",
        "place_types": [
            "settlement"
        ],
        "representative_latitude": 41.721399649999995,
        "representative_longitude": 12.673347150000001,
        "uri": "https://pleiades.stoa.org/places/422844"
    },
    "https://pleiades.stoa.org/places/432915": {
        "alignments": [
            "https://resource.manto.unh.edu/10093382"
        ],
        "place_title": "Lucrinus (lake)",
        "place_types": [
            "lake"
        ],
        "representative_latitude": 40.829186561841595,
        "representative_longitude": 14.080112523870092,
        "uri": "https://pleiades.stoa.org/places/432915"
    },
    "https://pleiades.stoa.org/places/433014": {
        "alignments": [
            "https://resource.manto.unh.edu/9721323"
        ],
        "place_title": "Parthenope/Neapolis",
        "place_types": [
            "urban",
            "settlement"
        ],
        "representative_latitude": 40.839995,
        "representative_longitude": 14.25287,
        "uri": "https://pleiades.stoa.org/places/433014"
    },
    "https://pleiades.stoa.org/places/433124": {
        "alignments": [
            "https://resource.manto.unh.edu/9358812"
        ],
        "place_title": "Sirenes/Seirenoussai (islands)",
        "place_types": [
            "archipelago",
            "island"
        ],
        "representative_latitude": 40.581220825311135,
        "representative_longitude": 14.43181449645628,
        "uri": "https://pleiades.stoa.org/places/433124"
    },
    "https://pleiades.stoa.org/places/442476": {
        "alignments": [
            "https://resource.manto.unh.edu/10082252"
        ],
        "place_title": "Argos Hippium/Arpi/Argyripa",
        "place_types": [
            "settlement"
        ],
        "representative_latitude": 41.475654,
        "representative_longitude": 15.555444,
        "uri": "https://pleiades.stoa.org/places/442476"
    },
    "https://pleiades.stoa.org/places/44420465": {
        "alignments": [
            "https://resource.manto.unh.edu/9055591"
        ],
        "place_title": "Korykion Antron (Kilikia)",
        "place_types": [
            "cave"
        ],
        "representative_latitude": 36.4533768339881,
        "representative_longitude": 34.105832985386144,
        "uri": "https://pleiades.stoa.org/places/44420465"
    },
    "https://pleiades.stoa.org/places/452317": {
        "alignments": [
            "https://resource.manto.unh.edu/9358724"
        ],
        "place_title": "Croto(n)",
        "place_types": [
            "settlement"
        ],
        "representative_latitude": 39.0811675,
        "representative_longitude": 17.127966,
        "uri": "https://pleiades.stoa.org/places/452317"
    },
    "https://pleiades.stoa.org/places/452389": {
        "alignments": [
            "https://resource.manto.unh.edu/9358754"
        ],
        "place_title": "Neaethus (river)",
        "place_types": [
            "river"
        ],
        "representative_latitude": 39.24193479162499,
        "representative_longitude": 16.772195424446238,
        "uri": "https://pleiades.stoa.org/places/452389"
    },
    "https://pleiades.stoa.org/places/452395": {
        "alignments": [
            "https://resource.manto.unh.edu/10137174"
        ],
        "place_title": "Oenotri",
        "place_types": [
            "label",
            "people"
        ],
        "representative_latitude": 40.43095547114045,
        "representative_longitude": 16.443132258449403,
        "uri": "https://pleiades.stoa.org/places/452395"
    },
    "https://pleiades.stoa.org/places/452469": {
        "alignments": [
            "https://resource.manto.unh.edu/10217837"
        ],
        "place_title": "Temesa/Tempsa",
        "place_types": [
            "settlement"
        ],
        "representative_latitude": 39.036454,
        "representative_longitude": 16.159633,
        "uri": "https://pleiades.stoa.org/places/452469"
    },
    "https://pleiades.stoa.org/places/462076": {
        "alignments": [
            "https://resource.manto.unh.edu/9746287"
        ],
        "place_title": "Aeoliae (islands)",
        "place_types": [
            "archipelago"
        ],
        "representative_latitude": 38.57980975,
        "representative_longitude": 14.8824195,
        "uri": "https://pleiades.stoa.org/places/462076"
    },
    "https://pleiades.stoa.org/places/462077": {
        "alignments": [
            "https://resource.manto.unh.edu/9055602"
        ],
        "place_title": "Aetna (mountain)",
        "place_types": [
            "mountain",
            "volcano"
        ],
        "representative_latitude": 37.7530565,
        "representative_longitude": 14.9954143,
        "uri": "https://pleiades.stoa.org/places/462077"
    },
    "https://pleiades.stoa.org/places/462126": {
        "alignments": [
            "https://resource.manto.unh.edu/11298422"
        ],
        "place_title": "Camarina",
        "place_types": [
            "sanctuary",
            "settlement",
            "settlement-modern",
            "plaza"
        ],
        "representative_latitude": 36.87187848744483,
        "representative_longitude": 14.448323419479632,
        "uri": "https://pleiades.stoa.org/places/462126"
    },
    "https://pleiades.stoa.org/places/462201": {
        "alignments": [
            "https://resource.manto.unh.edu/9603207"
        ],
        "place_title": "Eryx",
        "place_types": [
            "settlement"
        ],
        "representative_latitude": 38.036517,
        "representative_longitude": 12.583607,
        "uri": "https://pleiades.stoa.org/places/462201"
    },
    "https://pleiades.stoa.org/places/462213": {
        "alignments": [
            "https://resource.manto.unh.edu/11306921"
        ],
        "place_title": "Gaulos (island)",
        "place_types": [
            "island"
        ],
        "representative_latitude": 36.0196276,
        "representative_longitude": 14.2925337,
        "uri": "https://pleiades.stoa.org/places/462213"
    },
    "https://pleiades.stoa.org/places/462236": {
        "alignments": [
            "https://resource.manto.unh.edu/10055351"
        ],
        "place_title": "(H)Enna",
        "place_types": [
            "settlement",
            "settlement-modern"
        ],
        "representative_latitude": 37.56720465,
        "representative_longitude": 14.28015265,
        "uri": "https://pleiades.stoa.org/places/462236"
    },
    "https://pleiades.stoa.org/places/462238": {
        "alignments": [
            "https://resource.manto.unh.edu/11304203"
        ],
        "place_title": "Heraia (mountain)",
        "place_types": [
            "mountain"
        ],
        "representative_latitude": 37.25,
        "representative_longitude": 14.25,
        "uri": "https://pleiades.stoa.org/places/462238"
    },
    "https://pleiades.stoa.org/places/462402": {
        "alignments": [
            "https://resource.manto.unh.edu/10215661"
        ],
        "place_title": "Ortygia (island)",
        "place_types": [
            "island"
        ],
        "representative_latitude": 37.060712723961686,
        "representative_longitude": 15.294473888591286,
        "uri": "https://pleiades.stoa.org/places/462402"
    },
    "https://pleiades.stoa.org/places/462492": {
        "alignments": [
            "https://resource.manto.unh.edu/8254007"
        ],
        "place_title": "Sicilia (island)",
        "place_types": [
            "island"
        ],
        "representative_latitude": 37.628854527262455,
        "representative_longitude": 13.994559044211421,
        "uri": "https://pleiades.stoa.org/places/462492"
    },
    "https://pleiades.stoa.org/places/462503": {
        "alignments": [
            "https://resource.manto.unh.edu/11295783"
        ],
        "place_title": "Syracusae/Syrakousai",
        "place_types": [
            "settlement"
        ],
        "representative_latitude": 37.06882729000318,
        "representative_longitude": 15.284158607163414,
        "uri": "https://pleiades.stoa.org/places/462503"
    },
    "https://pleiades.stoa.org/places/472014": {
        "alignments": [
            "https://resource.manto.unh.edu/8254032"
        ],
        "place_title": "Sardinia (island)",
        "place_types": [
            "island"
        ],
        "representative_latitude": 39.966030858848285,
        "representative_longitude": 9.03289309467922,
        "uri": "https://pleiades.stoa.org/places/472014"
    },
    "https://pleiades.stoa.org/places/472063": {
        "alignments": [
            "https://resource.manto.unh.edu/10272383"
        ],
        "place_title": "Corsica/Kyrnos (island)",
        "place_types": [
            "island"
        ],
        "representative_latitude": 42.1441461,
        "representative_longitude": 9.1903461,
        "uri": "https://pleiades.stoa.org/places/472063"
    },
    "https://pleiades.stoa.org/places/481739": {
        "alignments": [
            "https://resource.manto.unh.edu/11307461"
        ],
        "place_title": "Argos Orestikon",
        "place_types": [
            "settlement"
        ],
        "representative_latitude": 40.47373973491136,
        "representative_longitude": 21.244160396693676,
        "uri": "https://pleiades.stoa.org/places/481739"
    },
    "https://pleiades.stoa.org/places/481787": {
        "alignments": [
            "https://resource.manto.unh.edu/11307417"
        ],
        "place_title": "Chaonia",
        "place_types": [
            "region",
            "label"
        ],
        "representative_latitude": 40.21844758661315,
        "representative_longitude": 19.934544741752966,
        "uri": "https://pleiades.stoa.org/places/481787"
    },
    "https://pleiades.stoa.org/places/481829": {
        "alignments": [
            "https://resource.manto.unh.edu/9713796"
        ],
        "place_title": "Encheleioi",
        "place_types": [
            "label",
            "people"
        ],
        "representative_latitude": 41.20329281991122,
        "representative_longitude": 20.70501852127915,
        "uri": "https://pleiades.stoa.org/places/481829"
    },
    "https://pleiades.stoa.org/places/481866": {
        "alignments": [
            "https://resource.manto.unh.edu/8253942"
        ],
        "place_title": "Illyrii",
        "place_types": [
            "label"
        ],
        "representative_latitude": 41.8908585495261,
        "representative_longitude": 19.80654505616561,
        "uri": "https://pleiades.stoa.org/places/481866"
    },
    "https://pleiades.stoa.org/places/481953": {
        "alignments": [
            "https://resource.manto.unh.edu/11307152"
        ],
        "place_title": "Pelagonia",
        "place_types": [
            "region",
            "label"
        ],
        "representative_latitude": 41.31188172991739,
        "representative_longitude": 21.61008661982432,
        "uri": "https://pleiades.stoa.org/places/481953"
    },
    "https://pleiades.stoa.org/places/491522": {
        "alignments": [
            "https://resource.manto.unh.edu/8254005"
        ],
        "place_title": "Anthemous (river)",
        "place_types": [
            "river"
        ],
        "representative_latitude": 40.48052047729802,
        "representative_longitude": 23.127050847865533,
        "uri": "https://pleiades.stoa.org/places/491522"
    },
    "https://pleiades.stoa.org/places/491525": {
        "alignments": [
            "https://resource.manto.unh.edu/10148863"
        ],
        "place_title": "Aphytis",
        "place_types": [
            "settlement"
        ],
        "representative_latitude": 40.099366,
        "representative_longitude": 23.436606,
        "uri": "https://pleiades.stoa.org/places/491525"
    },
    "https://pleiades.stoa.org/places/491534": {
        "alignments": [
            "https://resource.manto.unh.edu/8195680"
        ],
        "place_title": "Axios (river)",
        "place_types": [
            "river"
        ],
        "representative_latitude": 41.0572437,
        "representative_longitude": 22.5226845,
        "uri": "https://pleiades.stoa.org/places/491534"
    },
    "https://pleiades.stoa.org/places/491553": {
        "alignments": [
            "https://resource.manto.unh.edu/9909052"
        ],
        "place_title": "Botti(ai)a/Emathia",
        "place_types": [
            "region",
            "label"
        ],
        "representative_latitude": 40.740344800905476,
        "representative_longitude": 22.32520580977991,
        "uri": "https://pleiades.stoa.org/places/491553"
    },
    "https://pleiades.stoa.org/places/491614": {
        "alignments": [
            "https://resource.manto.unh.edu/9878403"
        ],
        "place_title": "Haliakmon (river)",
        "place_types": [
            "river"
        ],
        "representative_latitude": 40.30689731920669,
        "representative_longitude": 21.6498645485174,
        "uri": "https://pleiades.stoa.org/places/491614"
    },
    "https://pleiades.stoa.org/places/491650": {
        "alignments": [
            "https://resource.manto.unh.edu/10055563"
        ],
        "place_title": "Leibethra",
        "place_types": [
            "settlement",
            "archaeological-site"
        ],
        "representative_latitude": 40.025415554721114,
        "representative_longitude": 22.535016835003518,
        "uri": "https://pleiades.stoa.org/places/491650"
    },
    "https://pleiades.stoa.org/places/491656": {
        "alignments": [
            "https://resource.manto.unh.edu/10267703"
        ],
        "place_title": "Macedonia (region)",
        "place_types": [
            "region",
            "label"
        ],
        "representative_latitude": 40.969115247784025,
        "representative_longitude": 22.4920786436148,
        "uri": "https://pleiades.stoa.org/places/491656"
    },
    "https://pleiades.stoa.org/places/491677": {
        "alignments": [
            "https://resource.manto.unh.edu/8253991"
        ],
        "place_title": "Olympos (mountain in Greece)",
        "place_types": [
            "mountain"
        ],
        "representative_latitude": 40.085556,
        "representative_longitude": 22.358611,
        "uri": "https://pleiades.stoa.org/places/491677"
    },
    "https://pleiades.stoa.org/places/491680": {
        "alignments": [
            "https://resource.manto.unh.edu/8195619"
        ],
        "place_title": "Paionia",
        "place_types": [
            "label",
            "people"
        ],
        "representative_latitude": 41.75,
        "representative_longitude": 21.75,
        "uri": "https://pleiades.stoa.org/places/491680"
    },
    "https://pleiades.stoa.org/places/491689": {
        "alignments": [
            "https://resource.manto.unh.edu/11288769"
        ],
        "place_title": "Perraibia",
        "place_types": [
            "region",
            "label",
            "people"
        ],
        "representative_latitude": 39.946586306421366,
        "representative_longitude": 22.08752791118756,
        "uri": "https://pleiades.stoa.org/places/491689"
    },
    "https://pleiades.stoa.org/places/491696": {
        "alignments": [
            "https://resource.manto.unh.edu/8358998"
        ],
        "place_title": "Pieria",
        "place_types": [
            "region",
            "label",
            "people"
        ],
        "representative_latitude": 40.36007295152933,
        "representative_longitude": 22.487177163189624,
        "uri": "https://pleiades.stoa.org/places/491696"
    },
    "https://pleiades.stoa.org/places/491697": {
        "alignments": [
            "https://resource.manto.unh.edu/10055564"
        ],
        "place_title": "Pimpleia",
        "place_types": [
            "settlement"
        ],
        "representative_latitude": 40.143408,
        "representative_longitude": 22.493148,
        "uri": "https://pleiades.stoa.org/places/491697"
    },
    "https://pleiades.stoa.org/places/50004": {
        "alignments": [
            "https://resource.manto.unh.edu/9612990"
        ],
        "place_title": "India",
        "place_types": [
            "region",
            "label"
        ],
        "representative_latitude": 20.63673796159033,
        "representative_longitude": 79.53326050324434,
        "uri": "https://pleiades.stoa.org/places/50004"
    },
    "https://pleiades.stoa.org/places/501366": {
        "alignments": [
            "https://resource.manto.unh.edu/9909053"
        ],
        "place_title": "Athos (mountain)",
        "place_types": [
            "mountain"
        ],
        "representative_latitude": 40.157222,
        "representative_longitude": 24.326389,
        "uri": "https://pleiades.stoa.org/places/501366"
    },
    "https://pleiades.stoa.org/places/501410": {
        "alignments": [
            "https://resource.manto.unh.edu/10057160"
        ],
        "place_title": "Eion",
        "place_types": [
            "settlement"
        ],
        "representative_latitude": 40.7893235,
        "representative_longitude": 23.872847999999998,
        "uri": "https://pleiades.stoa.org/places/501410"
    },
    "https://pleiades.stoa.org/places/501411": {
        "alignments": [
            "https://resource.manto.unh.edu/10073065"
        ],
        "place_title": "Elaious",
        "place_types": [
            "settlement"
        ],
        "representative_latitude": 40.054457,
        "representative_longitude": 26.223326,
        "uri": "https://pleiades.stoa.org/places/501411"
    },
    "https://pleiades.stoa.org/places/501412": {
        "alignments": [
            "https://resource.manto.unh.edu/9358758"
        ],
        "place_title": "Ennea Hodoi",
        "place_types": [
            "settlement",
            "archaeological-site"
        ],
        "representative_latitude": 40.8403,
        "representative_longitude": 23.8556,
        "uri": "https://pleiades.stoa.org/places/501412"
    },
    "https://pleiades.stoa.org/places/501439": {
        "alignments": [
            "https://resource.manto.unh.edu/9905860"
        ],
        "place_title": "Imbros (island)",
        "place_types": [
            "island"
        ],
        "representative_latitude": 40.1633120125065,
        "representative_longitude": 25.856712893679294,
        "uri": "https://pleiades.stoa.org/places/501439"
    },
    "https://pleiades.stoa.org/places/501551": {
        "alignments": [
            "https://resource.manto.unh.edu/9612998"
        ],
        "place_title": "Pangaion (mountain)",
        "place_types": [
            "mountain"
        ],
        "representative_latitude": 40.916944,
        "representative_longitude": 24.082778,
        "uri": "https://pleiades.stoa.org/places/501551"
    },
    "https://pleiades.stoa.org/places/501592": {
        "alignments": [
            "https://resource.manto.unh.edu/11299930"
        ],
        "place_title": "Rhodope (mountain)",
        "place_types": [
            "mountain",
            "label"
        ],
        "representative_latitude": 41.583604985683245,
        "representative_longitude": 24.53427132151436,
        "uri": "https://pleiades.stoa.org/places/501592"
    },
    "https://pleiades.stoa.org/places/501597": {
        "alignments": [
            "https://resource.manto.unh.edu/9615907"
        ],
        "place_title": "Samothrace (island)",
        "place_types": [
            "island"
        ],
        "representative_latitude": 40.45231423322517,
        "representative_longitude": 25.57623818601237,
        "uri": "https://pleiades.stoa.org/places/501597"
    },
    "https://pleiades.stoa.org/places/501629": {
        "alignments": [
            "https://resource.manto.unh.edu/8254009"
        ],
        "place_title": "Strymon (river)",
        "place_types": [
            "river"
        ],
        "representative_latitude": 41.809453061026176,
        "representative_longitude": 23.16118989299337,
        "uri": "https://pleiades.stoa.org/places/501629"
    },
    "https://pleiades.stoa.org/places/501634": {
        "alignments": [
            "https://resource.manto.unh.edu/9612855"
        ],
        "place_title": "Thasos (settlement)",
        "place_types": [
            "settlement"
        ],
        "representative_latitude": 40.78201,
        "representative_longitude": 24.717535,
        "uri": "https://pleiades.stoa.org/places/501634"
    },
    "https://pleiades.stoa.org/places/501635": {
        "alignments": [
            "https://resource.manto.unh.edu/8253997"
        ],
        "place_title": "Thasos (island)",
        "place_types": [
            "island"
        ],
        "representative_latitude": 40.67649468758827,
        "representative_longitude": 24.66503521487604,
        "uri": "https://pleiades.stoa.org/places/501635"
    },
    "https://pleiades.stoa.org/places/501646": {
        "alignments": [
            "https://resource.manto.unh.edu/8253998"
        ],
        "place_title": "Torone",
        "place_types": [
            "settlement"
        ],
        "representative_latitude": 39.97708095663752,
        "representative_longitude": 23.9007922870719,
        "uri": "https://pleiades.stoa.org/places/501646"
    },
    "https://pleiades.stoa.org/places/511138": {
        "alignments": [
            "https://resource.manto.unh.edu/8195173"
        ],
        "place_title": "Adrasteia",
        "place_types": [
            "settlement"
        ],
        "representative_latitude": 40.383655,
        "representative_longitude": 27.191289,
        "uri": "https://pleiades.stoa.org/places/511138"
    },
    "https://pleiades.stoa.org/places/511141": {
        "alignments": [
            "https://resource.manto.unh.edu/9718653"
        ],
        "place_title": "Aisepos (river)",
        "place_types": [
            "river"
        ],
        "representative_latitude": 39.86344381867652,
        "representative_longitude": 27.311040134783813,
        "uri": "https://pleiades.stoa.org/places/511141"
    },
    "https://pleiades.stoa.org/places/511337": {
        "alignments": [
            "https://resource.manto.unh.edu/10146662"
        ],
        "place_title": "Nicomedia",
        "place_types": [
            "settlement"
        ],
        "representative_latitude": 40.7651905,
        "representative_longitude": 29.919887000000003,
        "uri": "https://pleiades.stoa.org/places/511337"
    },
    "https://pleiades.stoa.org/places/511406": {
        "alignments": [
            "https://resource.manto.unh.edu/9611997"
        ],
        "place_title": "Sangarius (river)",
        "place_types": [
            "river"
        ],
        "representative_latitude": 40.00874868169215,
        "representative_longitude": 31.084122109083374,
        "uri": "https://pleiades.stoa.org/places/511406"
    },
    "https://pleiades.stoa.org/places/520977": {
        "alignments": [
            "https://resource.manto.unh.edu/8253945"
        ],
        "place_title": "Bosphorus",
        "place_types": [
            "water-open"
        ],
        "representative_latitude": 41.114862975362485,
        "representative_longitude": 29.062150411489657,
        "uri": "https://pleiades.stoa.org/places/520977"
    },
    "https://pleiades.stoa.org/places/530767": {
        "alignments": [
            "https://resource.manto.unh.edu/9613867"
        ],
        "place_title": "Acarnania",
        "place_types": [
            "region",
            "label"
        ],
        "representative_latitude": 38.69172145440447,
        "representative_longitude": 21.049797905284336,
        "uri": "https://pleiades.stoa.org/places/530767"
    },
    "https://pleiades.stoa.org/places/530769": {
        "alignments": [
            "https://resource.manto.unh.edu/10267634"
        ],
        "place_title": "Acheron (river)",
        "place_types": [
            "river"
        ],
        "representative_latitude": 39.23582444333076,
        "representative_longitude": 20.479480263011936,
        "uri": "https://pleiades.stoa.org/places/530769"
    },
    "https://pleiades.stoa.org/places/530789": {
        "alignments": [
            "https://resource.manto.unh.edu/9720481"
        ],
        "place_title": "Aithikia",
        "place_types": [
            "region",
            "label"
        ],
        "representative_latitude": 39.716520737719385,
        "representative_longitude": 21.276163016850315,
        "uri": "https://pleiades.stoa.org/places/530789"
    },
    "https://pleiades.stoa.org/places/530797": {
        "alignments": [
            "https://resource.manto.unh.edu/10160107"
        ],
        "place_title": "Amphilochia",
        "place_types": [
            "region",
            "label"
        ],
        "representative_latitude": 38.989617832069726,
        "representative_longitude": 21.242527169063973,
        "uri": "https://pleiades.stoa.org/places/530797"
    },
    "https://pleiades.stoa.org/places/530835": {
        "alignments": [
            "https://resource.manto.unh.edu/9587576"
        ],
        "place_title": "Corcyra (island)",
        "place_types": [
            "island"
        ],
        "representative_latitude": 39.61996963797889,
        "representative_longitude": 19.86654164868683,
        "uri": "https://pleiades.stoa.org/places/530835"
    },
    "https://pleiades.stoa.org/places/530845": {
        "alignments": [
            "https://resource.manto.unh.edu/8228869"
        ],
        "place_title": "Dolicha (island)",
        "place_types": [
            "island",
            "hill"
        ],
        "representative_latitude": 38.32248,
        "representative_longitude": 21.14824,
        "uri": "https://pleiades.stoa.org/places/530845"
    },
    "https://pleiades.stoa.org/places/530871": {
        "alignments": [
            "https://resource.manto.unh.edu/9358745"
        ],
        "place_title": "Epirus",
        "place_types": [
            "region",
            "label"
        ],
        "representative_latitude": 39.6854576580975,
        "representative_longitude": 20.71392032322251,
        "uri": "https://pleiades.stoa.org/places/530871"
    },
    "https://pleiades.stoa.org/places/530906": {
        "alignments": [
            "https://resource.manto.unh.edu/8194720"
        ],
        "place_title": "Ithaca (island)",
        "place_types": [
            "island"
        ],
        "representative_latitude": 38.40031697849913,
        "representative_longitude": 20.692808605771482,
        "uri": "https://pleiades.stoa.org/places/530906"
    },
    "https://pleiades.stoa.org/places/531074": {
        "alignments": [
            "https://resource.manto.unh.edu/11309426"
        ],
        "place_title": "Pronnoi",
        "place_types": [
            "settlement",
            "port"
        ],
        "representative_latitude": 38.145962,
        "representative_longitude": 20.776722,
        "uri": "https://pleiades.stoa.org/places/531074"
    },
    "https://pleiades.stoa.org/places/531114": {
        "alignments": [
            "https://resource.manto.unh.edu/8253959"
        ],
        "place_title": "Taphos (island)",
        "place_types": [
            "island"
        ],
        "representative_latitude": 38.652,
        "representative_longitude": 20.77,
        "uri": "https://pleiades.stoa.org/places/531114"
    },
    "https://pleiades.stoa.org/places/531124": {
        "alignments": [
            "https://resource.manto.unh.edu/11297019"
        ],
        "place_title": "T(o)maros (mountain)",
        "place_types": [
            "mountain"
        ],
        "representative_latitude": 39.488,
        "representative_longitude": 20.791,
        "uri": "https://pleiades.stoa.org/places/531124"
    },
    "https://pleiades.stoa.org/places/540634": {
        "alignments": [
            "https://resource.manto.unh.edu/9372774"
        ],
        "place_title": "Anauros (river)",
        "place_types": [
            "river"
        ],
        "representative_latitude": 39.25,
        "representative_longitude": 22.75,
        "uri": "https://pleiades.stoa.org/places/540634"
    },
    "https://pleiades.stoa.org/places/540642": {
        "alignments": [
            "https://resource.manto.unh.edu/10274703"
        ],
        "place_title": "Antikyra",
        "place_types": [
            "settlement",
            "port"
        ],
        "representative_latitude": 38.375439,
        "representative_longitude": 22.626059,
        "uri": "https://pleiades.stoa.org/places/540642"
    },
    "https://pleiades.stoa.org/places/540644": {
        "alignments": [
            "https://resource.manto.unh.edu/9720422"
        ],
        "place_title": "Antron(es)",
        "place_types": [
            "settlement"
        ],
        "representative_latitude": 38.95098,
        "representative_longitude": 22.967482,
        "uri": "https://pleiades.stoa.org/places/540644"
    },
    "https://pleiades.stoa.org/places/540645": {
        "alignments": [
            "https://resource.manto.unh.edu/9374895"
        ],
        "place_title": "Aphetai?",
        "place_types": [
            "settlement"
        ],
        "representative_latitude": 39.146291,
        "representative_longitude": 23.312404,
        "uri": "https://pleiades.stoa.org/places/540645"
    },
    "https://pleiades.stoa.org/places/540672": {
        "alignments": [
            "https://resource.manto.unh.edu/9612000"
        ],
        "place_title": "Asopos (river)",
        "place_types": [
            "river"
        ],
        "representative_latitude": 38.292260643993274,
        "representative_longitude": 23.61326323601511,
        "uri": "https://pleiades.stoa.org/places/540672"
    },
    "https://pleiades.stoa.org/places/540676": {
        "alignments": [
            "https://resource.manto.unh.edu/9364246"
        ],
        "place_title": "Athamania",
        "place_types": [
            "label",
            "people"
        ],
        "representative_latitude": 39.29090087954501,
        "representative_longitude": 21.52209011501743,
        "uri": "https://pleiades.stoa.org/places/540676"
    },
    "https://pleiades.stoa.org/places/540689": {
        "alignments": [
            "https://resource.manto.unh.edu/8195196"
        ],
        "place_title": "Boeotia",
        "place_types": [
            "region"
        ],
        "representative_latitude": 38.31689716720101,
        "representative_longitude": 23.13491914185319,
        "uri": "https://pleiades.stoa.org/places/540689"
    },
    "https://pleiades.stoa.org/places/540690": {
        "alignments": [
            "https://resource.manto.unh.edu/9720433"
        ],
        "place_title": "Boibe (lake)",
        "place_types": [
            "lake"
        ],
        "representative_latitude": 39.49337651294463,
        "representative_longitude": 22.81816386532787,
        "uri": "https://pleiades.stoa.org/places/540690"
    },
    "https://pleiades.stoa.org/places/540715": {
        "alignments": [
            "https://resource.manto.unh.edu/10774304"
        ],
        "place_title": "Copais L.",
        "place_types": [
            "lake"
        ],
        "representative_latitude": 38.447092,
        "representative_longitude": 23.068726,
        "uri": "https://pleiades.stoa.org/places/540715"
    },
    "https://pleiades.stoa.org/places/540717": {
        "alignments": [
            "https://resource.manto.unh.edu/9651955"
        ],
        "place_title": "Coronea",
        "place_types": [
            "settlement"
        ],
        "representative_latitude": 38.391204,
        "representative_longitude": 22.957112,
        "uri": "https://pleiades.stoa.org/places/540717"
    },
    "https://pleiades.stoa.org/places/540719": {
        "alignments": [
            "https://resource.manto.unh.edu/10833986"
        ],
        "place_title": "Cynoscephalae",
        "place_types": [
            "hill"
        ],
        "representative_latitude": 39.25,
        "representative_longitude": 22.75,
        "uri": "https://pleiades.stoa.org/places/540719"
    },
    "https://pleiades.stoa.org/places/540723": {
        "alignments": [
            "https://resource.manto.unh.edu/9619303"
        ],
        "place_title": "Daulis",
        "place_types": [
            "settlement",
            "acropolis"
        ],
        "representative_latitude": 38.50749688014156,
        "representative_longitude": 22.72885773684517,
        "uri": "https://pleiades.stoa.org/places/540723"
    },
    "https://pleiades.stoa.org/places/540726": {
        "alignments": [
            "https://resource.manto.unh.edu/8253972"
        ],
        "place_title": "Delphi",
        "place_types": [
            "sanctuary",
            "settlement"
        ],
        "representative_latitude": 38.482289,
        "representative_longitude": 22.501169,
        "uri": "https://pleiades.stoa.org/places/540726"
    },
    "https://pleiades.stoa.org/places/540737": {
        "alignments": [
            "https://resource.manto.unh.edu/9619213"
        ],
        "place_title": "Dolopia",
        "place_types": [
            "region",
            "label"
        ],
        "representative_latitude": 39.09070217443264,
        "representative_longitude": 21.953546124601502,
        "uri": "https://pleiades.stoa.org/places/540737"
    },
    "https://pleiades.stoa.org/places/540740": {
        "alignments": [
            "https://resource.manto.unh.edu/9055651"
        ],
        "place_title": "Doris",
        "place_types": [
            "region",
            "label"
        ],
        "representative_latitude": 38.72285136186436,
        "representative_longitude": 22.424770778198358,
        "uri": "https://pleiades.stoa.org/places/540740"
    },
    "https://pleiades.stoa.org/places/540743": {
        "alignments": [
            "https://resource.manto.unh.edu/10274656"
        ],
        "place_title": "Drymaia",
        "place_types": [
            "settlement"
        ],
        "representative_latitude": 38.7061605,
        "representative_longitude": 22.5409903,
        "uri": "https://pleiades.stoa.org/places/540743"
    },
    "https://pleiades.stoa.org/places/540755": {
        "alignments": [
            "https://resource.manto.unh.edu/10146542"
        ],
        "place_title": "Elateia",
        "place_types": [
            "settlement",
            "archaeological-site",
            "settlement-modern"
        ],
        "representative_latitude": 38.64563331290165,
        "representative_longitude": 22.779986871112573,
        "uri": "https://pleiades.stoa.org/places/540755"
    },
    "https://pleiades.stoa.org/places/540756": {
        "alignments": [
            "https://resource.manto.unh.edu/9613044"
        ],
        "place_title": "Eleutherai",
        "place_types": [
            "settlement",
            "fort"
        ],
        "representative_latitude": 38.17944455630571,
        "representative_longitude": 23.37562158824775,
        "uri": "https://pleiades.stoa.org/places/540756"
    },
    "https://pleiades.stoa.org/places/540775": {
        "alignments": [
            "https://resource.manto.unh.edu/8195202"
        ],
        "place_title": "Euboea (island)",
        "place_types": [
            "island"
        ],
        "representative_latitude": 38.53,
        "representative_longitude": 23.87,
        "uri": "https://pleiades.stoa.org/places/540775"
    },
    "https://pleiades.stoa.org/places/540780": {
        "alignments": [
            "https://resource.manto.unh.edu/8253984"
        ],
        "place_title": "Euenos (river)",
        "place_types": [
            "river"
        ],
        "representative_latitude": 38.3288971,
        "representative_longitude": 21.5193991,
        "uri": "https://pleiades.stoa.org/places/540780"
    },
    "https://pleiades.stoa.org/places/540804": {
        "alignments": [
            "https://resource.manto.unh.edu/11307235"
        ],
        "place_title": "Halos",
        "place_types": [
            "settlement"
        ],
        "representative_latitude": 39.155182167717115,
        "representative_longitude": 22.834365564165577,
        "uri": "https://pleiades.stoa.org/places/540804"
    },
    "https://pleiades.stoa.org/places/540808": {
        "alignments": [
            "https://resource.manto.unh.edu/9878166"
        ],
        "place_title": "Helicon (mountain)",
        "place_types": [
            "mountain"
        ],
        "representative_latitude": 38.352778,
        "representative_longitude": 22.8225,
        "uri": "https://pleiades.stoa.org/places/540808"
    },
    "https://pleiades.stoa.org/places/540820": {
        "alignments": [
            "https://resource.manto.unh.edu/9688205"
        ],
        "place_title": "Hyampolis",
        "place_types": [
            "settlement"
        ],
        "representative_latitude": 38.59607190513586,
        "representative_longitude": 22.905583901325627,
        "uri": "https://pleiades.stoa.org/places/540820"
    },
    "https://pleiades.stoa.org/places/540837": {
        "alignments": [
            "https://resource.manto.unh.edu/9356921"
        ],
        "place_title": "Iolkos",
        "place_types": [
            "settlement"
        ],
        "representative_latitude": 39.366305,
        "representative_longitude": 22.96886,
        "uri": "https://pleiades.stoa.org/places/540837"
    },
    "https://pleiades.stoa.org/places/540842": {
        "alignments": [
            "https://resource.manto.unh.edu/9720421"
        ],
        "place_title": "Iton?",
        "place_types": [
            "temple"
        ],
        "representative_latitude": 39.154769,
        "representative_longitude": 22.725931,
        "uri": "https://pleiades.stoa.org/places/540842"
    },
    "https://pleiades.stoa.org/places/540844": {
        "alignments": [
            "https://resource.manto.unh.edu/10214638"
        ],
        "place_title": "Kabeirion",
        "place_types": [
            "sanctuary",
            "archaeological-site"
        ],
        "representative_latitude": 38.31811638639703,
        "representative_longitude": 23.25502892087001,
        "uri": "https://pleiades.stoa.org/places/540844"
    },
    "https://pleiades.stoa.org/places/540867": {
        "alignments": [
            "https://resource.manto.unh.edu/11307441"
        ],
        "place_title": "Kierion",
        "place_types": [
            "settlement",
            "acropolis",
            "archaeological-site"
        ],
        "representative_latitude": 39.36685607148667,
        "representative_longitude": 22.066459120950302,
        "uri": "https://pleiades.stoa.org/places/540867"
    },
    "https://pleiades.stoa.org/places/540883": {
        "alignments": [
            "https://resource.manto.unh.edu/10269113"
        ],
        "place_title": "Korykion Antron (Parnassos)",
        "place_types": [
            "sanctuary",
            "cave"
        ],
        "representative_latitude": 38.5159209,
        "representative_longitude": 22.5215268,
        "uri": "https://pleiades.stoa.org/places/540883"
    },
    "https://pleiades.stoa.org/places/540899": {
        "alignments": [
            "https://resource.manto.unh.edu/11303632"
        ],
        "place_title": "Kytinion",
        "place_types": [
            "settlement"
        ],
        "representative_latitude": 38.715386,
        "representative_longitude": 22.508769,
        "uri": "https://pleiades.stoa.org/places/540899"
    },
    "https://pleiades.stoa.org/places/540905": {
        "alignments": [
            "https://resource.manto.unh.edu/10159447"
        ],
        "place_title": "Larissa",
        "place_types": [
            "settlement"
        ],
        "representative_latitude": 39.634851,
        "representative_longitude": 22.42097025,
        "uri": "https://pleiades.stoa.org/places/540905"
    },
    "https://pleiades.stoa.org/places/540913": {
        "alignments": [
            "https://resource.manto.unh.edu/10772026"
        ],
        "place_title": "Leuktra",
        "place_types": [
            "settlement",
            "settlement-modern"
        ],
        "representative_latitude": 38.2544053,
        "representative_longitude": 23.1821091,
        "uri": "https://pleiades.stoa.org/places/540913"
    },
    "https://pleiades.stoa.org/places/540915": {
        "alignments": [
            "https://resource.manto.unh.edu/9688211"
        ],
        "place_title": "Lilaia",
        "place_types": [
            "settlement"
        ],
        "representative_latitude": 38.6319828,
        "representative_longitude": 22.5012665,
        "uri": "https://pleiades.stoa.org/places/540915"
    },
    "https://pleiades.stoa.org/places/540923": {
        "alignments": [
            "https://resource.manto.unh.edu/8228911"
        ],
        "place_title": "Magnesia (region)",
        "place_types": [
            "region"
        ],
        "representative_latitude": 39.50742026234628,
        "representative_longitude": 22.919706044030008,
        "uri": "https://pleiades.stoa.org/places/540923"
    },
    "https://pleiades.stoa.org/places/540930": {
        "alignments": [
            "https://resource.manto.unh.edu/10152226"
        ],
        "place_title": "Malis",
        "place_types": [
            "region",
            "label"
        ],
        "representative_latitude": 38.85937307503545,
        "representative_longitude": 22.413021770649877,
        "uri": "https://pleiades.stoa.org/places/540930"
    },
    "https://pleiades.stoa.org/places/540946": {
        "alignments": [
            "https://resource.manto.unh.edu/9720439"
        ],
        "place_title": "Methone (Magnesian)",
        "place_types": [
            "settlement",
            "acropolis"
        ],
        "representative_latitude": 39.3316,
        "representative_longitude": 23.0527,
        "uri": "https://pleiades.stoa.org/places/540946"
    },
    "https://pleiades.stoa.org/places/540960": {
        "alignments": [
            "https://resource.manto.unh.edu/8254037"
        ],
        "place_title": "Naupactus",
        "place_types": [
            "settlement"
        ],
        "representative_latitude": 38.399726,
        "representative_longitude": 21.831267,
        "uri": "https://pleiades.stoa.org/places/540960"
    },
    "https://pleiades.stoa.org/places/540967": {
        "alignments": [
            "https://resource.manto.unh.edu/10146465"
        ],
        "place_title": "Oeroe (river)",
        "place_types": [
            "river"
        ],
        "representative_latitude": 38.22099133017852,
        "representative_longitude": 23.160581650486517,
        "uri": "https://pleiades.stoa.org/places/540967"
    },
    "https://pleiades.stoa.org/places/540984": {
        "alignments": [
            "https://resource.manto.unh.edu/8253968"
        ],
        "place_title": "Onchestos",
        "place_types": [
            "settlement"
        ],
        "representative_latitude": 38.373269,
        "representative_longitude": 23.150267,
        "uri": "https://pleiades.stoa.org/places/540984"
    },
    "https://pleiades.stoa.org/places/540992": {
        "alignments": [
            "https://resource.manto.unh.edu/9720474"
        ],
        "place_title": "Orthe/Phalanna",
        "place_types": [
            "settlement"
        ],
        "representative_latitude": 39.708507,
        "representative_longitude": 22.193106,
        "uri": "https://pleiades.stoa.org/places/540992"
    },
    "https://pleiades.stoa.org/places/540993": {
        "alignments": [
            "https://resource.manto.unh.edu/9063139"
        ],
        "place_title": "Ossa (mountain)",
        "place_types": [
            "mountain"
        ],
        "representative_latitude": 39.7957751,
        "representative_longitude": 22.6851958,
        "uri": "https://pleiades.stoa.org/places/540993"
    },
    "https://pleiades.stoa.org/places/540994": {
        "alignments": [
            "https://resource.manto.unh.edu/9880011"
        ],
        "place_title": "Othrys (mountain)",
        "place_types": [
            "mountain"
        ],
        "representative_latitude": 39.016944,
        "representative_longitude": 22.709722,
        "uri": "https://pleiades.stoa.org/places/540994"
    },
    "https://pleiades.stoa.org/places/540998": {
        "alignments": [
            "https://resource.manto.unh.edu/11289361"
        ],
        "place_title": "Pagasai",
        "place_types": [
            "settlement"
        ],
        "representative_latitude": 39.310841,
        "representative_longitude": 22.944398,
        "uri": "https://pleiades.stoa.org/places/540998"
    },
    "https://pleiades.stoa.org/places/541021": {
        "alignments": [
            "https://resource.manto.unh.edu/8253982"
        ],
        "place_title": "Pelion (mountain)",
        "place_types": [
            "mountain"
        ],
        "representative_latitude": 39.40821960102275,
        "representative_longitude": 23.06652794489195,
        "uri": "https://pleiades.stoa.org/places/541021"
    },
    "https://pleiades.stoa.org/places/541022": {
        "alignments": [
            "https://resource.manto.unh.edu/9720495"
        ],
        "place_title": "Peneios (river)",
        "place_types": [
            "river"
        ],
        "representative_latitude": 39.66935083151996,
        "representative_longitude": 22.170462772559667,
        "uri": "https://pleiades.stoa.org/places/541022"
    },
    "https://pleiades.stoa.org/places/541025": {
        "alignments": [
            "https://resource.manto.unh.edu/9719379"
        ],
        "place_title": "Pereia",
        "place_types": [
            "settlement"
        ],
        "representative_latitude": 39.141135,
        "representative_longitude": 22.555166,
        "uri": "https://pleiades.stoa.org/places/541025"
    },
    "https://pleiades.stoa.org/places/541042": {
        "alignments": [
            "https://resource.manto.unh.edu/10272345"
        ],
        "place_title": "Pharsalus",
        "place_types": [
            "settlement",
            "acropolis"
        ],
        "representative_latitude": 39.31386966666667,
        "representative_longitude": 22.351389333333334,
        "uri": "https://pleiades.stoa.org/places/541042"
    },
    "https://pleiades.stoa.org/places/541048": {
        "alignments": [
            "https://resource.manto.unh.edu/8195196"
        ],
        "place_title": "Phocis",
        "place_types": [
            "region"
        ],
        "representative_latitude": 38.555707572765925,
        "representative_longitude": 22.68657558899859,
        "uri": "https://pleiades.stoa.org/places/541048"
    },
    "https://pleiades.stoa.org/places/541053": {
        "alignments": [
            "https://resource.manto.unh.edu/8228889"
        ],
        "place_title": "Phylake",
        "place_types": [
            "settlement"
        ],
        "representative_latitude": 39.289349,
        "representative_longitude": 22.762367,
        "uri": "https://pleiades.stoa.org/places/541053"
    },
    "https://pleiades.stoa.org/places/541062": {
        "alignments": [
            "https://resource.manto.unh.edu/11296826"
        ],
        "place_title": "Pindus (mountain range)",
        "place_types": [
            "mountain"
        ],
        "representative_latitude": 40.044861,
        "representative_longitude": 20.8380555,
        "uri": "https://pleiades.stoa.org/places/541062"
    },
    "https://pleiades.stoa.org/places/541063": {
        "alignments": [
            "https://resource.manto.unh.edu/9613099"
        ],
        "place_title": "Plataea",
        "place_types": [
            "settlement",
            "archaeological-site",
            "abbey-church"
        ],
        "representative_latitude": 38.221075299999995,
        "representative_longitude": 23.27353775,
        "uri": "https://pleiades.stoa.org/places/541063"
    },
    "https://pleiades.stoa.org/places/541077": {
        "alignments": [
            "https://resource.manto.unh.edu/9720423"
        ],
        "place_title": "Pteleon",
        "place_types": [
            "fort-2",
            "tower-defensive",
            "settlement"
        ],
        "representative_latitude": 39.027617,
        "representative_longitude": 22.962751500000003,
        "uri": "https://pleiades.stoa.org/places/541077"
    },
    "https://pleiades.stoa.org/places/541081": {
        "alignments": [
            "https://resource.manto.unh.edu/9720419"
        ],
        "place_title": "Pyrasos",
        "place_types": [
            "settlement"
        ],
        "representative_latitude": 39.278802,
        "representative_longitude": 22.821298,
        "uri": "https://pleiades.stoa.org/places/541081"
    },
    "https://pleiades.stoa.org/places/541093": {
        "alignments": [
            "https://resource.manto.unh.edu/8240629"
        ],
        "place_title": "Scyrus (island)",
        "place_types": [
            "island"
        ],
        "representative_latitude": 38.86083309878383,
        "representative_longitude": 24.549931059829188,
        "uri": "https://pleiades.stoa.org/places/541093"
    },
    "https://pleiades.stoa.org/places/541107": {
        "alignments": [
            "https://resource.manto.unh.edu/10833985"
        ],
        "place_title": "Skotoussa (Thessaly)",
        "place_types": [
            "settlement"
        ],
        "representative_latitude": 39.3794265,
        "representative_longitude": 22.5372895,
        "uri": "https://pleiades.stoa.org/places/541107"
    },
    "https://pleiades.stoa.org/places/541112": {
        "alignments": [
            "https://resource.manto.unh.edu/9611999"
        ],
        "place_title": "Spercheios",
        "place_types": [
            "river"
        ],
        "representative_latitude": 38.90399455703085,
        "representative_longitude": 22.209132911424522,
        "uri": "https://pleiades.stoa.org/places/541112"
    },
    "https://pleiades.stoa.org/places/541117": {
        "alignments": [
            "https://resource.manto.unh.edu/9718707"
        ],
        "place_title": "Styra",
        "place_types": [
            "settlement",
            "port"
        ],
        "representative_latitude": 38.1458429,
        "representative_longitude": 24.2617647,
        "uri": "https://pleiades.stoa.org/places/541117"
    },
    "https://pleiades.stoa.org/places/541131": {
        "alignments": [
            "https://resource.manto.unh.edu/10269093"
        ],
        "place_title": "Tempe",
        "place_types": [
            "valley"
        ],
        "representative_latitude": 39.875966610381056,
        "representative_longitude": 22.56653325377468,
        "uri": "https://pleiades.stoa.org/places/541131"
    },
    "https://pleiades.stoa.org/places/541138": {
        "alignments": [
            "https://resource.manto.unh.edu/8253960"
        ],
        "place_title": "Thebai/Thebae",
        "place_types": [
            "settlement",
            "archaeological-site",
            "findspot"
        ],
        "representative_latitude": 38.319948833333335,
        "representative_longitude": 23.317653433333334,
        "uri": "https://pleiades.stoa.org/places/541138"
    },
    "https://pleiades.stoa.org/places/541141": {
        "alignments": [
            "https://resource.manto.unh.edu/8253967"
        ],
        "place_title": "Thespiai",
        "place_types": [
            "settlement",
            "archaeological-site"
        ],
        "representative_latitude": 38.2945261480463,
        "representative_longitude": 23.152363184928152,
        "uri": "https://pleiades.stoa.org/places/541141"
    },
    "https://pleiades.stoa.org/places/541144": {
        "alignments": [
            "https://resource.manto.unh.edu/11307213"
        ],
        "place_title": "Thetideion",
        "place_types": [
            "sanctuary",
            "settlement",
            "settlement-modern"
        ],
        "representative_latitude": 39.3511109,
        "representative_longitude": 22.5076655,
        "uri": "https://pleiades.stoa.org/places/541144"
    },
    "https://pleiades.stoa.org/places/541147": {
        "alignments": [
            "https://resource.manto.unh.edu/9688226"
        ],
        "place_title": "Thronion",
        "place_types": [
            "fort"
        ],
        "representative_latitude": 38.775841,
        "representative_longitude": 22.725727,
        "uri": "https://pleiades.stoa.org/places/541147"
    },
    "https://pleiades.stoa.org/places/541150": {
        "alignments": [
            "https://resource.manto.unh.edu/9720467"
        ],
        "place_title": "Titanos (mountain)",
        "place_types": [
            "mountain",
            "label"
        ],
        "representative_latitude": 39.550000412645005,
        "representative_longitude": 22.169655290970162,
        "uri": "https://pleiades.stoa.org/places/541150"
    },
    "https://pleiades.stoa.org/places/541152": {
        "alignments": [
            "https://resource.manto.unh.edu/10153163"
        ],
        "place_title": "Tithorea/Neon",
        "place_types": [
            "settlement"
        ],
        "representative_latitude": 38.5855,
        "representative_longitude": 22.6686,
        "uri": "https://pleiades.stoa.org/places/541152"
    },
    "https://pleiades.stoa.org/places/542836711": {
        "alignments": [
            "https://resource.manto.unh.edu/10057163"
        ],
        "place_title": "Typhrestos/Tymphrestos (mountain)",
        "place_types": [
            "mountain"
        ],
        "representative_latitude": 38.943782,
        "representative_longitude": 21.824192,
        "uri": "https://pleiades.stoa.org/places/542836711"
    },
    "https://pleiades.stoa.org/places/543704": {
        "alignments": [
            "https://resource.manto.unh.edu/9651937"
        ],
        "place_title": "Eteonos/Skaphaliai",
        "place_types": [
            "unlocated",
            "settlement"
        ],
        "representative_latitude": null,
        "representative_longitude": null,
        "uri": "https://pleiades.stoa.org/places/543704"
    },
    "https://pleiades.stoa.org/places/543806": {
        "alignments": [
            "https://resource.manto.unh.edu/11307761"
        ],
        "place_title": "Nessonis L.",
        "place_types": [
            "unlocated",
            "lake"
        ],
        "representative_latitude": null,
        "representative_longitude": null,
        "uri": "https://pleiades.stoa.org/places/543806"
    },
    "https://pleiades.stoa.org/places/550497": {
        "alignments": [
            "https://resource.manto.unh.edu/9055278"
        ],
        "place_title": "Chios (island)",
        "place_types": [
            "island"
        ],
        "representative_latitude": 38.414,
        "representative_longitude": 26.053,
        "uri": "https://pleiades.stoa.org/places/550497"
    },
    "https://pleiades.stoa.org/places/550555": {
        "alignments": [
            "https://resource.manto.unh.edu/11016600"
        ],
        "place_title": "Gryneion",
        "place_types": [
            "settlement",
            "settlement-modern"
        ],
        "representative_latitude": 38.87902425,
        "representative_longitude": 27.06798455,
        "uri": "https://pleiades.stoa.org/places/550555"
    },
    "https://pleiades.stoa.org/places/550556": {
        "alignments": [
            "https://resource.manto.unh.edu/9718751"
        ],
        "place_title": "Gygaia/Koloe/Talaimenis (lake)",
        "place_types": [
            "lake"
        ],
        "representative_latitude": 38.614377,
        "representative_longitude": 27.983474,
        "uri": "https://pleiades.stoa.org/places/550556"
    },
    "https://pleiades.stoa.org/places/550584": {
        "alignments": [
            "https://resource.manto.unh.edu/9985091"
        ],
        "place_title": "Hyllos (river)",
        "place_types": [
            "river"
        ],
        "representative_latitude": 38.76672288551161,
        "representative_longitude": 28.013562696660205,
        "uri": "https://pleiades.stoa.org/places/550584"
    },
    "https://pleiades.stoa.org/places/550592": {
        "alignments": [
            "https://resource.manto.unh.edu/8194700"
        ],
        "place_title": "Ida (mountain)",
        "place_types": [
            "mountain"
        ],
        "representative_latitude": 39.68594276666666,
        "representative_longitude": 26.826552933333332,
        "uri": "https://pleiades.stoa.org/places/550592"
    },
    "https://pleiades.stoa.org/places/550595": {
        "alignments": [
            "https://resource.manto.unh.edu/8194710"
        ],
        "place_title": "Ilium/Troia",
        "place_types": [
            "settlement"
        ],
        "representative_latitude": 39.957438079553725,
        "representative_longitude": 26.238515616396768,
        "uri": "https://pleiades.stoa.org/places/550595"
    },
    "https://pleiades.stoa.org/places/550597": {
        "alignments": [
            "https://resource.manto.unh.edu/10267540"
        ],
        "place_title": "Ionia (region)",
        "place_types": [
            "region",
            "label"
        ],
        "representative_latitude": 38.29906458258456,
        "representative_longitude": 26.80156094559267,
        "uri": "https://pleiades.stoa.org/places/550597"
    },
    "https://pleiades.stoa.org/places/550599": {
        "alignments": [
            "https://resource.manto.unh.edu/10055500"
        ],
        "place_title": "Xirokastrini",
        "place_types": [
            "settlement"
        ],
        "representative_latitude": 39.207108,
        "representative_longitude": 26.131466,
        "uri": "https://pleiades.stoa.org/places/550599"
    },
    "https://pleiades.stoa.org/places/550609": {
        "alignments": [
            "https://resource.manto.unh.edu/9985082"
        ],
        "place_title": "Kallikolone M.",
        "place_types": [
            "mountain",
            "label"
        ],
        "representative_latitude": 39.9680559390645,
        "representative_longitude": 26.432039620278495,
        "uri": "https://pleiades.stoa.org/places/550609"
    },
    "https://pleiades.stoa.org/places/550693": {
        "alignments": [
            "https://resource.manto.unh.edu/8188820"
        ],
        "place_title": "Lemnos (island)",
        "place_types": [
            "island"
        ],
        "representative_latitude": 39.90501982246366,
        "representative_longitude": 25.229093534025623,
        "uri": "https://pleiades.stoa.org/places/550693"
    },
    "https://pleiades.stoa.org/places/550696": {
        "alignments": [
            "https://resource.manto.unh.edu/8195127"
        ],
        "place_title": "Lesbos (island)",
        "place_types": [
            "island"
        ],
        "representative_latitude": 39.17527544508263,
        "representative_longitude": 26.23826595597551,
        "uri": "https://pleiades.stoa.org/places/550696"
    },
    "https://pleiades.stoa.org/places/550701": {
        "alignments": [
            "https://resource.manto.unh.edu/8254019"
        ],
        "place_title": "Lydia/Maionia (region)",
        "place_types": [
            "region"
        ],
        "representative_latitude": 38.553441151947105,
        "representative_longitude": 28.593706027904002,
        "uri": "https://pleiades.stoa.org/places/550701"
    },
    "https://pleiades.stoa.org/places/550706": {
        "alignments": [
            "https://resource.manto.unh.edu/11288839"
        ],
        "place_title": "Magnesia ad Sipylum",
        "place_types": [
            "settlement",
            "settlement-modern"
        ],
        "representative_latitude": 38.6125793,
        "representative_longitude": 27.4333969,
        "uri": "https://pleiades.stoa.org/places/550706"
    },
    "https://pleiades.stoa.org/places/550744": {
        "alignments": [
            "https://resource.manto.unh.edu/9358740"
        ],
        "place_title": "Mimas (mountain)",
        "place_types": [
            "mountain"
        ],
        "representative_latitude": 38.5885485,
        "representative_longitude": 26.469511,
        "uri": "https://pleiades.stoa.org/places/550744"
    },
    "https://pleiades.stoa.org/places/550812": {
        "alignments": [
            "https://resource.manto.unh.edu/10149872"
        ],
        "place_title": "Pergamum",
        "place_types": [
            "settlement"
        ],
        "representative_latitude": 39.1325,
        "representative_longitude": 27.184167,
        "uri": "https://pleiades.stoa.org/places/550812"
    },
    "https://pleiades.stoa.org/places/550870": {
        "alignments": [
            "https://resource.manto.unh.edu/9747910"
        ],
        "place_title": "Satnioeis (river)",
        "place_types": [
            "river"
        ],
        "representative_latitude": 39.54345409504747,
        "representative_longitude": 26.200482466084992,
        "uri": "https://pleiades.stoa.org/places/550870"
    },
    "https://pleiades.stoa.org/places/550884": {
        "alignments": [
            "https://resource.manto.unh.edu/9613077"
        ],
        "place_title": "Sipylos/Manisa Da",
        "place_types": [
            "mountain"
        ],
        "representative_latitude": 38.567,
        "representative_longitude": 27.456,
        "uri": "https://pleiades.stoa.org/places/550884"
    },
    "https://pleiades.stoa.org/places/550912": {
        "alignments": [
            "https://resource.manto.unh.edu/8194758"
        ],
        "place_title": "Tenedos (island)",
        "place_types": [
            "island"
        ],
        "representative_latitude": 39.82058521592817,
        "representative_longitude": 26.035321353833904,
        "uri": "https://pleiades.stoa.org/places/550912"
    },
    "https://pleiades.stoa.org/places/550937": {
        "alignments": [
            "https://resource.manto.unh.edu/9688217"
        ],
        "place_title": "Tmolus (mountain)",
        "place_types": [
            "mountain"
        ],
        "representative_latitude": 38.323742,
        "representative_longitude": 28.101611,
        "uri": "https://pleiades.stoa.org/places/550937"
    },
    "https://pleiades.stoa.org/places/550944": {
        "alignments": [
            "https://resource.manto.unh.edu/9615905"
        ],
        "place_title": "Troas (region)",
        "place_types": [
            "region"
        ],
        "representative_latitude": 39.8904865420562,
        "representative_longitude": 26.297696130336995,
        "uri": "https://pleiades.stoa.org/places/550944"
    },
    "https://pleiades.stoa.org/places/560221": {
        "alignments": [
            "https://resource.manto.unh.edu/10159368"
        ],
        "place_title": "Aegaeum Mare",
        "place_types": [
            "water-open"
        ],
        "representative_latitude": 38.87258848712192,
        "representative_longitude": 24.90205134034994,
        "uri": "https://pleiades.stoa.org/places/560221"
    },
    "https://pleiades.stoa.org/places/570027": {
        "alignments": [
            "https://resource.manto.unh.edu/10113505"
        ],
        "place_title": "Abia",
        "place_types": [
            "castle",
            "settlement",
            "settlement-modern"
        ],
        "representative_latitude": 36.96519120000001,
        "representative_longitude": 22.142323349999998,
        "uri": "https://pleiades.stoa.org/places/570027"
    },
    "https://pleiades.stoa.org/places/570028": {
        "alignments": [
            "https://resource.manto.unh.edu/10082559"
        ],
        "place_title": "Achaea/Achaia (region)",
        "place_types": [
            "region"
        ],
        "representative_latitude": 38.25441022133628,
        "representative_longitude": 21.779336047028078,
        "uri": "https://pleiades.stoa.org/places/570028"
    },
    "https://pleiades.stoa.org/places/570044": {
        "alignments": [
            "https://resource.manto.unh.edu/10146647"
        ],
        "place_title": "Aigiai",
        "place_types": [
            "settlement",
            "archaeological-site",
            "settlement-modern"
        ],
        "representative_latitude": 36.78751295,
        "representative_longitude": 22.51594695,
        "uri": "https://pleiades.stoa.org/places/570044"
    },
    "https://pleiades.stoa.org/places/570058": {
        "alignments": [
            "https://resource.manto.unh.edu/10149418"
        ],
        "place_title": "Akriai",
        "place_types": [
            "building",
            "settlement"
        ],
        "representative_latitude": 36.791643,
        "representative_longitude": 22.787006,
        "uri": "https://pleiades.stoa.org/places/570058"
    },
    "https://pleiades.stoa.org/places/570063": {
        "alignments": [
            "https://resource.manto.unh.edu/10146615"
        ],
        "place_title": "Alesiai",
        "place_types": [
            "settlement",
            "settlement-modern"
        ],
        "representative_latitude": 37.05047157349865,
        "representative_longitude": 22.40706598528756,
        "uri": "https://pleiades.stoa.org/places/570063"
    },
    "https://pleiades.stoa.org/places/570064": {
        "alignments": [
            "https://resource.manto.unh.edu/9719403"
        ],
        "place_title": "Alesion (mountain)",
        "place_types": [
            "mountain",
            "label"
        ],
        "representative_latitude": 37.64224443133176,
        "representative_longitude": 22.433686403253525,
        "uri": "https://pleiades.stoa.org/places/570064"
    },
    "https://pleiades.stoa.org/places/570065": {
        "alignments": [
            "https://resource.manto.unh.edu/10137168"
        ],
        "place_title": "Alipheira",
        "place_types": [
            "settlement"
        ],
        "representative_latitude": 37.52965303776374,
        "representative_longitude": 21.86550698763829,
        "uri": "https://pleiades.stoa.org/places/570065"
    },
    "https://pleiades.stoa.org/places/570078": {
        "alignments": [
            "https://resource.manto.unh.edu/10158709"
        ],
        "place_title": "Anchisia (mountain)",
        "place_types": [
            "mountain",
            "label"
        ],
        "representative_latitude": 37.698705137861246,
        "representative_longitude": 22.372562447624734,
        "uri": "https://pleiades.stoa.org/places/570078"
    },
    "https://pleiades.stoa.org/places/570090": {
        "alignments": [
            "https://resource.manto.unh.edu/9878375"
        ],
        "place_title": "Apesas (mountain)",
        "place_types": [
            "mountain"
        ],
        "representative_latitude": 37.86667,
        "representative_longitude": 22.73333,
        "uri": "https://pleiades.stoa.org/places/570090"
    },
    "https://pleiades.stoa.org/places/570102": {
        "alignments": [
            "https://resource.manto.unh.edu/8228863"
        ],
        "place_title": "Arcadia",
        "place_types": [
            "region"
        ],
        "representative_latitude": 37.5644245,
        "representative_longitude": 22.288669,
        "uri": "https://pleiades.stoa.org/places/570102"
    },
    "https://pleiades.stoa.org/places/570104": {
        "alignments": [
            "https://resource.manto.unh.edu/9369036"
        ],
        "place_title": "Argolis",
        "place_types": [
            "region",
            "label"
        ],
        "representative_latitude": 37.626326149297945,
        "representative_longitude": 22.92569446738503,
        "uri": "https://pleiades.stoa.org/places/570104"
    },
    "https://pleiades.stoa.org/places/570114": {
        "alignments": [
            "https://resource.manto.unh.edu/10158827"
        ],
        "place_title": "Aroanios (river)",
        "place_types": [
            "river"
        ],
        "representative_latitude": 37.888025966328115,
        "representative_longitude": 22.14225006995366,
        "uri": "https://pleiades.stoa.org/places/570114"
    },
    "https://pleiades.stoa.org/places/570122": {
        "alignments": [
            "https://resource.manto.unh.edu/10137160"
        ],
        "place_title": "Asea",
        "place_types": [
            "settlement",
            "archaeological-site"
        ],
        "representative_latitude": 37.405334,
        "representative_longitude": 22.282974,
        "uri": "https://pleiades.stoa.org/places/570122"
    },
    "https://pleiades.stoa.org/places/570125": {
        "alignments": [
            "https://resource.manto.unh.edu/10127951"
        ],
        "place_title": "Asine",
        "place_types": [
            "castle",
            "settlement"
        ],
        "representative_latitude": 36.7945068,
        "representative_longitude": 21.9632706,
        "uri": "https://pleiades.stoa.org/places/570125"
    },
    "https://pleiades.stoa.org/places/570129": {
        "alignments": [
            "https://resource.manto.unh.edu/10149393"
        ],
        "place_title": "Asopos",
        "place_types": [
            "ruin",
            "settlement"
        ],
        "representative_latitude": 36.6845,
        "representative_longitude": 22.8426,
        "uri": "https://pleiades.stoa.org/places/570129"
    },
    "https://pleiades.stoa.org/places/570131": {
        "alignments": [
            "https://resource.manto.unh.edu/8254150"
        ],
        "place_title": "Asopos (river)",
        "place_types": [
            "river"
        ],
        "representative_latitude": 37.75,
        "representative_longitude": 22.75,
        "uri": "https://pleiades.stoa.org/places/570131"
    },
    "https://pleiades.stoa.org/places/570133": {
        "alignments": [
            "https://resource.manto.unh.edu/10043139"
        ],
        "place_title": "Asterion (river)",
        "place_types": [
            "river"
        ],
        "representative_latitude": 37.6859289400611,
        "representative_longitude": 22.804088035330576,
        "uri": "https://pleiades.stoa.org/places/570133"
    },
    "https://pleiades.stoa.org/places/570143": {
        "alignments": [
            "https://resource.manto.unh.edu/10146513"
        ],
        "place_title": "Azania",
        "place_types": [
            "region",
            "label"
        ],
        "representative_latitude": 37.79723271980384,
        "representative_longitude": 22.11007334925436,
        "uri": "https://pleiades.stoa.org/places/570143"
    },
    "https://pleiades.stoa.org/places/570146": {
        "alignments": [
            "https://resource.manto.unh.edu/10126142"
        ],
        "place_title": "Balyra (river)",
        "place_types": [
            "river"
        ],
        "representative_latitude": 37.172981895392596,
        "representative_longitude": 21.96940694466098,
        "uri": "https://pleiades.stoa.org/places/570146"
    },
    "https://pleiades.stoa.org/places/570156": {
        "alignments": [
            "https://resource.manto.unh.edu/10149804"
        ],
        "place_title": "Boia(i)",
        "place_types": [
            "settlement",
            "settlement-modern"
        ],
        "representative_latitude": 36.51370129142322,
        "representative_longitude": 23.058669930006218,
        "uri": "https://pleiades.stoa.org/places/570156"
    },
    "https://pleiades.stoa.org/places/570166": {
        "alignments": [
            "https://resource.manto.unh.edu/10082241"
        ],
        "place_title": "Kastro ano Diakopto",
        "place_types": [
            "church-2",
            "settlement",
            "settlement-modern"
        ],
        "representative_latitude": 38.142737,
        "representative_longitude": 22.205421649999998,
        "uri": "https://pleiades.stoa.org/places/570166"
    },
    "https://pleiades.stoa.org/places/570171": {
        "alignments": [
            "https://resource.manto.unh.edu/10158629"
        ],
        "place_title": "Chaon (mountain)",
        "place_types": [
            "mountain",
            "label"
        ],
        "representative_latitude": 37.60177460700157,
        "representative_longitude": 22.633902869432518,
        "uri": "https://pleiades.stoa.org/places/570171"
    },
    "https://pleiades.stoa.org/places/570186": {
        "alignments": [
            "https://resource.manto.unh.edu/8194546"
        ],
        "place_title": "Cythera (island)",
        "place_types": [
            "island"
        ],
        "representative_latitude": 36.24011361451129,
        "representative_longitude": 22.982874966001976,
        "uri": "https://pleiades.stoa.org/places/570186"
    },
    "https://pleiades.stoa.org/places/570188": {
        "alignments": [
            "https://resource.manto.unh.edu/10126264"
        ],
        "place_title": "Dasea(i)",
        "place_types": [
            "settlement"
        ],
        "representative_latitude": 37.39350035,
        "representative_longitude": 22.07301925,
        "uri": "https://pleiades.stoa.org/places/570188"
    },
    "https://pleiades.stoa.org/places/570205": {
        "alignments": [
            "https://resource.manto.unh.edu/10082237"
        ],
        "place_title": "Dyme",
        "place_types": [
            "settlement"
        ],
        "representative_latitude": 38.144625,
        "representative_longitude": 21.551425,
        "uri": "https://pleiades.stoa.org/places/570205"
    },
    "https://pleiades.stoa.org/places/570221": {
        "alignments": [
            "https://resource.manto.unh.edu/8228866"
        ],
        "place_title": "Elis (region)",
        "place_types": [
            "region"
        ],
        "representative_latitude": 37.83852391615581,
        "representative_longitude": 21.5251503614955,
        "uri": "https://pleiades.stoa.org/places/570221"
    },
    "https://pleiades.stoa.org/places/570225": {
        "alignments": [
            "https://resource.manto.unh.edu/9367780"
        ],
        "place_title": "Enipeus (river)",
        "place_types": [
            "river"
        ],
        "representative_latitude": 37.66788892275984,
        "representative_longitude": 21.540797346608414,
        "uri": "https://pleiades.stoa.org/places/570225"
    },
    "https://pleiades.stoa.org/places/570233": {
        "alignments": [
            "https://resource.manto.unh.edu/10214811"
        ],
        "place_title": "Erasinos (river)",
        "place_types": [
            "river"
        ],
        "representative_latitude": 37.59323451680311,
        "representative_longitude": 22.717563676555766,
        "uri": "https://pleiades.stoa.org/places/570233"
    },
    "https://pleiades.stoa.org/places/570237": {
        "alignments": [
            "https://resource.manto.unh.edu/10268847"
        ],
        "place_title": "Erymanthos (river)",
        "place_types": [
            "river"
        ],
        "representative_latitude": 37.61748874258847,
        "representative_longitude": 21.794865239875794,
        "uri": "https://pleiades.stoa.org/places/570237"
    },
    "https://pleiades.stoa.org/places/570238": {
        "alignments": [
            "https://resource.manto.unh.edu/8253979"
        ],
        "place_title": "Erymanthos M.",
        "place_types": [
            "mountain"
        ],
        "representative_latitude": 37.966667,
        "representative_longitude": 21.833333,
        "uri": "https://pleiades.stoa.org/places/570238"
    },
    "https://pleiades.stoa.org/places/570242": {
        "alignments": [
            "https://resource.manto.unh.edu/10113663"
        ],
        "place_title": "Eua (mountain)",
        "place_types": [
            "mountain",
            "label"
        ],
        "representative_latitude": 37.16797529921745,
        "representative_longitude": 21.938791357292292,
        "uri": "https://pleiades.stoa.org/places/570242"
    },
    "https://pleiades.stoa.org/places/570248": {
        "alignments": [
            "https://resource.manto.unh.edu/10126442"
        ],
        "place_title": "Eurotas (river)",
        "place_types": [
            "river"
        ],
        "representative_latitude": 37.057727307620134,
        "representative_longitude": 22.478179046878882,
        "uri": "https://pleiades.stoa.org/places/570248"
    },
    "https://pleiades.stoa.org/places/570253": {
        "alignments": [
            "https://resource.manto.unh.edu/10267743"
        ],
        "place_title": "Garates (river)",
        "place_types": [
            "river"
        ],
        "representative_latitude": 37.45185915830601,
        "representative_longitude": 22.454205230057223,
        "uri": "https://pleiades.stoa.org/places/570253"
    },
    "https://pleiades.stoa.org/places/570257": {
        "alignments": [
            "https://resource.manto.unh.edu/10192019"
        ],
        "place_title": "Genesion/Apobathmoi",
        "place_types": [
            "settlement"
        ],
        "representative_latitude": 37.513986,
        "representative_longitude": 22.732834,
        "uri": "https://pleiades.stoa.org/places/570257"
    },
    "https://pleiades.stoa.org/places/570259": {
        "alignments": [
            "https://resource.manto.unh.edu/8194355"
        ],
        "place_title": "Geraistos Pr.",
        "place_types": [
            "cape"
        ],
        "representative_latitude": 37.97903,
        "representative_longitude": 24.547973,
        "uri": "https://pleiades.stoa.org/places/570259"
    },
    "https://pleiades.stoa.org/places/570266": {
        "alignments": [
            "https://resource.manto.unh.edu/10214421"
        ],
        "place_title": "Gortynios/Lousios (river)",
        "place_types": [
            "river"
        ],
        "representative_latitude": 37.51466695003642,
        "representative_longitude": 22.03736851934474,
        "uri": "https://pleiades.stoa.org/places/570266"
    },
    "https://pleiades.stoa.org/places/570271": {
        "alignments": [
            "https://resource.manto.unh.edu/10137144"
        ],
        "place_title": "(H)Aimoniai",
        "place_types": [
            "settlement"
        ],
        "representative_latitude": 37.390614,
        "representative_longitude": 22.165741,
        "uri": "https://pleiades.stoa.org/places/570271"
    },
    "https://pleiades.stoa.org/places/570281": {
        "alignments": [
            "https://resource.manto.unh.edu/9718749"
        ],
        "place_title": "Helike",
        "place_types": [
            "settlement"
        ],
        "representative_latitude": 38.220538,
        "representative_longitude": 22.144303,
        "uri": "https://pleiades.stoa.org/places/570281"
    },
    "https://pleiades.stoa.org/places/570282": {
        "alignments": [
            "https://resource.manto.unh.edu/10126257"
        ],
        "place_title": "Helisson",
        "place_types": [
            "settlement"
        ],
        "representative_latitude": 37.612883,
        "representative_longitude": 22.217753,
        "uri": "https://pleiades.stoa.org/places/570282"
    },
    "https://pleiades.stoa.org/places/570283": {
        "alignments": [
            "https://resource.manto.unh.edu/10126256"
        ],
        "place_title": "Helisson (river in modern Sikyona municipality)",
        "place_types": [
            "river"
        ],
        "representative_latitude": 37.99751033891134,
        "representative_longitude": 22.724389252857335,
        "uri": "https://pleiades.stoa.org/places/570283"
    },
    "https://pleiades.stoa.org/places/570287": {
        "alignments": [
            "https://resource.manto.unh.edu/10137170"
        ],
        "place_title": "Heraia",
        "place_types": [
            "settlement",
            "settlement-modern"
        ],
        "representative_latitude": 37.6134553,
        "representative_longitude": 21.8637785,
        "uri": "https://pleiades.stoa.org/places/570287"
    },
    "https://pleiades.stoa.org/places/570303": {
        "alignments": [
            "https://resource.manto.unh.edu/10136970"
        ],
        "place_title": "Hypsous (settlement)",
        "place_types": [
            "settlement",
            "settlement-modern"
        ],
        "representative_latitude": 37.5560928,
        "representative_longitude": 22.0831223,
        "uri": "https://pleiades.stoa.org/places/570303"
    },
    "https://pleiades.stoa.org/places/570313": {
        "alignments": [
            "https://resource.manto.unh.edu/8253939"
        ],
        "place_title": "Inachos (river)",
        "place_types": [
            "river"
        ],
        "representative_latitude": 37.674231532364175,
        "representative_longitude": 22.66279206728113,
        "uri": "https://pleiades.stoa.org/places/570313"
    },
    "https://pleiades.stoa.org/places/570316": {
        "alignments": [
            "https://resource.manto.unh.edu/9612969"
        ],
        "place_title": "Isthmia",
        "place_types": [
            "settlement",
            "sanctuary"
        ],
        "representative_latitude": 37.9158035,
        "representative_longitude": 22.9931345,
        "uri": "https://pleiades.stoa.org/places/570316"
    },
    "https://pleiades.stoa.org/places/570318": {
        "alignments": [
            "https://resource.manto.unh.edu/10113693"
        ],
        "place_title": "Ithome (mountain)",
        "place_types": [
            "mountain"
        ],
        "representative_latitude": 37.1857343,
        "representative_longitude": 21.9249021,
        "uri": "https://pleiades.stoa.org/places/570318"
    },
    "https://pleiades.stoa.org/places/570325": {
        "alignments": [
            "https://resource.manto.unh.edu/10214901"
        ],
        "place_title": "Kalaureia (island)",
        "place_types": [
            "island"
        ],
        "representative_latitude": 37.516667,
        "representative_longitude": 23.483333,
        "uri": "https://pleiades.stoa.org/places/570325"
    },
    "https://pleiades.stoa.org/places/570346": {
        "alignments": [
            "https://resource.manto.unh.edu/11289111"
        ],
        "place_title": "Kenchreai",
        "place_types": [
            "settlement"
        ],
        "representative_latitude": 37.542365,
        "representative_longitude": 22.604189,
        "uri": "https://pleiades.stoa.org/places/570346"
    },
    "https://pleiades.stoa.org/places/570354": {
        "alignments": [
            "https://resource.manto.unh.edu/10274664"
        ],
        "place_title": "Keryneia",
        "place_types": [
            "settlement",
            "archaeological-site"
        ],
        "representative_latitude": 38.16384187185831,
        "representative_longitude": 22.151225346586166,
        "uri": "https://pleiades.stoa.org/places/570354"
    },
    "https://pleiades.stoa.org/places/570359": {
        "alignments": [
            "https://resource.manto.unh.edu/10146606"
        ],
        "place_title": "Kleitor",
        "place_types": [
            "city-gate",
            "settlement",
            "theatre"
        ],
        "representative_latitude": 37.8908115,
        "representative_longitude": 22.097227,
        "uri": "https://pleiades.stoa.org/places/570359"
    },
    "https://pleiades.stoa.org/places/570370": {
        "alignments": [
            "https://resource.manto.unh.edu/11297948"
        ],
        "place_title": "Koresia/Arsinoe",
        "place_types": [
            "settlement"
        ],
        "representative_latitude": 37.658699,
        "representative_longitude": 24.311187500000003,
        "uri": "https://pleiades.stoa.org/places/570370"
    },
    "https://pleiades.stoa.org/places/570397": {
        "alignments": [
            "https://resource.manto.unh.edu/9719368"
        ],
        "place_title": "Kyparissia",
        "place_types": [
            "settlement"
        ],
        "representative_latitude": 37.248527,
        "representative_longitude": 21.681159,
        "uri": "https://pleiades.stoa.org/places/570397"
    },
    "https://pleiades.stoa.org/places/570398": {
        "alignments": [
            "https://resource.manto.unh.edu/10149882"
        ],
        "place_title": "Kyphanta",
        "place_types": [
            "defensive-wall",
            "settlement"
        ],
        "representative_latitude": 36.96782341134386,
        "representative_longitude": 22.992051411187912,
        "uri": "https://pleiades.stoa.org/places/570398"
    },
    "https://pleiades.stoa.org/places/570406": {
        "alignments": [
            "https://resource.manto.unh.edu/8254029"
        ],
        "place_title": "Lacedaemon/Laconia",
        "place_types": [
            "region",
            "label"
        ],
        "representative_latitude": 37.04572728513963,
        "representative_longitude": 22.660351165682542,
        "uri": "https://pleiades.stoa.org/places/570406"
    },
    "https://pleiades.stoa.org/places/570409": {
        "alignments": [
            "https://resource.manto.unh.edu/9719452"
        ],
        "place_title": "Ladon/Selleis (river)",
        "place_types": [
            "river"
        ],
        "representative_latitude": 37.606674757095966,
        "representative_longitude": 21.821843915270417,
        "uri": "https://pleiades.stoa.org/places/570409"
    },
    "https://pleiades.stoa.org/places/570410": {
        "alignments": [
            "https://resource.manto.unh.edu/10214600"
        ],
        "place_title": "Lampeia (mountain)",
        "place_types": [
            "mountain",
            "label"
        ],
        "representative_latitude": 37.88485012445083,
        "representative_longitude": 21.802436010655665,
        "uri": "https://pleiades.stoa.org/places/570410"
    },
    "https://pleiades.stoa.org/places/570413": {
        "alignments": [
            "https://resource.manto.unh.edu/10146658"
        ],
        "place_title": "Lapithaion",
        "place_types": [
            "settlement"
        ],
        "representative_latitude": 36.989577,
        "representative_longitude": 22.43012,
        "uri": "https://pleiades.stoa.org/places/570413"
    },
    "https://pleiades.stoa.org/places/570441": {
        "alignments": [
            "https://resource.manto.unh.edu/10113585"
        ],
        "place_title": "Lykaion (mountain)",
        "place_types": [
            "mountain"
        ],
        "representative_latitude": 37.456944,
        "representative_longitude": 21.975,
        "uri": "https://pleiades.stoa.org/places/570441"
    },
    "https://pleiades.stoa.org/places/570449": {
        "alignments": [
            "https://resource.manto.unh.edu/10158613"
        ],
        "place_title": "Mainalion (mountain)",
        "place_types": [
            "mountain"
        ],
        "representative_latitude": 37.655077500000004,
        "representative_longitude": 22.24829935,
        "uri": "https://pleiades.stoa.org/places/570449"
    },
    "https://pleiades.stoa.org/places/570451": {
        "alignments": [
            "https://resource.manto.unh.edu/10137148"
        ],
        "place_title": "Mainalos",
        "place_types": [
            "settlement"
        ],
        "representative_latitude": 37.549491,
        "representative_longitude": 22.265891,
        "uri": "https://pleiades.stoa.org/places/570451"
    },
    "https://pleiades.stoa.org/places/570463": {
        "alignments": [
            "https://resource.manto.unh.edu/9718729"
        ],
        "place_title": "Mases",
        "place_types": [
            "settlement"
        ],
        "representative_latitude": 37.417868,
        "representative_longitude": 23.142191,
        "uri": "https://pleiades.stoa.org/places/570463"
    },
    "https://pleiades.stoa.org/places/570467": {
        "alignments": [
            "https://resource.manto.unh.edu/10214482"
        ],
        "place_title": "Megalopolis",
        "place_types": [
            "settlement",
            "archaeological-site"
        ],
        "representative_latitude": 37.414271210950176,
        "representative_longitude": 22.126396162110474,
        "uri": "https://pleiades.stoa.org/places/570467"
    },
    "https://pleiades.stoa.org/places/570475": {
        "alignments": [
            "https://resource.manto.unh.edu/9358742"
        ],
        "place_title": "Melos (island)",
        "place_types": [
            "island"
        ],
        "representative_latitude": 36.71255875977443,
        "representative_longitude": 24.423218989188282,
        "uri": "https://pleiades.stoa.org/places/570475"
    },
    "https://pleiades.stoa.org/places/570480": {
        "alignments": [
            "https://resource.manto.unh.edu/8254038"
        ],
        "place_title": "Messenia",
        "place_types": [
            "region",
            "label"
        ],
        "representative_latitude": 37.11719301153626,
        "representative_longitude": 21.895855123442068,
        "uri": "https://pleiades.stoa.org/places/570480"
    },
    "https://pleiades.stoa.org/places/570482": {
        "alignments": [
            "https://resource.manto.unh.edu/10214779"
        ],
        "place_title": "Methana/Arsinoe",
        "place_types": [
            "cape",
            "settlement"
        ],
        "representative_latitude": 37.59124070042482,
        "representative_longitude": 23.37409174358772,
        "uri": "https://pleiades.stoa.org/places/570482"
    },
    "https://pleiades.stoa.org/places/570483": {
        "alignments": [
            "https://resource.manto.unh.edu/10113703"
        ],
        "place_title": "Methone/Mothone (Messenian)",
        "place_types": [
            "settlement"
        ],
        "representative_latitude": 36.81435,
        "representative_longitude": 21.704441,
        "uri": "https://pleiades.stoa.org/places/570483"
    },
    "https://pleiades.stoa.org/places/570484": {
        "alignments": [
            "https://resource.manto.unh.edu/10137185"
        ],
        "place_title": "Methydrion",
        "place_types": [
            "ruin",
            "settlement",
            "archaeological-site"
        ],
        "representative_latitude": 37.6359,
        "representative_longitude": 22.1751,
        "uri": "https://pleiades.stoa.org/places/570484"
    },
    "https://pleiades.stoa.org/places/570486": {
        "alignments": [
            "https://resource.manto.unh.edu/10210680"
        ],
        "place_title": "Minoa (island)",
        "place_types": [
            "island"
        ],
        "representative_latitude": 37.96970218619083,
        "representative_longitude": 23.362214037237283,
        "uri": "https://pleiades.stoa.org/places/570486"
    },
    "https://pleiades.stoa.org/places/570495": {
        "alignments": [
            "https://resource.manto.unh.edu/8194357"
        ],
        "place_title": "Myrtoion Mare",
        "place_types": [
            "water-open"
        ],
        "representative_latitude": 37.0,
        "representative_longitude": 24.0,
        "uri": "https://pleiades.stoa.org/places/570495"
    },
    "https://pleiades.stoa.org/places/570501": {
        "alignments": [
            "https://resource.manto.unh.edu/10146499"
        ],
        "place_title": "Nauplia",
        "place_types": [
            "harbor",
            "settlement"
        ],
        "representative_latitude": 37.568123,
        "representative_longitude": 22.808706,
        "uri": "https://pleiades.stoa.org/places/570501"
    },