pid,uri,title,longitude,latitude,description
776,https://pleiades.stoa.org/places/776,Africum Mare,9.333752726837984,37.68713023884798,"An ancient place, cited: BAtlas 1 D3/F3 Africum Mare"
798,https://pleiades.stoa.org/places/798,Anatis/Asana (river),-5.325767734129178,33.02382868844972,"An ancient place, cited: BAtlas 1 B4 Anatis/Asana fl."
1063,https://pleiades.stoa.org/places/1063,Karpates Oros,20.1340595,49.1640319,"An ancient place, cited: BAtlas 1 H1 Karpates Oros"
1119,https://pleiades.stoa.org/places/1119,Mauretania,-2.5,32.5,"An ancient place, cited: BAtlas 1 C4 Mauretania"
1249,https://pleiades.stoa.org/places/1249,Rutubis,-8.510524,33.254782,"An ancient place, cited: BAtlas 1 B4 Rutubis"
1306,https://pleiades.stoa.org/places/1306,Syria,37.5,37.5,"An ancient place, cited: BAtlas 1 K3 Syria"
20387,https://pleiades.stoa.org/places/20387,Åby,16.650029,56.583364,"An ancient place, cited: BAtlas 2 G2 Åby"
20400,https://pleiades.stoa.org/places/20400,"Aukštakiemiai, Palanga, Šernai",21.306626,55.598525,"An ancient place, cited: BAtlas 2 H2 Aukštakiemiai, Palanga, Šernai"
20401,https://pleiades.stoa.org/places/20401,Auteinoi,-7.5,52.5,"An ancient place, cited: BAtlas 2 B3 Auteinoi"
20403,https://pleiades.stoa.org/places/20403,Avaldsnes,5.282008,59.362929,"An ancient place, cited: BAtlas 2 E2 Avaldsnes"
20406,https://pleiades.stoa.org/places/20406,Balline,-8.457122,52.397981,"An ancient place, cited: BAtlas 2 B3 Balline"
20408,https://pleiades.stoa.org/places/20408,Biesenbrow,14.014382,53.119531,"An ancient place, cited: BAtlas 2 F3 Biesenbrow"
20410,https://pleiades.stoa.org/places/20410,Biskupin,17.744919,52.787574,"An ancient place, cited: BAtlas 2 G3 Biskupin"
20411,https://pleiades.stoa.org/places/20411,Bjergelide,9.693632,55.769336,"An ancient place, cited: BAtlas 2 E2 Bjergelide"
20412,https://pleiades.stoa.org/places/20412,Björnhovda,16.515654,56.655797,"An ancient place, cited: BAtlas 2 G2 Björnhovda"
20414,https://pleiades.stoa.org/places/20414,Bogaczewo-Kula,21.746,53.965714,"An ancient place, cited: BAtlas 2 H3 Bogaczewo-Kula"
20416,https://pleiades.stoa.org/places/20416,Botes,18.574342,57.289788,"An ancient place, cited: BAtlas 2 G2 Botes"
20421,https://pleiades.stoa.org/places/20421,Byrsted,9.682864,56.91025,"An ancient place, cited: BAtlas 2 E2 Byrsted"
20430,https://pleiades.stoa.org/places/20430,Chesinos (river),24.137134352399137,56.94950997700292,"An ancient place, cited: BAtlas 2 H2 Chesinos fl."
20431,https://pleiades.stoa.org/places/20431,Chronos (river),21.096891431549796,54.65344051381412,"An ancient place, cited: BAtlas 2 H3 Chronos fl."
20432,https://pleiades.stoa.org/places/20432,Ciepłe,18.839981,53.852747,"An ancient place, cited: BAtlas 2 G3 Ciepłe"
20442,https://pleiades.stoa.org/places/20442,‘Dabrona’ (river),-8.882755812722865,51.8766510301913,"An ancient place, cited: BAtlas 2 B3 ‘Dabrona’ fl."
20443,https://pleiades.stoa.org/places/20443,Damme,14.019272,53.297566,"An ancient place, cited: BAtlas 2 F3 Damme"
20446,https://pleiades.stoa.org/places/20446,Dębczyno,16.000434,53.980717,"An ancient place, cited: BAtlas 2 G3 Dębczyno"
20451,https://pleiades.stoa.org/places/20451,Dytikos Okeanos,-7.5,57.5,"An ancient place, cited: BAtlas 2 B2 Dytikos Okeanos"
20454,https://pleiades.stoa.org/places/20454,Eketorp,16.486173035069264,56.29554627790624,"An ancient place, cited: BAtlas 2 G2 Eketorp"
20455,https://pleiades.stoa.org/places/20455,"Enekrogen, Kannikegård, Slamrebjerg, Slusegård",15.056726,55.078983,"An ancient place, cited: BAtlas 2 G2 Enekrogen, Kannikegård, Slamrebjerg, Slusegård"
20456,https://pleiades.stoa.org/places/20456,Erdinoi,-7.5,52.5,"An ancient place, cited: BAtlas 2 B3 Erdinoi"
20458,https://pleiades.stoa.org/places/20458,Farmen,11.310561,60.896578,"An ancient place, cited: BAtlas 2 F1 Farmen"
20462,https://pleiades.stoa.org/places/20462,"Frombork, Młoteczno, Trąbki Małe",19.680159,54.357363,"An ancient place, cited: BAtlas 2 G3 Frombork, Młoteczno, Trąbki Małe"
20464,https://pleiades.stoa.org/places/20464,Galindai,22.5,52.5,"An ancient place, cited: BAtlas 2 H3 Galindai"
20466,https://pleiades.stoa.org/places/20466,Ganganoi,-7.5,52.5,"An ancient place, cited: BAtlas 2 B3 Ganganoi"
20468,https://pleiades.stoa.org/places/20468,Germania,7.5,52.5,"An ancient place, cited: BAtlas 2 E3 Germania"
20470,https://pleiades.stoa.org/places/20470,Gödåker,17.672818,60.052879,"An ancient place, cited: BAtlas 2 G2 Gödåker"
20471,https://pleiades.stoa.org/places/20471,Gorszewice,16.529629,52.518723,"An ancient place, cited: BAtlas 2 G3 Gorszewice"
20473,https://pleiades.stoa.org/places/20473,Gothiscandza,17.5,52.5,"An ancient place, cited: BAtlas 2 G3 Gothiscandza"
20474,https://pleiades.stoa.org/places/20474,Gronowo,15.952924,53.59699,"An ancient place, cited: BAtlas 2 G3 Gronowo"
20475,https://pleiades.stoa.org/places/20475,Grudziądz-Rządz,18.753566,53.483736,"An ancient place, cited: BAtlas 2 G3 Grudziądz-Rządz"
20477,https://pleiades.stoa.org/places/20477,Gundestrup,9.562383,56.814072,"An ancient place, cited: BAtlas 2 E2 Gundestrup"
20482,https://pleiades.stoa.org/places/20482,Havor,18.297014,57.10587,"An ancient place, cited: BAtlas 2 G2 Havor"
20483,https://pleiades.stoa.org/places/20483,Hedegård,9.304501,55.953651,"An ancient place, cited: BAtlas 2 E2 Hedegård"
20484,https://pleiades.stoa.org/places/20484,Helgö,17.6783195,59.278707,"An ancient place, cited: BAtlas 2 G2 Helgö"
20488,https://pleiades.stoa.org/places/20488,Hohendorf,13.731282,54.02678,"An ancient place, cited: BAtlas 2 F3 Hohendorf"
20492,https://pleiades.stoa.org/places/20492,Illerup Ådal,9.938972,56.053145,"An ancient place, cited: BAtlas 2 E2 Illerup Ådal"
20494,https://pleiades.stoa.org/places/20494,Iouernoi,-7.5,52.5,"An ancient place, cited: BAtlas 2 B3 Iouernoi"
20497,https://pleiades.stoa.org/places/20497,[Iutae],7.5,57.5,"An ancient place, cited: BAtlas 2 E2 [Iutae]"
20501,https://pleiades.stoa.org/places/20501,Kablow,13.720845,52.295946,"An ancient place, cited: BAtlas 2 F3 Kablow"
20503,https://pleiades.stoa.org/places/20503,Känne,18.492355,57.176286,"An ancient place, cited: BAtlas 2 G2 Känne"
20505,https://pleiades.stoa.org/places/20505,Karbones,22.5,57.5,"An ancient place, cited: BAtlas 2 H2 Karbones"
20506,https://pleiades.stoa.org/places/20506,Karlino,15.877106,54.033665,"An ancient place, cited: BAtlas 2 G3 Karlino"
20508,https://pleiades.stoa.org/places/20508,Kaukoi,-7.5,52.5,"An ancient place, cited: BAtlas 2 B3 Kaukoi"
20509,https://pleiades.stoa.org/places/20509,Kirkebakkegård,12.276978,55.845907,"An ancient place, cited: BAtlas 2 F2 Kirkebakkegård"
20510,https://pleiades.stoa.org/places/20510,Klein Köris,13.688226,52.1677,"An ancient place, cited: BAtlas 2 F3 Klein Köris"
20511,https://pleiades.stoa.org/places/20511,Konarzew,19.483389,52.027884,"An ancient place, cited: BAtlas 2 G3 Konarzew"
20512,https://pleiades.stoa.org/places/20512,Kotelnikovo,22.028049,55.038499,"An ancient place, cited: BAtlas 2 H3 Kotelnikovo"
20513,https://pleiades.stoa.org/places/20513,Kovrovo,20.402099,54.909338,"An ancient place, cited: BAtlas 2 H3 Kovrovo"
20515,https://pleiades.stoa.org/places/20515,Krusza Zamkowa,18.25851,52.739998,"An ancient place, cited: BAtlas 2 G3 Krusza Zamkowa"
20516,https://pleiades.stoa.org/places/20516,Kungsgården,16.948133,61.36389,"An ancient place, cited: BAtlas 2 G1 Kungsgården"
20517,https://pleiades.stoa.org/places/20517,Kurmaičiai,21.272774,55.938931,"An ancient place, cited: BAtlas 2 H2 Kurmaičiai"
20519,https://pleiades.stoa.org/places/20519,Lachmirowice,18.319454,52.60422,"An ancient place, cited: BAtlas 2 G3 Lachmirowice"
20521,https://pleiades.stoa.org/places/20521,Łęg Piekarski,18.519463,51.893773,"An ancient place, cited: BAtlas 2 G3 Łęg Piekarski"
20522,https://pleiades.stoa.org/places/20522,Leśno,17.699655,53.949803,"An ancient place, cited: BAtlas 2 G3 Leśno"
20525,https://pleiades.stoa.org/places/20525,Lilla Jored,11.496412,58.435623,"An ancient place, cited: BAtlas 2 F2 Lilla Jored"
20526,https://pleiades.stoa.org/places/20526,Lilla Sojvide,18.500164,57.483328,"An ancient place, cited: BAtlas 2 G2 Lilla Sojvide"
20530,https://pleiades.stoa.org/places/20530,Łubiana,17.870365,54.111638,"An ancient place, cited: BAtlas 2 G3 Łubiana"
20531,https://pleiades.stoa.org/places/20531,Lubieszewo,17.146497,54.0552715,"An ancient place, cited: BAtlas 2 G3 Lubieszewo"
20533,https://pleiades.stoa.org/places/20533,Lugii,16.7764,51.527063,"An ancient place, cited: BAtlas 2 G3 Lugii"
20535,https://pleiades.stoa.org/places/20535,Lunde,6.76825,58.079711,"An ancient place, cited: BAtlas 2 E2 Lunde"
20539,https://pleiades.stoa.org/places/20539,‘Magnatai’,-7.5,52.5,"An ancient place, cited: BAtlas 2 B3 ‘Magnatai’"
20540,https://pleiades.stoa.org/places/20540,Malbork-Wielbark,19.017787,54.015643,"An ancient place, cited: BAtlas 2 G3 Malbork-Wielbark"
20550,https://pleiades.stoa.org/places/20550,Morshanskoe,20.510445,54.856848,"An ancient place, cited: BAtlas 2 H3 Morshanskoe"
20553,https://pleiades.stoa.org/places/20553,Mrzezino,18.429722,54.652959,"An ancient place, cited: BAtlas 2 G3 Mrzezino"
20556,https://pleiades.stoa.org/places/20556,Netta,22.896383,53.784191,"An ancient place, cited: BAtlas 2 H3 Netta"
20560,https://pleiades.stoa.org/places/20560,Nyrup,11.605386,55.933077,"An ancient place, cited: BAtlas 2 F2 Nyrup"
20565,https://pleiades.stoa.org/places/20565,Öremölla,13.572631,55.418396,"An ancient place, cited: BAtlas 2 F2 Öremölla"
20566,https://pleiades.stoa.org/places/20566,Osioi?,22.5,57.5,"An ancient place, cited: BAtlas 2 H2 Osioi?"
20568,https://pleiades.stoa.org/places/20568,Ouenniknioi,-7.5,52.5,"An ancient place, cited: BAtlas 2 B3 Ouenniknioi"
20572,https://pleiades.stoa.org/places/20572,Øvre Stabu,10.843991,60.66076,"An ancient place, cited: BAtlas 2 F1 Øvre Stabu"
20576,https://pleiades.stoa.org/places/20576,Piła,16.7390964,53.1493864,"An ancient place, cited: BAtlas 2 G3 Piła"
20578,https://pleiades.stoa.org/places/20578,Povarovka,20.009176,54.835867,"An ancient place, cited: BAtlas 2 H3 Povarovka"
20580,https://pleiades.stoa.org/places/20580,Pruszcz Gdański,18.636168,54.26215,"An ancient place, cited: BAtlas 2 G3 Pruszcz Gdański"
20586,https://pleiades.stoa.org/places/20586,Roudon (river),24.37511417148308,54.19352331311013,"An ancient place, cited: BAtlas 2 H2 Roudon fl."
20593,https://pleiades.stoa.org/places/20593,Sargenai,23.885832,54.948346,"An ancient place, cited: BAtlas 2 H2 Sargenai"
20599,https://pleiades.stoa.org/places/20599,Sejlflod,10.100638,56.988693,"An ancient place, cited: BAtlas 2 F2 Sejlflod"
20603,https://pleiades.stoa.org/places/20603,Sindarve,18.387163,57.202552,"An ancient place, cited: BAtlas 2 G2 Sindarve"
20605,https://pleiades.stoa.org/places/20605,Skedemosse,16.7606,56.8398,"An ancient place, cited: BAtlas 2 G2 Skedemosse"
20608,https://pleiades.stoa.org/places/20608,Smørenge,14.859981,55.075621,"An ancient place, cited: BAtlas 2 F2 Smørenge"
20609,https://pleiades.stoa.org/places/20609,Snartemo,7.214408,58.333635,"An ancient place, cited: BAtlas 2 E2 Snartemo"
20610,https://pleiades.stoa.org/places/20610,Soldatergård,15.07536,54.994366,"An ancient place, cited: BAtlas 2 G2 Soldatergård"
20611,https://pleiades.stoa.org/places/20611,Sörby-Störlinge,16.642655,56.745534,"An ancient place, cited: BAtlas 2 G2 Sörby-Störlinge"
20612,https://pleiades.stoa.org/places/20612,Sorte Muld,15.077045,55.099878,"An ancient place, cited: BAtlas 2 G2 Sorte Muld"
20613,https://pleiades.stoa.org/places/20613,Soudinoi,22.5,52.5,"An ancient place, cited: BAtlas 2 H3 Soudinoi"
20615,https://pleiades.stoa.org/places/20615,Store Kongshøj,8.723688,56.796973,"An ancient place, cited: BAtlas 2 E2 Store Kongshøj"
20616,https://pleiades.stoa.org/places/20616,Store-Dal,11.002715,59.25387,"An ancient place, cited: BAtlas 2 F2 Store-Dal"
20620,https://pleiades.stoa.org/places/20620,Szwajcaria,22.947561,54.137798,"An ancient place, cited: BAtlas 2 H3 Szwajcaria"
20625,https://pleiades.stoa.org/places/20625,Tourountes? (river),22.5,57.5,"An ancient place, cited: BAtlas 2 H2 Tourountes? fl."
20628,https://pleiades.stoa.org/places/20628,Tuna,16.527934,59.626101,"An ancient place, cited: BAtlas 2 G2 Tuna"
20633,https://pleiades.stoa.org/places/20633,Vallhagar,18.209431,57.333805,"An ancient place, cited: BAtlas 2 G2 Vallhagar"
20634,https://pleiades.stoa.org/places/20634,Vandali,19.416275638511323,50.08671889124602,"An ancient place, cited: BAtlas 2 G3 Vandali"
20636,https://pleiades.stoa.org/places/20636,Vidivarii,17.5,52.5,"An ancient place, cited: BAtlas 2 G3 Vidivarii"
20641,https://pleiades.stoa.org/places/20641,Vrangstrup,9.884844,56.317786,"An ancient place, cited: BAtlas 2 E2 Vrangstrup"
20643,https://pleiades.stoa.org/places/20643,Węsiory,17.84493,54.231485,"An ancient place, cited: BAtlas 2 G3 Węsiory"
20645,https://pleiades.stoa.org/places/20645,Wesółki,18.331842,51.958656,"An ancient place, cited: BAtlas 2 G3 Wesółki"
20646,https://pleiades.stoa.org/places/20646,Wilhelmsaue,14.346612,52.66284,"An ancient place, cited: BAtlas 2 F3 Wilhelmsaue"
20647,https://pleiades.stoa.org/places/20647,Witaszkowo,14.770749,51.864705,"An ancient place, cited: BAtlas 2 F3 Witaszkowo"
20648,https://pleiades.stoa.org/places/20648,Wyszembork,21.359676,53.929002,"An ancient place, cited: BAtlas 2 H3 Wyszembork"
20650,https://pleiades.stoa.org/places/20650,Zgliczyn-Pobodzy,20.026425,52.950316,"An ancient place, cited: BAtlas 2 H3 Zgliczyn-Pobodzy"
21897,https://pleiades.stoa.org/places/21897,Ausoba (river),,,"An ancient place, cited: BAtlas 2 unlocated Ausoba"
21901,https://pleiades.stoa.org/places/21901,Dour (river),,,"An ancient place, cited: BAtlas 2 unlocated Dour fl."
21903,https://pleiades.stoa.org/places/21903,Iernos (river),,,"An ancient place, cited: BAtlas 2 unlocated Iernos fl."
21904,https://pleiades.stoa.org/places/21904,Iouernis,,,"An ancient place, cited: BAtlas 2 unlocated Iouernis"
21907,https://pleiades.stoa.org/places/21907,Luceni,,,"An ancient place, cited: BAtlas 2 unlocated Luceni"
21909,https://pleiades.stoa.org/places/21909,Magnata,,,"An ancient place, cited: BAtlas 2 unlocated Magnata"
21910,https://pleiades.stoa.org/places/21910,Makolikon,,,"An ancient place, cited: BAtlas 2 unlocated Makolikon"
21912,https://pleiades.stoa.org/places/21912,Notion Akron,,,"An ancient place, cited: BAtlas 2 unlocated Notion Akron"
21915,https://pleiades.stoa.org/places/21915,Ouenniknion Akron,,,"An ancient place, cited: BAtlas 2 unlocated Ouenniknion Akron"
21916,https://pleiades.stoa.org/places/21916,Ousdiai,,,"An ancient place, cited: BAtlas 2 unlocated Ousdiai"
21918,https://pleiades.stoa.org/places/21918,Raiba,,,"An ancient place, cited: BAtlas 2 unlocated Raiba"
21919,https://pleiades.stoa.org/places/21919,Raouios (river),,,"An ancient place, cited: BAtlas 2 unlocated Raouios fl."
21920,https://pleiades.stoa.org/places/21920,Regia,,,"An ancient place, cited: BAtlas 2 unlocated Regia"
29457,https://pleiades.stoa.org/places/29457,Alexandria,62.16410466666667,34.331043666666666,"An ancient place, cited: BAtlas 3 H3 Alexandria"
29461,https://pleiades.stoa.org/places/29461,Amata,37.239274,31.608198,"An ancient place, cited: BAtlas 3 C3 Amata"
29482,https://pleiades.stoa.org/places/29482,Ari(m)aspai,62.050647063501486,30.446008917079386,"An ancient place, cited: BAtlas 3 H3 Ari(m)aspai"
29503,https://pleiades.stoa.org/places/29503,Barna,62.331697,25.227074,"An ancient place, cited: BAtlas 3 H4 Barna"
29525,https://pleiades.stoa.org/places/29525,Chatracharta,63.544933,39.06704,"An ancient place, cited: BAtlas 3 H2 Chatracharta"
29542,https://pleiades.stoa.org/places/29542,Darabgird,54.544772,28.755075,"An ancient place, cited: BAtlas 3 F4 Darabgird"
29569,https://pleiades.stoa.org/places/29569,Garm-Kerman,57.29478759329696,27.680281105534036,"An ancient place, cited: BAtlas 3 G4 Garm-Kerman"
29617,https://pleiades.stoa.org/places/29617,Jumeirah,55.24176465014546,25.196824295441,"An ancient place, cited: BAtlas 3 G4 Jumeirah"
29625,https://pleiades.stoa.org/places/29625,Karkuya/‘Korok’?,61.50457,31.1289975,"An ancient place, cited: BAtlas 3 H3 Karkuya/‘Korok’?"
29626,https://pleiades.stoa.org/places/29626,Karmana,57.743416,28.665408,"An ancient place, cited: BAtlas 3 G4 Karmana"
29633,https://pleiades.stoa.org/places/29633,Korodamon? Akron,59.7982879,22.533032,"An ancient place, cited: BAtlas 3 G5 Korodamon? Akron"
29635,https://pleiades.stoa.org/places/29635,Kryptos Limen?,58.592587,23.612619,"An ancient place, cited: BAtlas 3 G5 Kryptos Limen?"
29636,https://pleiades.stoa.org/places/29636,Kuh-i Khwaja,61.449416,30.582929,"An ancient place, cited: BAtlas 3 H3 Kuh-i Khwaja"
29652,https://pleiades.stoa.org/places/29652,Macoraba,39.815421,21.426804,"An ancient place, cited: BAtlas 3 C5 Macoraba"
29656,https://pleiades.stoa.org/places/29656,Maka/Maketa,57.5,27.5,"An ancient place, cited: BAtlas 3 G4 Maka/Maketa"
29686,https://pleiades.stoa.org/places/29686,Niriz/Narezzash?,54.319643,29.193851,"An ancient place, cited: BAtlas 3 F4 Niriz/Narezzash?"
29718,https://pleiades.stoa.org/places/29718,Phra(da)/Prophthasia/Frakh-kar-Peroz,62.111652874372794,32.382119010923255,"An ancient place, cited: BAtlas 3 H3 Phra(da)/Prophthasia/Frakh-kar-Peroz"
29729,https://pleiades.stoa.org/places/29729,Qal'a-i Sam,61.565115,30.448068,"An ancient place, cited: BAtlas 3 H3 Qal'a-i Sam"
29744,https://pleiades.stoa.org/places/29744,Sard-Kerman,57.5,27.5,"An ancient place, cited: BAtlas 3 G4 Sard-Kerman"
29748,https://pleiades.stoa.org/places/29748,Sar-o Tar,61.66014,30.551217,"An ancient place, cited: BAtlas 3 H3 Sar-o Tar"
29755,https://pleiades.stoa.org/places/29755,Shahristan/Zarang?,61.6263685,30.962826999999997,"An ancient place, cited: BAtlas 3 H3 Shahristan/Zarang?"
29756,https://pleiades.stoa.org/places/29756,Shiragan/Sirjan,55.668645,29.436543,"An ancient place, cited: BAtlas 3 G4 Shiragan/Sirjan"
29762,https://pleiades.stoa.org/places/29762,[Siraf],52.33683,27.670345,"An ancient place, cited: BAtlas 3 F4 [Siraf]"
29766,https://pleiades.stoa.org/places/29766,[Sohar],56.731518,24.377793,"An ancient place, cited: BAtlas 3 G5 [Sohar]"
29781,https://pleiades.stoa.org/places/29781,Tell-i Zohak/Pasa?/Bashiyan?,53.642646,28.931476,"An ancient place, cited: BAtlas 3 F4 Tell-i Zohak/Pasa?/Bashiyan?"
29783,https://pleiades.stoa.org/places/29783,Tepe Yahya,56.8675,28.3309,"An ancient place, cited: BAtlas 3 G4 Tepe Yahya"
29799,https://pleiades.stoa.org/places/29799,Valashgerd,57.25407,27.862649,"An ancient place, cited: BAtlas 3 G4 Valashgerd"
29800,https://pleiades.stoa.org/places/29800,Varakhsha,64.07319452562535,39.863806982347356,"An ancient place, cited: BAtlas 3 H2 Varakhsha"
29802,https://pleiades.stoa.org/places/29802,Veh Ardashir/[Bardasir]/[Govasir],57.068581,30.273015,"An ancient place, cited: BAtlas 3 G3 Veh Ardashir/[Bardasir]/[Govasir]"
29806,https://pleiades.stoa.org/places/29806,Wadi Samad,58.096865,22.705632,"An ancient place, cited: BAtlas 3 G5 Wadi Samad"
29807,https://pleiades.stoa.org/places/29807,Wadi Sirhan,37.85758408373678,31.071650489148283,"An ancient place, cited: BAtlas 3 C3 Wadi Sirhan"
29811,https://pleiades.stoa.org/places/29811,Yazd,54.35877,31.892187,"An ancient place, cited: BAtlas 3 F3 Yazd"
30203,https://pleiades.stoa.org/places/30203,Achindana (river),,,"An ancient place, cited: BAtlas 3 unlocated Achindana fl."
30204,https://pleiades.stoa.org/places/30204,Agris,,,"An ancient place, cited: BAtlas 3 unlocated Agris"
30207,https://pleiades.stoa.org/places/30207,Aradarum/Hardea/Ardea,57.5,27.5,"An ancient place, cited: BAtlas 3 unlocated Aradarum/(H)Ardea"
30209,https://pleiades.stoa.org/places/30209,Archedotis/Arciotis,,,"An ancient place, cited: BAtlas 3 unlocated Archedotis/Arciotis"
30211,https://pleiades.stoa.org/places/30211,Artacoana/Artakauna,,,"An ancient place, cited: BAtlas 3 unlocated Artacoana/Artakauna"
30213,https://pleiades.stoa.org/places/30213,Bacinora,,,"An ancient place, cited: BAtlas 3 unlocated ‘Bacinora’"
30214,https://pleiades.stoa.org/places/30214,Badara/Balara,,,"An ancient place, cited: BAtlas 3 unlocated Badara/Balara"
30215,https://pleiades.stoa.org/places/30215,Badgis,,,"An ancient place, cited: BAtlas 3 unlocated Badgis"
30216,https://pleiades.stoa.org/places/30216,Badis,,,"An ancient place, cited: BAtlas 3 unlocated Badis"
30217,https://pleiades.stoa.org/places/30217,Bageia Pr.,,,"An ancient place, cited: BAtlas 3 unlocated Bageia Pr."
30221,https://pleiades.stoa.org/places/30221,Caumatis/Kanate/Kanthatis,63.75739217266097,26.59460467890728,"An ancient place, cited: BAtlas 3 unlocated Caumatis/Kanate/Kanthatis"
30222,https://pleiades.stoa.org/places/30222,Cetrora,,,"An ancient place, cited: BAtlas 3 unlocated ‘Cetrora’"
30226,https://pleiades.stoa.org/places/30226,Dagaseira,,,"An ancient place, cited: BAtlas 3 unlocated Dagaseira"
30227,https://pleiades.stoa.org/places/30227,Daras,,,"An ancient place, cited: BAtlas 3 unlocated Daras fl."
30228,https://pleiades.stoa.org/places/30228,Dendrobosa,,,"An ancient place, cited: BAtlas 3 unlocated Dendrobosa"
30229,https://pleiades.stoa.org/places/30229,Derane Billa/Derenobilla,,,"An ancient place, cited: BAtlas 3 unlocated Derane Billa/Derenobilla"
30231,https://pleiades.stoa.org/places/30231,Guzeran-Ardashir/Kujaran,,,"An ancient place, cited: BAtlas 3 unlocated Guzeran-Ardashir/[Kujaran]"
30234,https://pleiades.stoa.org/places/30234,Hictanis/Hyktanis,,,"An ancient place, cited: BAtlas 3 unlocated Hictanis/Hyktanis fl."
30236,https://pleiades.stoa.org/places/30236,Kanasida,,,"An ancient place, cited: BAtlas 3 unlocated Kanasida"
30239,https://pleiades.stoa.org/places/30239,Karpella Pr.,,,"An ancient place, cited: BAtlas 3 unlocated Karpella Pr."
30240,https://pleiades.stoa.org/places/30240,Kathraps,,,"An ancient place, cited: BAtlas 3 unlocated Kathraps fl."
30241,https://pleiades.stoa.org/places/30241,Khwash/Qash,,,"An ancient place, cited: BAtlas 3 unlocated Khwash/Qash"
30242,https://pleiades.stoa.org/places/30242,Kophanta/Kophas,,,"An ancient place, cited: BAtlas 3 unlocated Kophanta/Kophas"
30243,https://pleiades.stoa.org/places/30243,Kophanta,,,"An ancient place, cited: BAtlas 3 unlocated Kophanta (1)"
30245,https://pleiades.stoa.org/places/30245,Kyiza,,,"An ancient place, cited: BAtlas 3 unlocated Kyiza"
30247,https://pleiades.stoa.org/places/30247,Nih,,,"An ancient place, cited: BAtlas 3 unlocated Nih"
30250,https://pleiades.stoa.org/places/30250,Omiza,,,"An ancient place, cited: BAtlas 3 unlocated Omiza"
30254,https://pleiades.stoa.org/places/30254,Pantyene,,,"An ancient place, cited: BAtlas 3 unlocated Pantyene"
30255,https://pleiades.stoa.org/places/30255,Parikane,,,"An ancient place, cited: BAtlas 3 unlocated Parikane"
30257,https://pleiades.stoa.org/places/30257,Portospana,,,"An ancient place, cited: BAtlas 3 unlocated Portospana"
30258,https://pleiades.stoa.org/places/30258,Poura,,,"An ancient place, cited: BAtlas 3 unlocated Poura"
30259,https://pleiades.stoa.org/places/30259,Pushang,,,"An ancient place, cited: BAtlas 3 unlocated Pushang"
30263,https://pleiades.stoa.org/places/30263,Rogana,,,"An ancient place, cited: BAtlas 3 unlocated Rogana"
30265,https://pleiades.stoa.org/places/30265,Sabis,,,"An ancient place, cited: BAtlas 3 unlocated Sabis"
30266,https://pleiades.stoa.org/places/30266,Sabis,,,"An ancient place, cited: BAtlas 3 unlocated Sabis fl."
30267,https://pleiades.stoa.org/places/30267,Saganos,,,"An ancient place, cited: BAtlas 3 unlocated Saganos fl."
30268,https://pleiades.stoa.org/places/30268,Salaros,,,"An ancient place, cited: BAtlas 3 unlocated Salaros fl."
30269,https://pleiades.stoa.org/places/30269,Salmous,,,"An ancient place, cited: BAtlas 3 unlocated Salmous"
30271,https://pleiades.stoa.org/places/30271,Sidodone,,,"An ancient place, cited: BAtlas 3 unlocated Sidodone"
30272,https://pleiades.stoa.org/places/30272,Sigara/Sigana,,,"An ancient place, cited: BAtlas 3 unlocated Sigara/Sigana"
30275,https://pleiades.stoa.org/places/30275,Talmena,,,"An ancient place, cited: BAtlas 3 unlocated Talmena"
30276,https://pleiades.stoa.org/places/30276,Tazora,,,"An ancient place, cited: BAtlas 3 unlocated ‘Tazora’"
30277,https://pleiades.stoa.org/places/30277,Teisa,,,"An ancient place, cited: BAtlas 3 unlocated Teisa"
30280,https://pleiades.stoa.org/places/30280,Zorambos,,,"An ancient place, cited: BAtlas 3 unlocated Zorambos fl."
39262,https://pleiades.stoa.org/places/39262,Abasenoi,44.450797782321644,13.95167219952595,"An ancient place, cited: BAtlas 4 B3 Abasenoi"
39263,https://pleiades.stoa.org/places/39263,Abisama,46.509908,13.538636,"An ancient place, cited: BAtlas 4 C3 Abisama"
39265,https://pleiades.stoa.org/places/39265,Achoma,43.841134,13.817324,"An ancient place, cited: BAtlas 4 B3 Achoma"
39266,https://pleiades.stoa.org/places/39266,Achomai,43.21326306143294,14.316246223695245,"An ancient place, cited: BAtlas 4 B3 Achomai"
39268,https://pleiades.stoa.org/places/39268,Adana,43.987875,13.958528,"An ancient place, cited: BAtlas 4 B3 Adana"
39269,https://pleiades.stoa.org/places/39269,Adane/Athenae/Eudaimon Arabia,45.038928,12.771651,"An ancient place, cited: BAtlas 4 C3 Adane/Athenae/Eudaimon Arabia"
39270,https://pleiades.stoa.org/places/39270,Adedou Kome,42.948026,14.798024,"An ancient place, cited: BAtlas 4 B3 Adedou Kome"
39275,https://pleiades.stoa.org/places/39275,Agathokleous Ins.,52.2773862,12.1797995,"An ancient place, cited: BAtlas 4 D3 Agathokleous Ins."
39276,https://pleiades.stoa.org/places/39276,Agraei,49.05945142056254,15.018868681529256,"An ancient place, cited: BAtlas 4 C3 Agraei"
39277,https://pleiades.stoa.org/places/39277,Ailou Kome,43.376606,13.871006,"An ancient place, cited: BAtlas 4 B3 Ailou Kome"
39280,https://pleiades.stoa.org/places/39280,Akme,42.841909,16.468331,"An ancient place, cited: BAtlas 4 B2 Akme"
39282,https://pleiades.stoa.org/places/39282,Amaitaei,44.096212547858165,14.678498015872199,"An ancient place, cited: BAtlas 4 B3 Amaitaei"
39285,https://pleiades.stoa.org/places/39285,Amnestum,44.793055,16.699491,"An ancient place, cited: BAtlas 4 B2 Amnestum"
39287,https://pleiades.stoa.org/places/39287,Anchitai,44.008368551190124,13.871318840312577,"An ancient place, cited: BAtlas 4 B3 Anchitai"
39292,https://pleiades.stoa.org/places/39292,Are,48.7335031109817,15.941401312396055,"An ancient place, cited: BAtlas 4 C2 Are"
39293,https://pleiades.stoa.org/places/39293,Aromata Emporion,50.948956,11.825923,"An ancient place, cited: BAtlas 4 D3 Aromata Emporion"
39295,https://pleiades.stoa.org/places/39295,Arsinoe,43.251399,12.711748,"An ancient place, cited: BAtlas 4 B3 Arsinoe"
39297,https://pleiades.stoa.org/places/39297,Askitai,57.5,17.5,"An ancient place, cited: BAtlas 4 E2 Askitai"
39300,https://pleiades.stoa.org/places/39300,Athroula/Laththa,44.8045596,16.0186886,"An ancient place, cited: BAtlas 4 B2 Athroula/Laththa"
39301,https://pleiades.stoa.org/places/39301,Ausara,52.098032,16.33209,"An ancient place, cited: BAtlas 4 D2 Ausara"
39302,https://pleiades.stoa.org/places/39302,Ausaritis,48.36389813829109,15.54107903463603,"An ancient place, cited: BAtlas 4 C3 Ausaritis"
39304,https://pleiades.stoa.org/places/39304,Aualites,43.098299,12.242145,"An ancient place, cited: BAtlas 4 B3 Aualites"
39310,https://pleiades.stoa.org/places/39310,Bachylitae,44.11660141428049,13.968002102532576,"An ancient place, cited: BAtlas 4 B3 Bachylitae"
39311,https://pleiades.stoa.org/places/39311,Badeo,42.980529,15.220499,"An ancient place, cited: BAtlas 4 B2 Badeo"
39312,https://pleiades.stoa.org/places/39312,Baitios,42.819149,16.56401,"An ancient place, cited: BAtlas 4 B2 Baitios"
39314,https://pleiades.stoa.org/places/39314,Bosara,52.5,17.5,"An ancient place, cited: BAtlas 4 D2 Bosara"
39317,https://pleiades.stoa.org/places/39317,Calingi,43.57633266492425,16.431060098990848,"An ancient place, cited: BAtlas 4 B2 Calingi"
39321,https://pleiades.stoa.org/places/39321,Canon,47.5,12.5,"An ancient place, cited: BAtlas 4 C3 Canon"
39322,https://pleiades.stoa.org/places/39322,Cardava,44.705389,16.743842,"An ancient place, cited: BAtlas 4 B2 Cardava"
39323,https://pleiades.stoa.org/places/39323,Cariati,45.15010315,19.78331795,"An ancient place, cited: BAtlas 4 C2 Cariati"
39324,https://pleiades.stoa.org/places/39324,Caripeta,45.514,14.893,"An ancient place, cited: BAtlas 4 C3 Caripeta"
39329,https://pleiades.stoa.org/places/39329,C(h)armei,44.980674813283656,16.77516632582897,"An ancient place, cited: BAtlas 4 B2 C(h)armei"
39330,https://pleiades.stoa.org/places/39330,Chelonitis (island),42.17834771907295,15.055391241472938,"An ancient place, cited: BAtlas 4 B2 Chelonitis Ins."
39331,https://pleiades.stoa.org/places/39331,Coralis? (river),42.5,17.5,"An ancient place, cited: BAtlas 4 B2 Coralis? fl."
39333,https://pleiades.stoa.org/places/39333,Dacharenoi,43.97591949197233,17.89562028954487,"An ancient place, cited: BAtlas 4 B2 Dacharenoi"
39336,https://pleiades.stoa.org/places/39336,Dela,46.254233,14.104997,"An ancient place, cited: BAtlas 4 C3 Dela"
39340,https://pleiades.stoa.org/places/39340,Elephas Pr.,50.632696,11.939418,"An ancient place, cited: BAtlas 4 D3 Elephas Pr."
39343,https://pleiades.stoa.org/places/39343,Ethraui,43.58695290757988,17.006801751362506,"An ancient place, cited: BAtlas 4 B2 Ethraui"
39347,https://pleiades.stoa.org/places/39347,Gedranitae,42.5,12.5,"An ancient place, cited: BAtlas 4 B3 Gedranitae?"
39349,https://pleiades.stoa.org/places/39349,Hippalon Pelagos,52.5,12.5,"An ancient place, cited: BAtlas 4 D3 Hippalon Pelagos"
39353,https://pleiades.stoa.org/places/39353,Ioula,48.568626,16.249392,"An ancient place, cited: BAtlas 4 C2 Ioula"
39355,https://pleiades.stoa.org/places/39355,Kane,48.23595376156997,13.992228265045917,"An ancient place, cited: BAtlas 4 C3 Kane"
39356,https://pleiades.stoa.org/places/39356,Karbai,43.474771187498845,14.772873612131956,"An ancient place, cited: BAtlas 4 B2 Karbai"
39357,https://pleiades.stoa.org/places/39357,Karna,44.814,16.128,"An ancient place, cited: BAtlas 4 B2 Karna"
39363,https://pleiades.stoa.org/places/39363,Koloe,39.552787,14.709112,"An ancient place, cited: BAtlas 4 A3 Koloe"
39365,https://pleiades.stoa.org/places/39365,Labaetia,44.558041,16.5545,"An ancient place, cited: BAtlas 4 B2 Labaetia"
39366,https://pleiades.stoa.org/places/39366,Lathinat,47.4289616667184,14.440188695175452,"An ancient place, cited: BAtlas 4 C3 Lathinat"
39368,https://pleiades.stoa.org/places/39368,Laupas,43.445883,14.175369,"An ancient place, cited: BAtlas 4 B3 Laupas"
39369,https://pleiades.stoa.org/places/39369,Lexianae,47.22303019928653,14.92818231789456,"An ancient place, cited: BAtlas 4 C3 Lexianae"
39370,https://pleiades.stoa.org/places/39370,Libanophoros Chora,53.40736604984976,17.41088595160069,"An ancient place, cited: BAtlas 4 D2 Libanophoros Chora"
39371,https://pleiades.stoa.org/places/39371,Lysanitae,44.171064609959245,15.22996925139778,"An ancient place, cited: BAtlas 4 B2 Lysanitae"
39373,https://pleiades.stoa.org/places/39373,Maipha,47.730183,14.555811,"An ancient place, cited: BAtlas 4 C3 Maipha"
39375,https://pleiades.stoa.org/places/39375,Malao,45.013109,10.420294,"An ancient place, cited: BAtlas 4 C3 Malao"
39377,https://pleiades.stoa.org/places/39377,Mamaeum Litus,42.78178834332744,17.207480969011147,"An ancient place, cited: BAtlas 4 B2 Mamaeum Litus"
39378,https://pleiades.stoa.org/places/39378,Maphoritae,42.5,12.5,"An ancient place, cited: BAtlas 4 B3 Maphoritae"
39380,https://pleiades.stoa.org/places/39380,Marimatha,45.4633,14.9425,"An ancient place, cited: BAtlas 4 C3 Marimatha"
39382,https://pleiades.stoa.org/places/39382,Marma,42.34894,17.326869,"An ancient place, cited: BAtlas 4 B2 Marma"
39383,https://pleiades.stoa.org/places/39383,Meda,43.693538,13.615017,"An ancient place, cited: BAtlas 4 B3 Meda"
39385,https://pleiades.stoa.org/places/39385,Mesala,45.440538,13.147317,"An ancient place, cited: BAtlas 4 C3 Mesala"
39387,https://pleiades.stoa.org/places/39387,Mosylon Emporion,48.605954,11.28743,"An ancient place, cited: BAtlas 4 C3 Mosylon Emporion"
39388,https://pleiades.stoa.org/places/39388,Mosylon? Pr.,49.553262,11.446381,"An ancient place, cited: BAtlas 4 C3 Mosylon? Pr."
39389,https://pleiades.stoa.org/places/39389,Moundou,47.123147,11.00357,"An ancient place, cited: BAtlas 4 C3 Moundou"
39390,https://pleiades.stoa.org/places/39390,Mouza Emporion,43.421475,13.261275,"An ancient place, cited: BAtlas 4 B3 Mouza Emporion"
39396,https://pleiades.stoa.org/places/39396,Neogilla,52.785062,16.730687,"An ancient place, cited: BAtlas 4 D2 Neogilla"
39397,https://pleiades.stoa.org/places/39397,Nestus,44.73158,16.561019,"An ancient place, cited: BAtlas 4 B2 Nestus"
39398,https://pleiades.stoa.org/places/39398,Nossa,45.325396,15.134369,"An ancient place, cited: BAtlas 4 C2 Nossa"
39405,https://pleiades.stoa.org/places/39405,Orneon Ins.,48.3870518,13.9317288,"An ancient place, cited: BAtlas 4 C3 Orneon Ins."
39407,https://pleiades.stoa.org/places/39407,Phoda,43.53849,17.760701,"An ancient place, cited: BAtlas 4 B2 Phoda"
39412,https://pleiades.stoa.org/places/39412,Raida,44.414857,14.316682,"An ancient place, cited: BAtlas 4 B3 Raida"
39413,https://pleiades.stoa.org/places/39413,Rhadamaei,44.90099215436161,13.530547656988151,"An ancient place, cited: BAtlas 4 B3 Rhadamaei"
39418,https://pleiades.stoa.org/places/39418,Sabat(h)a,47.026,15.369,"An ancient place, cited: BAtlas 4 C2 Sabat(h)a"
39419,https://pleiades.stoa.org/places/39419,Sachalites Sinus,52.2093989,15.9270015,"An ancient place, cited: BAtlas 4 D2 Sachalites Sinus"
39421,https://pleiades.stoa.org/places/39421,Sakchenoi,44.174302640431854,13.662184704509649,"An ancient place, cited: BAtlas 4 B3 Sakchenoi"
39422,https://pleiades.stoa.org/places/39422,Sammaei,44.63993915934264,14.040009590173334,"An ancient place, cited: BAtlas 4 B3 Sammaei"
39424,https://pleiades.stoa.org/places/39424,Saraka,43.925998,13.434482,"An ancient place, cited: BAtlas 4 B3 Saraka"
39425,https://pleiades.stoa.org/places/39425,Sarouon,46.394374,14.785877,"An ancient place, cited: BAtlas 4 C3 Sarouon"
39426,https://pleiades.stoa.org/places/39426,Save,43.925,13.34722,"An ancient place, cited: BAtlas 4 B3 Save"
39427,https://pleiades.stoa.org/places/39427,Smyrnophoros Chora,43.25155601892553,11.3280466663749,"An ancient place, cited: BAtlas 4 B3 Smyrnophoros Chora"
39430,https://pleiades.stoa.org/places/39430,Tamna,45.805079072391344,15.019981003216799,"An ancient place, cited: BAtlas 4 C2 Tamna"
39431,https://pleiades.stoa.org/places/39431,Thialemath,50.52766,15.048659,"An ancient place, cited: BAtlas 4 D2 Thialemath"
39432,https://pleiades.stoa.org/places/39432,Thomala,43.164874,19.91721,"An ancient place, cited: BAtlas 4 B2 Thomala"
39434,https://pleiades.stoa.org/places/39434,Tretos,49.123406,14.534337,"An ancient place, cited: BAtlas 4 C3 Tretos"
39436,https://pleiades.stoa.org/places/39436,Troullas Ins.,48.46128809460384,13.981210596023923,"An ancient place, cited: BAtlas 4 C3 Troullas Ins."
39438,https://pleiades.stoa.org/places/39438,Za(a)bram,40.0769259647422,20.448572635676975,"An ancient place, cited: BAtlas 4 B1 Za(a)bram"
39440,https://pleiades.stoa.org/places/39440,Zamareni,44.26659725652376,15.862561688986416,"An ancient place, cited: BAtlas 4 B2 Zamareni?"
40017,https://pleiades.stoa.org/places/40017,Aelamitae,,,"An ancient place, cited: BAtlas 4 unlocated Aelamitae"
40018,https://pleiades.stoa.org/places/40018,Agame,,,"An ancient place, cited: BAtlas 4 unlocated Agame"
40019,https://pleiades.stoa.org/places/40019,Agge,,,"An ancient place, cited: BAtlas 4 unlocated Agge"
40020,https://pleiades.stoa.org/places/40020,Agmanisphe/Atmanisphe/Atmanisti,,,"An ancient place, cited: BAtlas 4 unlocated Agmanisphe/Atmanisphe/Atmanisti"
40021,https://pleiades.stoa.org/places/40021,Agra,,,"An ancient place, cited: BAtlas 4 unlocated Agra"
40022,https://pleiades.stoa.org/places/40022,Aiathuris,,,"An ancient place, cited: BAtlas 4 unlocated Aiathuris"
40023,https://pleiades.stoa.org/places/40023,Aigialos Megas,,,"An ancient place, cited: BAtlas 4 unlocated Aigialos Megas"
40024,https://pleiades.stoa.org/places/40024,Aigialos Mikros,,,"An ancient place, cited: BAtlas 4 unlocated Aigialos Mikros"
40025,https://pleiades.stoa.org/places/40025,Aigra/Egra,,,"An ancient place, cited: BAtlas 4 unlocated Aigra/Egra"
40026,https://pleiades.stoa.org/places/40026,Aithiopes Anthropophagoi,,,"An ancient place, cited: BAtlas 4 unlocated Aithiopes Anthropophagoi"
40027,https://pleiades.stoa.org/places/40027,Aithiopes Athakai,,,"An ancient place, cited: BAtlas 4 unlocated Aithiopes Athakai"
40028,https://pleiades.stoa.org/places/40028,Aithiopes Ichthyophagoi,,,"An ancient place, cited: BAtlas 4 unlocated Aithiopes Ichthyophagoi"
40029,https://pleiades.stoa.org/places/40029,Aithiopes Rhapsioi,,,"An ancient place, cited: BAtlas 4 unlocated Aithiopes Rhapsioi"
40030,https://pleiades.stoa.org/places/40030,Akkanai/Akanai,,,"An ancient place, cited: BAtlas 4 unlocated Ak(k)anai"
40031,https://pleiades.stoa.org/places/40031,Akanthine,,,"An ancient place, cited: BAtlas 4 unlocated Akanthine"
40032,https://pleiades.stoa.org/places/40032,Alabana/Albana,,,"An ancient place, cited: BAtlas 4 unlocated Al(a)bana"
40033,https://pleiades.stoa.org/places/40033,Alilaioi,,,"An ancient place, cited: BAtlas 4 unlocated Alilaioi"
40034,https://pleiades.stoa.org/places/40034,Allumaiotai/Alumeotai,,,"An ancient place, cited: BAtlas 4 unlocated Allumaiotai/Alumeotai"
40035,https://pleiades.stoa.org/places/40035,Aminea/Aminoei,,,"An ancient place, cited: BAtlas 4 unlocated Aminea/Aminoei"
40036,https://pleiades.stoa.org/places/40036,Amithoscattha/Amithoscatta/Amithoscutta,,,"An ancient place, cited: BAtlas 4 unlocated Amithoscatt(h)a/Amithoscutta"
40037,https://pleiades.stoa.org/places/40037,Amnamethus,,,"An ancient place, cited: BAtlas 4 unlocated Amnamethus"
40038,https://pleiades.stoa.org/places/40038,Amnum,,,"An ancient place, cited: BAtlas 4 unlocated Amnum"
40039,https://pleiades.stoa.org/places/40039,Andidalei/Antiadalei/Antidalei/Anthiadala/Antiadala,,,"An ancient place, cited: BAtlas 4 unlocated Andidalei/Anti(a)dalei/Ant(h)iadala"
40040,https://pleiades.stoa.org/places/40040,Annene/Annine,,,"An ancient place, cited: BAtlas 4 unlocated Annene/Annine"
40044,https://pleiades.stoa.org/places/40044,Antiochou Solen,,,"An ancient place, cited: BAtlas 4 unlocated Antiochou Solen"
40045,https://pleiades.stoa.org/places/40045,Antiphilou Limen,,,"An ancient place, cited: BAtlas 4 unlocated Antiphilou Limen"
40046,https://pleiades.stoa.org/places/40046,Apate,,,"An ancient place, cited: BAtlas 4 unlocated Apate"
40047,https://pleiades.stoa.org/places/40047,Apokopa Megala,,,"An ancient place, cited: BAtlas 4 unlocated Apokopa Megala"
40048,https://pleiades.stoa.org/places/40048,Apokopa Mikra,,,"An ancient place, cited: BAtlas 4 unlocated Apokopa Mikra"
40049,https://pleiades.stoa.org/places/40049,Arabis/Arbis,,,"An ancient place, cited: BAtlas 4 unlocated Ar(a)bis"
40050,https://pleiades.stoa.org/places/40050,Arrabitai/Arabitai,,,"An ancient place, cited: BAtlas 4 unlocated Ar(r)abitai"
40051,https://pleiades.stoa.org/places/40051,Arabanitai,,,"An ancient place, cited: BAtlas 4 unlocated Arabanitai"
40052,https://pleiades.stoa.org/places/40052,Arabanitai/Rabanitai/Sabor/Mafa,,,"An ancient place, cited: BAtlas 4 unlocated Arabanitai/Rabanitai/Sabor/Mafa"
40053,https://pleiades.stoa.org/places/40053,Arabis,,,"An ancient place, cited: BAtlas 4 unlocated Arabis (1)"
40054,https://pleiades.stoa.org/places/40054,Arsi,,,"An ancient place, cited: BAtlas 4 unlocated Arsi"
40055,https://pleiades.stoa.org/places/40055,Asaraei,,,"An ancient place, cited: BAtlas 4 unlocated Asaraei"
40056,https://pleiades.stoa.org/places/40056,Aspis Pr.,,,"An ancient place, cited: BAtlas 4 unlocated Aspis Pr."
40057,https://pleiades.stoa.org/places/40057,Astarte,,,"An ancient place, cited: BAtlas 4 unlocated Astarte"
40058,https://pleiades.stoa.org/places/40058,Atalmo,,,"An ancient place, cited: BAtlas 4 unlocated Atalmo"
40059,https://pleiades.stoa.org/places/40059,Athagaus,,,"An ancient place, cited: BAtlas 4 unlocated Athagaus"
40062,https://pleiades.stoa.org/places/40062,Attiroi,,,"An ancient place, cited: BAtlas 4 unlocated Attiroi"
40063,https://pleiades.stoa.org/places/40063,Aua/Aue,,,"An ancient place, cited: BAtlas 4 unlocated Aua/Aue"
40064,https://pleiades.stoa.org/places/40064,Autaei,,,"An ancient place, cited: BAtlas 4 unlocated Autaei"
40065,https://pleiades.stoa.org/places/40065,Autoba,,,"An ancient place, cited: BAtlas 4 unlocated Autoba"
40067,https://pleiades.stoa.org/places/40067,Babyllenioi,,,"An ancient place, cited: BAtlas 4 unlocated Babyllenioi"
40068,https://pleiades.stoa.org/places/40068,Bacaschami Riphearina,,,"An ancient place, cited: BAtlas 4 unlocated Bacaschami Riphearina"
40070,https://pleiades.stoa.org/places/40070,Bainun/Barnun,,,"An ancient place, cited: BAtlas 4 unlocated Bainun/Barnun"
40072,https://pleiades.stoa.org/places/40072,Bana/Baua,,,"An ancient place, cited: BAtlas 4 unlocated Bana/Baua"
40073,https://pleiades.stoa.org/places/40073,Bangenos,,,"An ancient place, cited: BAtlas 4 unlocated Bangenos"
40076,https://pleiades.stoa.org/places/40076,Basa,,,"An ancient place, cited: BAtlas 4 unlocated Basa"
40077,https://pleiades.stoa.org/places/40077,Bathys Limen,,,"An ancient place, cited: BAtlas 4 unlocated Bathys Limen"
40079,https://pleiades.stoa.org/places/40079,Bega,,,"An ancient place, cited: BAtlas 4 unlocated Bega"
40081,https://pleiades.stoa.org/places/40081,Berethis,,,"An ancient place, cited: BAtlas 4 unlocated Berethis"
40082,https://pleiades.stoa.org/places/40082,Bliulaioi,,,"An ancient place, cited: BAtlas 4 unlocated Bliulaioi"
40085,https://pleiades.stoa.org/places/40085,Bomos Erotos Pr.,,,"An ancient place, cited: BAtlas 4 unlocated Bomos Erotos Pr."
40086,https://pleiades.stoa.org/places/40086,Boon,,,"An ancient place, cited: BAtlas 4 unlocated Boon"
40087,https://pleiades.stoa.org/places/40087,Borea,,,"An ancient place, cited: BAtlas 4 unlocated Borea"
40088,https://pleiades.stoa.org/places/40088,Bosara/Boseude/Kosara/Koseude,,,"An ancient place, cited: BAtlas 4 unlocated Bosara/Boseude/Kosara/Koseude"
40090,https://pleiades.stoa.org/places/40090,Cachinna/Cachina/Chachina/Capina,,,"An ancient place, cited: BAtlas 4 unlocated Cachin(n)a/Chachina/Capina"
40091,https://pleiades.stoa.org/places/40091,Caldis,,,"An ancient place, cited: BAtlas 4 unlocated Caldis"
40092,https://pleiades.stoa.org/places/40092,Candaei,,,"An ancient place, cited: BAtlas 4 unlocated Candaei"
40093,https://pleiades.stoa.org/places/40093,Canthace,,,"An ancient place, cited: BAtlas 4 unlocated Canthace"
40095,https://pleiades.stoa.org/places/40095,Carphati/Karbai,,,"An ancient place, cited: BAtlas 4 unlocated Carphati/Karbai"
40096,https://pleiades.stoa.org/places/40096,Chaalla,,,"An ancient place, cited: BAtlas 4 unlocated Chaalla"
40098,https://pleiades.stoa.org/places/40098,Chaculatae,,,"An ancient place, cited: BAtlas 4 unlocated Chaculatae"
40099,https://pleiades.stoa.org/places/40099,Chargatha,,,"An ancient place, cited: BAtlas 4 unlocated Chargatha"
40100,https://pleiades.stoa.org/places/40100,Charmuthas,,,"An ancient place, cited: BAtlas 4 unlocated Charmuthas"
40102,https://pleiades.stoa.org/places/40102,Chenneseri/Chonneseri,,,"An ancient place, cited: BAtlas 4 unlocated Chenneseri/Chonneseri"
40103,https://pleiades.stoa.org/places/40103,Clara/Clari/Glari,,,"An ancient place, cited: BAtlas 4 unlocated Clara/Clari/Glari"
40104,https://pleiades.stoa.org/places/40104,Coboris,,,"An ancient place, cited: BAtlas 4 unlocated Coboris"
40105,https://pleiades.stoa.org/places/40105,Codani,,,"An ancient place, cited: BAtlas 4 unlocated Codani"
40106,https://pleiades.stoa.org/places/40106,Colocasitis,,,"An ancient place, cited: BAtlas 4 unlocated Colocasitis"
40107,https://pleiades.stoa.org/places/40107,Coria/Boanum,,,"An ancient place, cited: BAtlas 4 unlocated Coria/Boanum"
40108,https://pleiades.stoa.org/places/40108,Cornan,,,"An ancient place, cited: BAtlas 4 unlocated Cornan"
40109,https://pleiades.stoa.org/places/40109,Cucios,,,"An ancient place, cited: BAtlas 4 unlocated Cucios"
40110,https://pleiades.stoa.org/places/40110,Cytis,,,"An ancient place, cited: BAtlas 4 unlocated Cytis"
40112,https://pleiades.stoa.org/places/40112,Daphnine,,,"An ancient place, cited: BAtlas 4 unlocated Daphnine"
40113,https://pleiades.stoa.org/places/40113,Daphnous,,,"An ancient place, cited: BAtlas 4 unlocated Daphnous"
40114,https://pleiades.stoa.org/places/40114,Daraba/Darada,,,"An ancient place, cited: BAtlas 4 unlocated Daraba/Darada"
40115,https://pleiades.stoa.org/places/40115,Darde,,,"An ancient place, cited: BAtlas 4 unlocated Darde"
40116,https://pleiades.stoa.org/places/40116,Daulotos,,,"An ancient place, cited: BAtlas 4 unlocated Daulotos"
40117,https://pleiades.stoa.org/places/40117,Dedakai/Didaskai/Didakai,,,"An ancient place, cited: BAtlas 4 unlocated Dedakai/Dida(s)kai"
40118,https://pleiades.stoa.org/places/40118,Demetros Skopias Pr.,,,"An ancient place, cited: BAtlas 4 unlocated Demetros Skopias Pr."
40119,https://pleiades.stoa.org/places/40119,Deua,,,"An ancient place, cited: BAtlas 4 unlocated Deua"
40121,https://pleiades.stoa.org/places/40121,Didyma M.,,,"An ancient place, cited: BAtlas 4 unlocated Didyma M."
40122,https://pleiades.stoa.org/places/40122,Diogenous Pr.,,,"An ancient place, cited: BAtlas 4 unlocated Diogenous Pr."
40123,https://pleiades.stoa.org/places/40123,Dioskoron Limen,,,"An ancient place, cited: BAtlas 4 unlocated Dioskoron Limen"
40124,https://pleiades.stoa.org/places/40124,Divitia,,,"An ancient place, cited: BAtlas 4 unlocated Divitia"
40125,https://pleiades.stoa.org/places/40125,Dolicae/Doricae,,,"An ancient place, cited: BAtlas 4 unlocated Dolicae/Doricae"
40126,https://pleiades.stoa.org/places/40126,Domazenes,,,"An ancient place, cited: BAtlas 4 unlocated Domazenes"
40127,https://pleiades.stoa.org/places/40127,Dora,,,"An ancient place, cited: BAtlas 4 unlocated Dora"
40129,https://pleiades.stoa.org/places/40129,Draga/Grada,,,"An ancient place, cited: BAtlas 4 unlocated Draga/Grada"
40130,https://pleiades.stoa.org/places/40130,Drimati/Drytmati,,,"An ancient place, cited: BAtlas 4 unlocated Drimati/Drytmati"
40133,https://pleiades.stoa.org/places/40133,Embolon,,,"An ancient place, cited: BAtlas 4 unlocated Embolon"
40134,https://pleiades.stoa.org/places/40134,Endera,,,"An ancient place, cited: BAtlas 4 unlocated Endera"
40135,https://pleiades.stoa.org/places/40135,Eos M.,,,"An ancient place, cited: BAtlas 4 unlocated Eos M."
40137,https://pleiades.stoa.org/places/40137,Erchoas,,,"An ancient place, cited: BAtlas 4 unlocated Erchoas"
40138,https://pleiades.stoa.org/places/40138,Eristhe,,,"An ancient place, cited: BAtlas 4 unlocated Eristhe"
40139,https://pleiades.stoa.org/places/40139,Eser,,,"An ancient place, cited: BAtlas 4 unlocated Eser"
40140,https://pleiades.stoa.org/places/40140,Euangelon Limen,,,"An ancient place, cited: BAtlas 4 unlocated Euangelon Limen"
40141,https://pleiades.stoa.org/places/40141,Eumenous Alsos/Eumenous Limen,,,"An ancient place, cited: BAtlas 4 unlocated Eumenous Alsos/Eumenous Limen"
40142,https://pleiades.stoa.org/places/40142,Euonymitai,,,"An ancient place, cited: BAtlas 4 unlocated Euonymitai"
40144,https://pleiades.stoa.org/places/40144,Gabala,,,"An ancient place, cited: BAtlas 4 unlocated Gabala"
40147,https://pleiades.stoa.org/places/40147,Gapachoi/Gapaloi,,,"An ancient place, cited: BAtlas 4 unlocated Gapachoi/Gapaloi"
40148,https://pleiades.stoa.org/places/40148,Garbaton M./Garbato M.,,,"An ancient place, cited: BAtlas 4 unlocated Garbato(n) M."
40149,https://pleiades.stoa.org/places/40149,Gauron M.,,,"An ancient place, cited: BAtlas 4 unlocated Gauron M."
40150,https://pleiades.stoa.org/places/40150,Gaze,,,"An ancient place, cited: BAtlas 4 unlocated Gaze"
40151,https://pleiades.stoa.org/places/40151,Geapolis,,,"An ancient place, cited: BAtlas 4 unlocated Geapolis"
40152,https://pleiades.stoa.org/places/40152,Gerbo/Terbo,,,"An ancient place, cited: BAtlas 4 unlocated Gerbo/Terbo"
40154,https://pleiades.stoa.org/places/40154,Gomadeon Nesoi,,,"An ancient place, cited: BAtlas 4 unlocated Gomadeon Nesoi"
40156,https://pleiades.stoa.org/places/40156,Gypsitis,,,"An ancient place, cited: BAtlas 4 unlocated Gypsitis"
40158,https://pleiades.stoa.org/places/40158,Halonesi,,,"An ancient place, cited: BAtlas 4 unlocated Halonesi"
40159,https://pleiades.stoa.org/places/40159,Hippalum,,,"An ancient place, cited: BAtlas 4 unlocated Hippalum"
40160,https://pleiades.stoa.org/places/40160,Hyaila,,,"An ancient place, cited: BAtlas 4 unlocated Hyaila"
40163,https://pleiades.stoa.org/places/40163,Ision M.,,,"An ancient place, cited: BAtlas 4 unlocated Ision M."
40164,https://pleiades.stoa.org/places/40164,Isidis Portus,,,"An ancient place, cited: BAtlas 4 unlocated Isidis Portus"
40165,https://pleiades.stoa.org/places/40165,Isidos (island),,,"An ancient place, cited: BAtlas 4 unlocated Isidos ins."
40167,https://pleiades.stoa.org/places/40167,Kaboubathra M.,,,"An ancient place, cited: BAtlas 4 unlocated Kaboubathra M."
40168,https://pleiades.stoa.org/places/40168,Kadoupoi,,,"An ancient place, cited: BAtlas 4 unlocated Kadoupoi"
40169,https://pleiades.stoa.org/places/40169,Kalaa,,,"An ancient place, cited: BAtlas 4 unlocated Kalaa"
40170,https://pleiades.stoa.org/places/40170,Kamelokomai,,,"An ancient place, cited: BAtlas 4 unlocated Kamelokomai"
40172,https://pleiades.stoa.org/places/40172,Kardamine,,,"An ancient place, cited: BAtlas 4 unlocated Kardamine"
40173,https://pleiades.stoa.org/places/40173,Katadrai,,,"An ancient place, cited: BAtlas 4 unlocated Katadrai"
40174,https://pleiades.stoa.org/places/40174,Katathrai (islands),,,"An ancient place, cited: BAtlas 4 unlocated Katathrai inss."
40175,https://pleiades.stoa.org/places/40175,Kentos,,,"An ancient place, cited: BAtlas 4 unlocated Kentos"
40177,https://pleiades.stoa.org/places/40177,Koa,,,"An ancient place, cited: BAtlas 4 unlocated Koa"
40178,https://pleiades.stoa.org/places/40178,Kobe,,,"An ancient place, cited: BAtlas 4 unlocated Kobe"
40179,https://pleiades.stoa.org/places/40179,Koloboi/Kolboi,,,"An ancient place, cited: BAtlas 4 unlocated Kol(o)boi"
40180,https://pleiades.stoa.org/places/40180,"Kolobon M., Pr.",,,"An ancient place, cited: BAtlas 4 unlocated Kolobon M., Pr."
40181,https://pleiades.stoa.org/places/40181,Koraos,,,"An ancient place, cited: BAtlas 4 unlocated Koraos"
40184,https://pleiades.stoa.org/places/40184,Kreophagoi,,,"An ancient place, cited: BAtlas 4 unlocated Kreophagoi"
40185,https://pleiades.stoa.org/places/40185,Kronou Pr.,,,"An ancient place, cited: BAtlas 4 unlocated Kronou Pr."
40186,https://pleiades.stoa.org/places/40186,Kyeneion,,,"An ancient place, cited: BAtlas 4 unlocated Kyeneion"
40187,https://pleiades.stoa.org/places/40187,Kynamolgoi,,,"An ancient place, cited: BAtlas 4 unlocated Kynamolgoi"
40189,https://pleiades.stoa.org/places/40189,Labatanis,,,"An ancient place, cited: BAtlas 4 unlocated Labatanis"
40190,https://pleiades.stoa.org/places/40190,Lachchere/Lachere,,,"An ancient place, cited: BAtlas 4 unlocated Lach(ch)ere"
40192,https://pleiades.stoa.org/places/40192,Lasine,,,"An ancient place, cited: BAtlas 4 unlocated Lasine"
40193,https://pleiades.stoa.org/places/40193,Licha Thera,,,"An ancient place, cited: BAtlas 4 unlocated Licha Thera"
40195,https://pleiades.stoa.org/places/40195,Machala/Makkala/Makala,,,"An ancient place, cited: BAtlas 4 unlocated Machala/Mak(k)ala"
40196,https://pleiades.stoa.org/places/40196,Mada,,,"An ancient place, cited: BAtlas 4 unlocated Mada"
40197,https://pleiades.stoa.org/places/40197,Madarra/Madasara/Sadasara,,,"An ancient place, cited: BAtlas 4 unlocated Madarra/Madasara/Sadasara"
40198,https://pleiades.stoa.org/places/40198,Madoki,,,"An ancient place, cited: BAtlas 4 unlocated Madoki"
40204,https://pleiades.stoa.org/places/40204,Mandaith,,,"An ancient place, cited: BAtlas 4 unlocated Mandaith"
40205,https://pleiades.stoa.org/places/40205,Mandalum,,,"An ancient place, cited: BAtlas 4 unlocated Mandalum"
40206,https://pleiades.stoa.org/places/40206,Manteion Artemidos,,,"An ancient place, cited: BAtlas 4 unlocated Manteion Artemidos"
40207,https://pleiades.stoa.org/places/40207,Maraeu/Maru/Matreu,,,"An ancient place, cited: BAtlas 4 unlocated Mar(ae)u/Matreu"
40208,https://pleiades.stoa.org/places/40208,Maratha,,,"An ancient place, cited: BAtlas 4 unlocated Maratha"
40209,https://pleiades.stoa.org/places/40209,Mardache,,,"An ancient place, cited: BAtlas 4 unlocated Mardache"
40210,https://pleiades.stoa.org/places/40210,Mariua,,,"An ancient place, cited: BAtlas 4 unlocated Mariua"
40211,https://pleiades.stoa.org/places/40211,Marsyaba,,,"An ancient place, cited: BAtlas 4 unlocated Marsyaba"
40212,https://pleiades.stoa.org/places/40212,Masonitai,,,"An ancient place, cited: BAtlas 4 unlocated Masonitai"
40213,https://pleiades.stoa.org/places/40213,Maste,,,"An ancient place, cited: BAtlas 4 unlocated Maste"
40214,https://pleiades.stoa.org/places/40214,Maste M.,,,"An ancient place, cited: BAtlas 4 unlocated Maste M."
40215,https://pleiades.stoa.org/places/40215,Mastitai,,,"An ancient place, cited: BAtlas 4 unlocated Mastitai"
40217,https://pleiades.stoa.org/places/40217,Meiba,,,"An ancient place, cited: BAtlas 4 unlocated Meiba"
40218,https://pleiades.stoa.org/places/40218,Melinos,,,"An ancient place, cited: BAtlas 4 unlocated Melinos"
40219,https://pleiades.stoa.org/places/40219,Memnoneis,,,"An ancient place, cited: BAtlas 4 unlocated Memnoneis"
40221,https://pleiades.stoa.org/places/40221,Menambis,,,"An ancient place, cited: BAtlas 4 unlocated Menambis"
40222,https://pleiades.stoa.org/places/40222,Menouthias,,,"An ancient place, cited: BAtlas 4 unlocated Menouthias"
40223,https://pleiades.stoa.org/places/40223,Metine,,,"An ancient place, cited: BAtlas 4 unlocated Metine"
40224,https://pleiades.stoa.org/places/40224,Mnemeion Pr.,,,"An ancient place, cited: BAtlas 4 unlocated Mnemeion Pr."
40225,https://pleiades.stoa.org/places/40225,Molibai,,,"An ancient place, cited: BAtlas 4 unlocated Molibai"
40226,https://pleiades.stoa.org/places/40226,Monodaktylon M.,,,"An ancient place, cited: BAtlas 4 unlocated Monodaktylon M."
40227,https://pleiades.stoa.org/places/40227,Morou,,,"An ancient place, cited: BAtlas 4 unlocated Morou"
40228,https://pleiades.stoa.org/places/40228,Moscha Limen,,,"An ancient place, cited: BAtlas 4 unlocated Moscha Limen"
40233,https://pleiades.stoa.org/places/40233,Nakis/Naki,,,"An ancient place, cited: BAtlas 4 unlocated Naki(s)"
40234,https://pleiades.stoa.org/places/40234,Napegus,,,"An ancient place, cited: BAtlas 4 unlocated Napegus"
40235,https://pleiades.stoa.org/places/40235,Negra,,,"An ancient place, cited: BAtlas 4 unlocated Negra"
40236,https://pleiades.stoa.org/places/40236,Neiloptolemaiou,,,"An ancient place, cited: BAtlas 4 unlocated Neiloptolemaiou"
40237,https://pleiades.stoa.org/places/40237,Nema,,,"An ancient place, cited: BAtlas 4 unlocated Nema"
40238,https://pleiades.stoa.org/places/40238,Nikon,,,"An ancient place, cited: BAtlas 4 unlocated Nikon"
40239,https://pleiades.stoa.org/places/40239,Novacum/Novata,,,"An ancient place, cited: BAtlas 4 unlocated Novacum/Novata"
40241,https://pleiades.stoa.org/places/40241,Orbadarou,,,"An ancient place, cited: BAtlas 4 unlocated Orbadarou"
40242,https://pleiades.stoa.org/places/40242,Ouodona,,,"An ancient place, cited: BAtlas 4 unlocated Ouodona"
40244,https://pleiades.stoa.org/places/40244,Palindromos Pr.,,,"An ancient place, cited: BAtlas 4 unlocated Palindromos Pr."
40245,https://pleiades.stoa.org/places/40245,Pano,,,"An ancient place, cited: BAtlas 4 unlocated Pano"
40247,https://pleiades.stoa.org/places/40247,Pataita,,,"An ancient place, cited: BAtlas 4 unlocated Pataita"
40248,https://pleiades.stoa.org/places/40248,Pechinoi,,,"An ancient place, cited: BAtlas 4 unlocated Pechinoi"
40249,https://pleiades.stoa.org/places/40249,Pesendarai,,,"An ancient place, cited: BAtlas 4 unlocated Pesendarai"
40250,https://pleiades.stoa.org/places/40250,Phalangis M.,,,"An ancient place, cited: BAtlas 4 unlocated Phalangis M."
40251,https://pleiades.stoa.org/places/40251,Phthouri/Phthour,,,"An ancient place, cited: BAtlas 4 unlocated Phthour(i)"
40252,https://pleiades.stoa.org/places/40252,Pistre,,,"An ancient place, cited: BAtlas 4 unlocated Pistre"
40253,https://pleiades.stoa.org/places/40253,Pnoups,,,"An ancient place, cited: BAtlas 4 unlocated Pnoups"
40254,https://pleiades.stoa.org/places/40254,Polybiou,,,"An ancient place, cited: BAtlas 4 unlocated Polybiou"
40255,https://pleiades.stoa.org/places/40255,Pontyris,,,"An ancient place, cited: BAtlas 4 unlocated Pontyris"
40257,https://pleiades.stoa.org/places/40257,Prionos,,,"An ancient place, cited: BAtlas 4 unlocated Prionos"
40258,https://pleiades.stoa.org/places/40258,Prionoton,,,"An ancient place, cited: BAtlas 4 unlocated Prionoton"
40259,https://pleiades.stoa.org/places/40259,Pseudokelis,,,"An ancient place, cited: BAtlas 4 unlocated Pseudokelis"
40260,https://pleiades.stoa.org/places/40260,Psygmos,,,"An ancient place, cited: BAtlas 4 unlocated Psygmos"
40261,https://pleiades.stoa.org/places/40261,Ptemithis,,,"An ancient place, cited: BAtlas 4 unlocated Ptemithis"
40262,https://pleiades.stoa.org/places/40262,Pteros,,,"An ancient place, cited: BAtlas 4 unlocated Pteros"
40263,https://pleiades.stoa.org/places/40263,Pudnu,,,"An ancient place, cited: BAtlas 4 unlocated Pudnu"
40264,https://pleiades.stoa.org/places/40264,Pylaia M./Pylai M.,,,"An ancient place, cited: BAtlas 4 unlocated Pylai(a) M."
40265,https://pleiades.stoa.org/places/40265,Pythangelos,,,"An ancient place, cited: BAtlas 4 unlocated Pythangelos"
40266,https://pleiades.stoa.org/places/40266,Pytholaos Pr.,,,"An ancient place, cited: BAtlas 4 unlocated Pytholaos Pr."
40269,https://pleiades.stoa.org/places/40269,Rathinai/Rathinoi,,,"An ancient place, cited: BAtlas 4 unlocated Rathinai/Rathinoi"
40270,https://pleiades.stoa.org/places/40270,Rauso,,,"An ancient place, cited: BAtlas 4 unlocated Rauso"
40271,https://pleiades.stoa.org/places/40271,Rhapsioi,,,"An ancient place, cited: BAtlas 4 unlocated Rhapsioi"
40272,https://pleiades.stoa.org/places/40272,Rhapton,,,"An ancient place, cited: BAtlas 4 unlocated Rhapton"
40275,https://pleiades.stoa.org/places/40275,Sabatra,,,"An ancient place, cited: BAtlas 4 unlocated Sabatra"
40276,https://pleiades.stoa.org/places/40276,Sabeon Mediana,,,"An ancient place, cited: BAtlas 4 unlocated Sabeon Mediana"
40277,https://pleiades.stoa.org/places/40277,Sabeon Minor,,,"An ancient place, cited: BAtlas 4 unlocated Sabeon Minor"
40278,https://pleiades.stoa.org/places/40278,Sabeone Maior,,,"An ancient place, cited: BAtlas 4 unlocated Sabeone Maior"
40280,https://pleiades.stoa.org/places/40280,Sachle,,,"An ancient place, cited: BAtlas 4 unlocated Sachle"
40282,https://pleiades.stoa.org/places/40282,Sagiatta/Sagitta/Sagitha,,,"An ancient place, cited: BAtlas 4 unlocated Sagi(a)tta/Sagitha"
40283,https://pleiades.stoa.org/places/40283,Sakatia,,,"An ancient place, cited: BAtlas 4 unlocated Sakatia"
40284,https://pleiades.stoa.org/places/40284,Sakolche/Sakole,,,"An ancient place, cited: BAtlas 4 unlocated Sakol(ch)e"
40285,https://pleiades.stoa.org/places/40285,Salate/Solate,,,"An ancient place, cited: BAtlas 4 unlocated Salate/Solate"
40286,https://pleiades.stoa.org/places/40286,Sambracena/Sambrachate,,,"An ancient place, cited: BAtlas 4 unlocated Sambracena/Sambrachate"
40287,https://pleiades.stoa.org/places/40287,Samene,,,"An ancient place, cited: BAtlas 4 unlocated Samene"
40288,https://pleiades.stoa.org/places/40288,Sandake,,,"An ancient place, cited: BAtlas 4 unlocated Sandake"
40289,https://pleiades.stoa.org/places/40289,Sanina,,,"An ancient place, cited: BAtlas 4 unlocated Sanina"
40290,https://pleiades.stoa.org/places/40290,Sapaioi,,,"An ancient place, cited: BAtlas 4 unlocated Sapaioi"
40292,https://pleiades.stoa.org/places/40292,Sarapion,,,"An ancient place, cited: BAtlas 4 unlocated Sarapion"
40293,https://pleiades.stoa.org/places/40293,Sargo,,,"An ancient place, cited: BAtlas 4 unlocated Sargo"
40294,https://pleiades.stoa.org/places/40294,Sariba,,,"An ancient place, cited: BAtlas 4 unlocated Sariba"
40295,https://pleiades.stoa.org/places/40295,Saritai,,,"An ancient place, cited: BAtlas 4 unlocated Saritai"
40296,https://pleiades.stoa.org/places/40296,Sasu,,,"An ancient place, cited: BAtlas 4 unlocated Sasu"
40297,https://pleiades.stoa.org/places/40297,Satachthai/Satachtha,,,"An ancient place, cited: BAtlas 4 unlocated Satachtha(i)"
40298,https://pleiades.stoa.org/places/40298,Satyron M.,,,"An ancient place, cited: BAtlas 4 unlocated Satyron M."
40299,https://pleiades.stoa.org/places/40299,Saxinae/Xoxinae,,,"An ancient place, cited: BAtlas 4 unlocated Saxinae/Xoxinae"
40300,https://pleiades.stoa.org/places/40300,Scenitae Sabaei,,,"An ancient place, cited: BAtlas 4 unlocated Scenitae Sabaei"
40301,https://pleiades.stoa.org/places/40301,Scytala,,,"An ancient place, cited: BAtlas 4 unlocated Scytala"
40302,https://pleiades.stoa.org/places/40302,Sebridai,,,"An ancient place, cited: BAtlas 4 unlocated Sebridai"
40306,https://pleiades.stoa.org/places/40306,Sesea,,,"An ancient place, cited: BAtlas 4 unlocated Sesea"
40307,https://pleiades.stoa.org/places/40307,Sibis,,,"An ancient place, cited: BAtlas 4 unlocated Sibis"
40308,https://pleiades.stoa.org/places/40308,Sigyene/Suskinitai,,,"An ancient place, cited: BAtlas 4 unlocated Sigyene/Suskinitai"
40309,https://pleiades.stoa.org/places/40309,Silaion,,,"An ancient place, cited: BAtlas 4 unlocated Silaion"
40310,https://pleiades.stoa.org/places/40310,Sirechae/Sirecae,,,"An ancient place, cited: BAtlas 4 unlocated Sirec(h)ae"
40311,https://pleiades.stoa.org/places/40311,Sirtibeis,,,"An ancient place, cited: BAtlas 4 unlocated Sirtibeis"
40312,https://pleiades.stoa.org/places/40312,Soboridai,,,"An ancient place, cited: BAtlas 4 unlocated Soboridai"
40313,https://pleiades.stoa.org/places/40313,Sochchor,,,"An ancient place, cited: BAtlas 4 unlocated Sochchor"
40314,https://pleiades.stoa.org/places/40314,Sokratus,,,"An ancient place, cited: BAtlas 4 unlocated Sokratus"
40315,https://pleiades.stoa.org/places/40315,Solanades,,,"An ancient place, cited: BAtlas 4 unlocated Solanades"
40316,https://pleiades.stoa.org/places/40316,Solate,,,"An ancient place, cited: BAtlas 4 unlocated Solate (1)"
40318,https://pleiades.stoa.org/places/40318,Sophanitae,,,"An ancient place, cited: BAtlas 4 unlocated Sophanitae"
40319,https://pleiades.stoa.org/places/40319,Sophanitai,,,"An ancient place, cited: BAtlas 4 unlocated Sophanitai"
40320,https://pleiades.stoa.org/places/40320,Sosippu Limen,,,"An ancient place, cited: BAtlas 4 unlocated Sosippu Limen"
40321,https://pleiades.stoa.org/places/40321,Stenae Dirae,,,"An ancient place, cited: BAtlas 4 unlocated Stenae Dirae"
40322,https://pleiades.stoa.org/places/40322,Stratioton,,,"An ancient place, cited: BAtlas 4 unlocated Stratioton"
40323,https://pleiades.stoa.org/places/40323,Strato,,,"An ancient place, cited: BAtlas 4 unlocated Strato"
40324,https://pleiades.stoa.org/places/40324,Strythophagoi,,,"An ancient place, cited: BAtlas 4 unlocated Strythophagoi"
40325,https://pleiades.stoa.org/places/40325,Stygos,,,"An ancient place, cited: BAtlas 4 unlocated Stygos"
40328,https://pleiades.stoa.org/places/40328,Tabienoi,,,"An ancient place, cited: BAtlas 4 unlocated Tabienoi"
40329,https://pleiades.stoa.org/places/40329,Taruda,,,"An ancient place, cited: BAtlas 4 unlocated Taruda"
40330,https://pleiades.stoa.org/places/40330,Tasitia/Tasitis,,,"An ancient place, cited: BAtlas 4 unlocated Tasitia/Tasitis"
40331,https://pleiades.stoa.org/places/40331,Tathis,,,"An ancient place, cited: BAtlas 4 unlocated Tathis"
40332,https://pleiades.stoa.org/places/40332,Tenessis,,,"An ancient place, cited: BAtlas 4 unlocated Tenessis"
40334,https://pleiades.stoa.org/places/40334,Thalibae,,,"An ancient place, cited: BAtlas 4 unlocated Thalibae"
40335,https://pleiades.stoa.org/places/40335,Thamar,,,"An ancient place, cited: BAtlas 4 unlocated Thamar"
40336,https://pleiades.stoa.org/places/40336,Theon Soteron Limen,,,"An ancient place, cited: BAtlas 4 unlocated Theon Soteron Limen"
40337,https://pleiades.stoa.org/places/40337,Thuris,,,"An ancient place, cited: BAtlas 4 unlocated Thuris"
40338,https://pleiades.stoa.org/places/40338,Tiamaa/Tidma,,,"An ancient place, cited: BAtlas 4 unlocated Tiamaa/Tidma"
40339,https://pleiades.stoa.org/places/40339,Trete,,,"An ancient place, cited: BAtlas 4 unlocated Trete"
40340,https://pleiades.stoa.org/places/40340,Tricoryphos M.,,,"An ancient place, cited: BAtlas 4 unlocated Tricoryphos M."
40341,https://pleiades.stoa.org/places/40341,Troulla Limen,,,"An ancient place, cited: BAtlas 4 unlocated Troulla Limen"
40347,https://pleiades.stoa.org/places/40347,Zaa,,,"An ancient place, cited: BAtlas 4 unlocated Zaa"
40348,https://pleiades.stoa.org/places/40348,Zangenai/Gangerae/Gangorae,,,"An ancient place, cited: BAtlas 4 unlocated Zangenai/Gangerae/Gangorae"
40349,https://pleiades.stoa.org/places/40349,Zeeritai,,,"An ancient place, cited: BAtlas 4 unlocated Zeeritai"
40350,https://pleiades.stoa.org/places/40350,Zeiritai,,,"An ancient place, cited: BAtlas 4 unlocated Zeiritai"
40351,https://pleiades.stoa.org/places/40351,Zingabene,,,"An ancient place, cited: BAtlas 4 unlocated Zingabene"
49835,https://pleiades.stoa.org/places/49835,Abour,79.641886,10.99906,"An ancient place, cited: BAtlas 5 D4 Abour"
49836,https://pleiades.stoa.org/places/49836,Adam,78.759421,20.766373,"An ancient place, cited: BAtlas 5 D2 Adam"
49842,https://pleiades.stoa.org/places/49842,Aigidion Nesos,73.275844563487,15.431656329897196,"An ancient place, cited: BAtlas 5 C3 Aigidion Nesos"
49845,https://pleiades.stoa.org/places/49845,Akhilandapuram,77.505862,10.88677,"An ancient place, cited: BAtlas 5 D4 Akhilandapuram"
49846,https://pleiades.stoa.org/places/49846,Akkenpalle,78.773453,17.767529,"An ancient place, cited: BAtlas 5 D3 Akkenpalle"
49847,https://pleiades.stoa.org/places/49847,Akkialur,75.060545,15.271778,"An ancient place, cited: BAtlas 5 C3 Akkialur"
49849,https://pleiades.stoa.org/places/49849,Akour,79.084495,9.929814,"An ancient place, cited: BAtlas 5 D5 Akour"
49850,https://pleiades.stoa.org/places/49850,Alagankulam,78.992932,9.362056,"An ancient place, cited: BAtlas 5 D5 Alagankulam"
49853,https://pleiades.stoa.org/places/49853,Aloe,76.353203,10.109984,"An ancient place, cited: BAtlas 5 D4 Aloe"
49854,https://pleiades.stoa.org/places/49854,Alosygni,82.03177,16.618319,"An ancient place, cited: BAtlas 5 E3 Alosygni"
49855,https://pleiades.stoa.org/places/49855,Amaravati,80.1347,16.385871,"An ancient place, cited: BAtlas 5 E3 Amaravati"
49856,https://pleiades.stoa.org/places/49856,Ampitiya,81.431589,6.790699,"An ancient place, cited: BAtlas 5 inset Ampitiya"
49858,https://pleiades.stoa.org/places/49858,Andarae,81.45822730294078,16.82018311971633,"An ancient place, cited: BAtlas 5 E3 Andarae"
49860,https://pleiades.stoa.org/places/49860,Andrisimoundou (Akron),79.81495959977401,9.043863200822926,"An ancient place, cited: BAtlas 5 inset Andrisimoundou (Akron)"
49862,https://pleiades.stoa.org/places/49862,Annamalai,77.5,12.5,"An ancient place, cited: BAtlas 5 D4 Annamalai"
49868,https://pleiades.stoa.org/places/49868,Arasankuppam,80.115092,12.737908,"An ancient place, cited: BAtlas 5 E4 Arasankuppam"
49870,https://pleiades.stoa.org/places/49870,Argarikos Kolpos,79.8488668,9.3229187,"An ancient place, cited: BAtlas 5 D4 Argarikos Kolpos"
49871,https://pleiades.stoa.org/places/49871,Argarou,78.67343905322404,11.097740890827586,"An ancient place, cited: BAtlas 5 D4 Argarou"
49873,https://pleiades.stoa.org/places/49873,Argyra Chora,93.34122475988259,20.39820598855183,"An ancient place, cited: BAtlas 5 G2 Argyra Chora"
49878,https://pleiades.stoa.org/places/49878,Arouaia M.,78.95764465550293,14.078904512618754,"An ancient place, cited: BAtlas 5 D4 Arouaia M."
49880,https://pleiades.stoa.org/places/49880,Astakapra,72.268473,21.608478,"An ancient place, cited: BAtlas 5 C2 Astakapra"
49883,https://pleiades.stoa.org/places/49883,Athirala,79.030061,14.020422,"An ancient place, cited: BAtlas 5 D4 Athirala"
49884,https://pleiades.stoa.org/places/49884,Attikuli,79.972546,8.897691,"An ancient place, cited: BAtlas 5 inset Attikuli"
49886,https://pleiades.stoa.org/places/49886,Azanos? (river),80.0,10.0,"An ancient place, cited: BAtlas 5 inset Azanos? fl."
49891,https://pleiades.stoa.org/places/49891,Balapitiya,80.039504,6.290816,"An ancient place, cited: BAtlas 5 inset Balapitiya"
49892,https://pleiades.stoa.org/places/49892,Balita/Bambala,76.990276,8.380214,"An ancient place, cited: BAtlas 5 D5 Balita/Bambala"
49896,https://pleiades.stoa.org/places/49896,Bangalore,77.590624,12.968424,"An ancient place, cited: BAtlas 5 D4 Bangalore"
49901,https://pleiades.stoa.org/places/49901,Baris (river),76.85072642424458,9.377496532851488,"An ancient place, cited: BAtlas 5 D5 Baris fl."
49906,https://pleiades.stoa.org/places/49906,Bassa (island),81.48132,6.18202,"An ancient place, cited: BAtlas 5 inset Bassa Ins."
49907,https://pleiades.stoa.org/places/49907,Bata,78.827628,10.37826,"An ancient place, cited: BAtlas 5 D4 Bata"
49910,https://pleiades.stoa.org/places/49910,Batticaloa,81.682337,7.735421,"An ancient place, cited: BAtlas 5 inset Batticaloa"
49911,https://pleiades.stoa.org/places/49911,Bazakata? (island),93.38353411481158,19.215633731471772,"An ancient place, cited: BAtlas 5 G3 Bazakata? Ins."
49912,https://pleiades.stoa.org/places/49912,Benagouron,81.004404,16.642933,"An ancient place, cited: BAtlas 5 E3 Benagouron"
49913,https://pleiades.stoa.org/places/49913,Bendas (river),72.5,17.5,"An ancient place, cited: BAtlas 5 C3 Bendas fl."
49916,https://pleiades.stoa.org/places/49916,Bhagavanpavam,84.168049,18.538293,"An ancient place, cited: BAtlas 5 E3 Bhagavanpavam"
49917,https://pleiades.stoa.org/places/49917,Bhatkuli,77.507825,15.81095,"An ancient place, cited: BAtlas 5 D3 Bhatkuli"
49918,https://pleiades.stoa.org/places/49918,Bhokardan,75.769909,20.252014,"An ancient place, cited: BAtlas 5 D2 Bhokardan"
49921,https://pleiades.stoa.org/places/49921,Bishopsdown,76.698626,11.309907,"An ancient place, cited: BAtlas 5 D4 Bishopsdown"
49922,https://pleiades.stoa.org/places/49922,Bittigo M.,76.81426578787415,10.567355478899778,"An ancient place, cited: BAtlas 5 D4 Bittigo M."
49924,https://pleiades.stoa.org/places/49924,Boragoda,81.231243,7.117366,"An ancient place, cited: BAtlas 5 inset Boragoda"
49926,https://pleiades.stoa.org/places/49926,Brahmagiri,76.772076,14.660387,"An ancient place, cited: BAtlas 5 D4 Brahmagiri"
49927,https://pleiades.stoa.org/places/49927,Budinathan,77.25846,10.370429,"An ancient place, cited: BAtlas 5 D4 Budinathan"
49929,https://pleiades.stoa.org/places/49929,Byzantion?,73.339812,16.503036,"An ancient place, cited: BAtlas 5 C3 Byzantion?"
49931,https://pleiades.stoa.org/places/49931,Cabirus (river),77.10451499147801,11.93251178217356,"An ancient place, cited: BAtlas 5 D4 Cabirus fl."
49933,https://pleiades.stoa.org/places/49933,Calamina,80.170138,12.846573,"An ancient place, cited: BAtlas 5 E4 Calamina"
49935,https://pleiades.stoa.org/places/49935,Calingon Pr.,82.5,17.5,"An ancient place, cited: BAtlas 5 E3 Calingon Pr."
49939,https://pleiades.stoa.org/places/49939,Chaberis Emporion,79.85456,11.025067,"An ancient place, cited: BAtlas 5 D4 Chaberis Emporion"
49941,https://pleiades.stoa.org/places/49941,Chandravalli,76.447865,14.042306,"An ancient place, cited: BAtlas 5 D4 Chandravalli"
49944,https://pleiades.stoa.org/places/49944,Chavadipalaiyam,77.68957,11.100144,"An ancient place, cited: BAtlas 5 D4 Chavadipalaiyam"
49945,https://pleiades.stoa.org/places/49945,Chersonesos,74.131102,14.811768,"An ancient place, cited: BAtlas 5 C4 Chersonesos"
49951,https://pleiades.stoa.org/places/49951,Coliacum/Kalligikon Pr.,79.8258095,10.2781938,"An ancient place, cited: BAtlas 5 D4 Coliacum/Kalligikon Pr."
49952,https://pleiades.stoa.org/places/49952,Colombo,79.85269426215123,6.932385848675455,"An ancient place, cited: BAtlas 5 inset Colombo"
49954,https://pleiades.stoa.org/places/49954,Cydara (river),80.0,10.0,"An ancient place, cited: BAtlas 5 inset Cydara fl."
49956,https://pleiades.stoa.org/places/49956,Dachinabades,78.31466548337144,19.167558683363467,"An ancient place, cited: BAtlas 5 D2 Dachinabades"
49958,https://pleiades.stoa.org/places/49958,Dandagula/Paloura,83.921094,18.244258,"An ancient place, cited: BAtlas 5 E3 Dandagula/Paloura"
49960,https://pleiades.stoa.org/places/49960,Deopalli,73.835692,19.944583,"An ancient place, cited: BAtlas 5 C3 Deopalli"
49961,https://pleiades.stoa.org/places/49961,Desarene,85.48611060294839,20.455815579010682,"An ancient place, cited: BAtlas 5 E2 Desarene"
49962,https://pleiades.stoa.org/places/49962,Dharphal,72.5,17.5,"An ancient place, cited: BAtlas 5 C3 Dharphal"
49963,https://pleiades.stoa.org/places/49963,Dhatva,73.034315,21.28653,"An ancient place, cited: BAtlas 5 C2 Dhatva"
49967,https://pleiades.stoa.org/places/49967,Dosaron (river),87.5,22.5,"An ancient place, cited: BAtlas 5 F2 Dosaron fl."
49968,https://pleiades.stoa.org/places/49968,Dounga,72.90704,19.205176,"An ancient place, cited: BAtlas 5 C3 Dounga"
49972,https://pleiades.stoa.org/places/49972,Elankoros,77.265021,8.19228,"An ancient place, cited: BAtlas 5 D5 Elankoros"
49978,https://pleiades.stoa.org/places/49978,Eyyal,76.275437,10.490381,"An ancient place, cited: BAtlas 5 D4 Eyyal"
49989,https://pleiades.stoa.org/places/49989,Goaris (river),73.19488554781043,19.114973628023396,"An ancient place, cited: BAtlas 5 C3 Goaris fl."
49991,https://pleiades.stoa.org/places/49991,Gootiparti,79.386282,16.96695,"An ancient place, cited: BAtlas 5 D3 Gootiparti"
49992,https://pleiades.stoa.org/places/49992,Gumada,83.407061,17.900337,"An ancient place, cited: BAtlas 5 E3 Gumada"
49995,https://pleiades.stoa.org/places/49995,Hendala,79.873839,6.972562,"An ancient place, cited: BAtlas 5 inset Hendala"
49997,https://pleiades.stoa.org/places/49997,Herone (island),72.5,22.5,"An ancient place, cited: BAtlas 5 C2 Herone Ins."
49998,https://pleiades.stoa.org/places/49998,Hikkaduwa,80.11780514431346,6.129456741721451,"An ancient place, cited: BAtlas 5 inset Hikkaduwa"
49999,https://pleiades.stoa.org/places/49999,Hippokoura,74.35932,16.569362,"An ancient place, cited: BAtlas 5 C3 Hippokoura"
50000,https://pleiades.stoa.org/places/50000,Hippuri Pr.,79.866667,8.533333,"An ancient place, cited: BAtlas 5 inset Hippuri Pr."
50011,https://pleiades.stoa.org/places/50011,Jaffna,80.044986,9.661533,"An ancient place, cited: BAtlas 5 inset Jaffna"
50012,https://pleiades.stoa.org/places/50012,Junnar,73.88351,19.20886,"An ancient place, cited: BAtlas 5 C3 Junnar"
50014,https://pleiades.stoa.org/places/50014,Kadmat,72.7850455,11.2496691,"An ancient place, cited: BAtlas 5 C4 Kadmat"
50015,https://pleiades.stoa.org/places/50015,Kaineiton Nesos,72.5,12.5,"An ancient place, cited: BAtlas 5 C4 Kaineiton Nesos"
50017,https://pleiades.stoa.org/places/50017,Kalaikaris,76.334349,10.308184,"An ancient place, cited: BAtlas 5 D4 Kalaikaris"
50019,https://pleiades.stoa.org/places/50019,Kalindoia,77.5,12.5,"An ancient place, cited: BAtlas 5 D4 Kalindoia"
50020,https://pleiades.stoa.org/places/50020,Kaliour/Orthoura,78.679619,10.687267,"An ancient place, cited: BAtlas 5 D4 Kaliour/Orthoura"
50021,https://pleiades.stoa.org/places/50021,Kaliyamputhur,77.45179,10.323111,"An ancient place, cited: BAtlas 5 D4 Kaliyamputhur"
50022,https://pleiades.stoa.org/places/50022,Kallakinar,77.334093,10.811697,"An ancient place, cited: BAtlas 5 D4 Kallakinar"
50023,https://pleiades.stoa.org/places/50023,Kalliena,73.139156,19.272784,"An ancient place, cited: BAtlas 5 C3 Kalliena"
50024,https://pleiades.stoa.org/places/50024,Kalliga,83.966616,18.597236,"An ancient place, cited: BAtlas 5 E3 Kalliga"
50025,https://pleiades.stoa.org/places/50025,Kalligeris,76.152406,13.495276,"An ancient place, cited: BAtlas 5 D4 Kalligeris"
50032,https://pleiades.stoa.org/places/50032,Kammoni,72.925301,21.402921,"An ancient place, cited: BAtlas 5 C2 Kammoni"
50035,https://pleiades.stoa.org/places/50035,Kannagara?,81.06276,16.315208,"An ancient place, cited: BAtlas 5 E3 Kannagara?"
50038,https://pleiades.stoa.org/places/50038,Kantakossyla,80.260333,16.150994,"An ancient place, cited: BAtlas 5 E3 Kantakossyla"
50040,https://pleiades.stoa.org/places/50040,Kapuhenvala,80.273603,8.022877,"An ancient place, cited: BAtlas 5 inset Kapuhenvala"
50042,https://pleiades.stoa.org/places/50042,Karige,79.690518,11.432137,"An ancient place, cited: BAtlas 5 D4 Karige"
50043,https://pleiades.stoa.org/places/50043,Karivalamvandanallur,77.578469,9.149927,"An ancient place, cited: BAtlas 5 D5 Karivalamvandanallur"
50044,https://pleiades.stoa.org/places/50044,Karmara,79.632958,10.771881,"An ancient place, cited: BAtlas 5 D4 Karmara"
50046,https://pleiades.stoa.org/places/50046,Karoura,77.5,12.5,"An ancient place, cited: BAtlas 5 D4 Karoura"
50047,https://pleiades.stoa.org/places/50047,Karukkakkuriochi,79.166017,10.329253,"An ancient place, cited: BAtlas 5 D4 Karukkakkuriochi"
50048,https://pleiades.stoa.org/places/50048,Karur,78.079902,10.951893,"An ancient place, cited: BAtlas 5 D4 Karur"
50051,https://pleiades.stoa.org/places/50051,Kathanganni,77.427325,10.686144,"An ancient place, cited: BAtlas 5 D4 Kathanganni"
50052,https://pleiades.stoa.org/places/50052,Katriyal,75.78982,16.64652,"An ancient place, cited: BAtlas 5 D3 Katriyal"
50055,https://pleiades.stoa.org/places/50055,Kerobothros,76.25058185317283,10.90479485224958,"An ancient place, cited: BAtlas 5 D4 Kerobothros"
50060,https://pleiades.stoa.org/places/50060,Koddoura,80.930118,16.259169,"An ancient place, cited: BAtlas 5 E3 Koddoura"
50064,https://pleiades.stoa.org/places/50064,Kolchoi,78.01884,8.612651,"An ancient place, cited: BAtlas 5 D5 Kolchoi"
50068,https://pleiades.stoa.org/places/50068,Kondapur,78.362612,17.428536,"An ancient place, cited: BAtlas 5 D3 Kondapur"
50070,https://pleiades.stoa.org/places/50070,Koneripatty,77.829432,11.542717,"An ancient place, cited: BAtlas 5 D4 Koneripatty"
50073,https://pleiades.stoa.org/places/50073,Koreoura?,76.036497,10.594294,"An ancient place, cited: BAtlas 5 D4 Koreoura?"
50074,https://pleiades.stoa.org/places/50074,Korounkala,79.587917,17.998359,"An ancient place, cited: BAtlas 5 D3 Korounkala"
50076,https://pleiades.stoa.org/places/50076,Kory (island),79.32526871393956,9.24417392393757,"An ancient place, cited: BAtlas 5 D5 Kory Ins."
50078,https://pleiades.stoa.org/places/50078,Kotpad,83.301502,17.917534,"An ancient place, cited: BAtlas 5 E3 Kotpad"
50079,https://pleiades.stoa.org/places/50079,Kottayam,76.521245,9.586011,"An ancient place, cited: BAtlas 5 D5 Kottayam"
50080,https://pleiades.stoa.org/places/50080,Kottiara,76.777701,8.991778,"An ancient place, cited: BAtlas 5 D5 Kottiara"
50081,https://pleiades.stoa.org/places/50081,Kottis,79.904146,15.074163,"An ancient place, cited: BAtlas 5 E3 Kottis"
50082,https://pleiades.stoa.org/places/50082,Kottobora,80.992405,16.421321,"An ancient place, cited: BAtlas 5 E3 Kottobora"
50083,https://pleiades.stoa.org/places/50083,Kourelloura,77.170952,11.067143,"An ancient place, cited: BAtlas 5 D4 Kourelloura"
50084,https://pleiades.stoa.org/places/50084,Kouroula,79.837316,10.926422,"An ancient place, cited: BAtlas 5 D4 Kouroula"
50085,https://pleiades.stoa.org/places/50085,Kudavelli,77.5,17.5,"An ancient place, cited: BAtlas 5 D3 Kudavelli"
50086,https://pleiades.stoa.org/places/50086,Kulattupalaiyam,77.89183,10.917509,"An ancient place, cited: BAtlas 5 D4 Kulattupalaiyam"
50091,https://pleiades.stoa.org/places/50091,Leuke (island),74.3250429,14.0188543,"An ancient place, cited: BAtlas 5 C4 Leuke Ins."
50092,https://pleiades.stoa.org/places/50092,Limyrike,75.92164718452868,11.071631803796759,"An ancient place, cited: BAtlas 5 D4 Limyrike"
50093,https://pleiades.stoa.org/places/50093,Lingarajupalem,82.733563,17.398822,"An ancient place, cited: BAtlas 5 E3 Lingarajupalem"
50096,https://pleiades.stoa.org/places/50096,Maagrammon,81.278156,6.28428,"An ancient place, cited: BAtlas 5 inset Maagrammon"
50099,https://pleiades.stoa.org/places/50099,Magaris,85.994719,20.378459,"An ancient place, cited: BAtlas 5 F2 Magaris"
50104,https://pleiades.stoa.org/places/50104,Maisolos (river),77.23648317768321,16.57542963071817,"An ancient place, cited: BAtlas 5 D3 Maisolos fl."
50107,https://pleiades.stoa.org/places/50107,Malanga,79.69958,12.838963,"An ancient place, cited: BAtlas 5 D4 Malanga"
50110,https://pleiades.stoa.org/places/50110,Mallayapalam,79.858189,15.825602,"An ancient place, cited: BAtlas 5 E3 Mallayapalam"
50114,https://pleiades.stoa.org/places/50114,Mambalam,80.274633,13.037431,"An ancient place, cited: BAtlas 5 E4 Mambalam"
50116,https://pleiades.stoa.org/places/50116,Mandagara?,73.03939,17.951342,"An ancient place, cited: BAtlas 5 C3 Mandagara?"
50117,https://pleiades.stoa.org/places/50117,Mandas (river),78.06443769366221,18.7916693485695,"An ancient place, cited: BAtlas 5 E3 Mandas fl."
50119,https://pleiades.stoa.org/places/50119,Mankada,76.177746,11.016492,"An ancient place, cited: BAtlas 5 D4 Mankada"
50123,https://pleiades.stoa.org/places/50123,Masalia,80.20345089471738,16.11050054235501,"An ancient place, cited: BAtlas 5 D3 Masalia"
50128,https://pleiades.stoa.org/places/50128,Melange,79.991827,14.159117,"An ancient place, cited: BAtlas 5 E4 Melange"
50133,https://pleiades.stoa.org/places/50133,Milizigeris?/Sigerus?,73.213429,17.294362,"An ancient place, cited: BAtlas 5 C3 Milizigeris?/Sigerus?"
50137,https://pleiades.stoa.org/places/50137,Modogoulla,76.439,16.001479,"An ancient place, cited: BAtlas 5 D3 Modogoulla"
50138,https://pleiades.stoa.org/places/50138,Modoura,78.122503,9.90839,"An ancient place, cited: BAtlas 5 D5 Modoura"
50141,https://pleiades.stoa.org/places/50141,Monoglosson Emporion,70.246746,21.020751,"An ancient place, cited: BAtlas 5 C2 Monoglosson Emporion"
50145,https://pleiades.stoa.org/places/50145,Musiris? L.,77.5,12.5,"An ancient place, cited: BAtlas 5 D4 Musiris? L."
50147,https://pleiades.stoa.org/places/50147,Mysore,77.5,12.5,"An ancient place, cited: BAtlas 5 D4 Mysore"
50151,https://pleiades.stoa.org/places/50151,Nagagoura,79.096187,21.146995,"An ancient place, cited: BAtlas 5 D2 Nagagoura"
50152,https://pleiades.stoa.org/places/50152,Nagara,70.613902,21.603402,"An ancient place, cited: BAtlas 5 C2 Nagara"
50154,https://pleiades.stoa.org/places/50154,Nagdhara,73.090774,20.921614,"An ancient place, cited: BAtlas 5 C2 Nagdhara"
50155,https://pleiades.stoa.org/places/50155,Nagour,79.775066,11.18796,"An ancient place, cited: BAtlas 5 D4 Nagour"
50157,https://pleiades.stoa.org/places/50157,Nanagounas (river),75.53370878175613,21.417089960223095,"An ancient place, cited: BAtlas 5 C2 Nanagounas fl."
50158,https://pleiades.stoa.org/places/50158,Nandyal,78.482406,15.47641,"An ancient place, cited: BAtlas 5 D3 Nandyal"
50159,https://pleiades.stoa.org/places/50159,Nanigaina,80.286238,16.770014,"An ancient place, cited: BAtlas 5 E3 Nanigaina"
50160,https://pleiades.stoa.org/places/50160,Naoura/Nitriae,74.449703,14.281472,"An ancient place, cited: BAtlas 5 C4 Naoura/Nitriae"
50162,https://pleiades.stoa.org/places/50162,Nasika,73.777681,19.993198,"An ancient place, cited: BAtlas 5 C3 Nasika"
50163,https://pleiades.stoa.org/places/50163,Nastullapur,78.838349,18.165296,"An ancient place, cited: BAtlas 5 D3 Nastullapur"
50166,https://pleiades.stoa.org/places/50166,Nellore,79.984779,14.450364,"An ancient place, cited: BAtlas 5 D4 Nellore"
50167,https://pleiades.stoa.org/places/50167,Nevasa,74.894449,19.62041,"An ancient place, cited: BAtlas 5 C3 Nevasa"
50168,https://pleiades.stoa.org/places/50168,Nikama,79.842074,10.784632,"An ancient place, cited: BAtlas 5 D4 Nikama"
50170,https://pleiades.stoa.org/places/50170,Nousaripa,72.924985,20.944035,"An ancient place, cited: BAtlas 5 C2 Nousaripa"
50172,https://pleiades.stoa.org/places/50172,Odoka,80.226317,6.045488,"An ancient place, cited: BAtlas 5 inset Odoka"
50174,https://pleiades.stoa.org/places/50174,Olochoira,74.720013,13.344129,"An ancient place, cited: BAtlas 5 C4 Olochoira"
50175,https://pleiades.stoa.org/places/50175,Ongole,80.047904,15.488367,"An ancient place, cited: BAtlas 5 E3 Ongole"
50179,https://pleiades.stoa.org/places/50179,Orneon? Pr.,80.5916227,5.9192089,"An ancient place, cited: BAtlas 5 inset Orneon? Pr."
50182,https://pleiades.stoa.org/places/50182,Ouangana? (island),79.83167340477169,9.596698163244023,"An ancient place, cited: BAtlas 5 inset Ouangana? Ins."
50184,https://pleiades.stoa.org/places/50184,Oulippada?,80.497715,6.808048,"An ancient place, cited: BAtlas 5 inset Oulippada?"
50192,https://pleiades.stoa.org/places/50192,Paithana,75.385416,19.468043,"An ancient place, cited: BAtlas 5 D3 Paithana"
50194,https://pleiades.stoa.org/places/50194,Palaeogoni/Serendivae,80.8953661251433,7.5738998443082135,"An ancient place, cited: BAtlas 5 inset Palaeogoni/Serendivae"
50196,https://pleiades.stoa.org/places/50196,Palaipatmai?,73.302413,17.526305,"An ancient place, cited: BAtlas 5 C3 Palaipatmai?"
50199,https://pleiades.stoa.org/places/50199,Paloura,76.700285,10.472567,"An ancient place, cited: BAtlas 5 D4 Paloura"
50201,https://pleiades.stoa.org/places/50201,Pandion,78.19358994658116,9.653858785357345,"An ancient place, cited: BAtlas 5 D5 Pandion"
50202,https://pleiades.stoa.org/places/50202,Pandipatna,80.194277,12.614347,"An ancient place, cited: BAtlas 5 E4 Pandipatna"
50204,https://pleiades.stoa.org/places/50204,Papike Pr.,72.5,22.5,"An ancient place, cited: BAtlas 5 C2 Papike Pr."
50205,https://pleiades.stoa.org/places/50205,Paralia,77.50765587158209,8.531066006606288,"An ancient place, cited: BAtlas 5 D5 Paralia"
50209,https://pleiades.stoa.org/places/50209,Paunar,73.648209,20.794336,"An ancient place, cited: BAtlas 5 C2 Paunar"
50210,https://pleiades.stoa.org/places/50210,Peddabunkur,79.094869,18.295769,"An ancient place, cited: BAtlas 5 D3 Peddabunkur"
50213,https://pleiades.stoa.org/places/50213,Perinkari,78.616334,9.684856,"An ancient place, cited: BAtlas 5 D5 Perinkari"
50216,https://pleiades.stoa.org/places/50216,Phrourion,79.414997,12.245497,"An ancient place, cited: BAtlas 5 D4 Phrourion"
50218,https://pleiades.stoa.org/places/50218,Pidarikulam,80.0153675,8.832784,"An ancient place, cited: BAtlas 5 inset Pidarikulam"
50219,https://pleiades.stoa.org/places/50219,Pitoura,80.031192,16.346845,"An ancient place, cited: BAtlas 5 E3 Pitoura"
50220,https://pleiades.stoa.org/places/50220,Podoperoura,76.561462,10.595404,"An ancient place, cited: BAtlas 5 D4 Podoperoura"
50225,https://pleiades.stoa.org/places/50225,Poulipoula,72.963116,20.769455,"An ancient place, cited: BAtlas 5 C2 Poulipoula"
50226,https://pleiades.stoa.org/places/50226,Pounnata,76.530222,9.584268,"An ancient place, cited: BAtlas 5 D5 Pounnata"
50227,https://pleiades.stoa.org/places/50227,Prabhas Patan,70.402269,20.890744,"An ancient place, cited: BAtlas 5 C2 Prabhas Patan"
50236,https://pleiades.stoa.org/places/50236,Pyrron Oros,77.5,7.5,"An ancient place, cited: BAtlas 5 D5 Pyrron Oros"
50243,https://pleiades.stoa.org/places/50243,Sada,93.330422,20.013925,"An ancient place, cited: BAtlas 5 G2 Sada"
50250,https://pleiades.stoa.org/places/50250,Salihundan,83.963492,18.336424,"An ancient place, cited: BAtlas 5 E3 Salihundan"
50252,https://pleiades.stoa.org/places/50252,Saline? (island),93.6353035,18.7969257,"An ancient place, cited: BAtlas 5 G3 Saline? Ins."
50254,https://pleiades.stoa.org/places/50254,Sanpewada,79.291868,21.025933,"An ancient place, cited: BAtlas 5 D2 Sanpewada"
50260,https://pleiades.stoa.org/places/50260,Selour,77.38007,10.432112,"An ancient place, cited: BAtlas 5 D4 Selour"
50261,https://pleiades.stoa.org/places/50261,Semylla,72.947229,18.521268,"An ancient place, cited: BAtlas 5 C3 Semylla"
50264,https://pleiades.stoa.org/places/50264,Sesekreienai? Inss.,72.5,17.5,"An ancient place, cited: BAtlas 5 C3 Sesekreienai? Inss."
50271,https://pleiades.stoa.org/places/50271,Sippara,83.554891,18.300264,"An ancient place, cited: BAtlas 5 E3 Sippara"
50273,https://pleiades.stoa.org/places/50273,Sisupalgarh,80.880875,20.230313,"An ancient place, cited: BAtlas 5 F2 Sisupalgarh"
50275,https://pleiades.stoa.org/places/50275,Solen (river),77.5,7.5,"An ancient place, cited: BAtlas 5 D5 Solen fl."
50278,https://pleiades.stoa.org/places/50278,Sopatma,79.942282,12.188994,"An ancient place, cited: BAtlas 5 D4 Sopatma"
50279,https://pleiades.stoa.org/places/50279,Sorai,79.03998187266694,12.376989244653016,"An ancient place, cited: BAtlas 5 D4 Sorai"
50281,https://pleiades.stoa.org/places/50281,Souboura,79.763329,11.750868,"An ancient place, cited: BAtlas 5 D4 Souboura"
50282,https://pleiades.stoa.org/places/50282,Souppara,72.804527,19.434113,"An ancient place, cited: BAtlas 5 C3 Souppara"
50290,https://pleiades.stoa.org/places/50290,Surat,72.822554,21.18813,"An ancient place, cited: BAtlas 5 C2 Surat"
50291,https://pleiades.stoa.org/places/50291,Syrastrene,70.71643056261146,21.21847095452941,"An ancient place, cited: BAtlas 5 B2 Syrastrene"
50293,https://pleiades.stoa.org/places/50293,Tadali,79.114719,20.091678,"An ancient place, cited: BAtlas 5 D2 Tadali"
50294,https://pleiades.stoa.org/places/50294,Tagara,76.14594,18.301382,"An ancient place, cited: BAtlas 5 D3 Tagara"
50295,https://pleiades.stoa.org/places/50295,Tainour,77.93307,9.869413,"An ancient place, cited: BAtlas 5 D5 Tainour"
50297,https://pleiades.stoa.org/places/50297,Tangala,77.833286,9.700443,"An ancient place, cited: BAtlas 5 D5 Tangala"
50300,https://pleiades.stoa.org/places/50300,*Templum Augusti,76.207229,10.157551,"An ancient place, cited: BAtlas 5 D4 *Templum Augusti"
50301,https://pleiades.stoa.org/places/50301,Tennagora,77.897214,11.376307,"An ancient place, cited: BAtlas 5 D4 Tennagora"
50303,https://pleiades.stoa.org/places/50303,Thanjavur,79.141673,10.783937,"An ancient place, cited: BAtlas 5 D4 Thanjavur"
50305,https://pleiades.stoa.org/places/50305,Tiagoura,74.204221,20.344225,"An ancient place, cited: BAtlas 5 C2 Tiagoura"
50307,https://pleiades.stoa.org/places/50307,Tondamanathan,79.681619,11.52503,"An ancient place, cited: BAtlas 5 D4 Tondamanathan"
50308,https://pleiades.stoa.org/places/50308,Toparon?,73.58469,16.220106,"An ancient place, cited: BAtlas 5 C3 Toparon?"
50309,https://pleiades.stoa.org/places/50309,Tosale,86.016551,20.141589,"An ancient place, cited: BAtlas 5 F2 Tosale"
50311,https://pleiades.stoa.org/places/50311,Tropina,76.482942,9.806614,"An ancient place, cited: BAtlas 5 D5 Tropina"
50312,https://pleiades.stoa.org/places/50312,Tyndis,75.926477,10.763548,"An ancient place, cited: BAtlas 5 D4 Tyndis"
50314,https://pleiades.stoa.org/places/50314,Tynnas (river),77.5,12.5,"An ancient place, cited: BAtlas 5 D4 Tynnas fl."
50315,https://pleiades.stoa.org/places/50315,Tyrannosboas?,73.472008,16.078557,"An ancient place, cited: BAtlas 5 C3 Tyrannosboas?"
50318,https://pleiades.stoa.org/places/50318,Udappu,79.986721,8.514013,"An ancient place, cited: BAtlas 5 inset Udappu"
50320,https://pleiades.stoa.org/places/50320,Vadgaon,74.665214,15.763323,"An ancient place, cited: BAtlas 5 C3 Vadgaon"
50322,https://pleiades.stoa.org/places/50322,Valaicchenai,81.630057,6.971356,"An ancient place, cited: BAtlas 5 inset Valaicchenai"
50323,https://pleiades.stoa.org/places/50323,Valuvaly,76.546666,10.711186,"An ancient place, cited: BAtlas 5 D4 Valuvaly"
50324,https://pleiades.stoa.org/places/50324,Vasavasamudram,80.118864,12.49946,"An ancient place, cited: BAtlas 5 E4 Vasavasamudram"
50325,https://pleiades.stoa.org/places/50325,Veeravasaram,81.483682,16.467309,"An ancient place, cited: BAtlas 5 E3 Veeravasaram"
50326,https://pleiades.stoa.org/places/50326,Vellalore,77.055401,10.806522,"An ancient place, cited: BAtlas 5 D4 Vellalore"
50328,https://pleiades.stoa.org/places/50328,Vidiyadurrapuram,80.595167,16.415293,"An ancient place, cited: BAtlas 5 E3 Vidiyadurrapuram"
50329,https://pleiades.stoa.org/places/50329,Vinukonda,83.589194,18.040711,"An ancient place, cited: BAtlas 5 E3 Vinukonda"
50332,https://pleiades.stoa.org/places/50332,Waghoda,75.418646,21.151298,"An ancient place, cited: BAtlas 5 D2 Waghoda"
50333,https://pleiades.stoa.org/places/50333,Weepangandla,78.297275,16.280753,"An ancient place, cited: BAtlas 5 D3 Weepangandla"
50335,https://pleiades.stoa.org/places/50335,Yashwantpur,77.551183,13.020918,"An ancient place, cited: BAtlas 5 D4 Yashwantpur"
50336,https://pleiades.stoa.org/places/50336,Yelleshwaram,78.970364,16.159267,"An ancient place, cited: BAtlas 5 D3 Yelleshwaram"
50338,https://pleiades.stoa.org/places/50338,Zaba? (island),81.716667,6.4,"An ancient place, cited: BAtlas 5 inset Zaba? Ins."
50587,https://pleiades.stoa.org/places/50587,Adarima,,,"An ancient place, cited: BAtlas 5 unlocated Adarima"
50588,https://pleiades.stoa.org/places/50588,Adisamon,,,"An ancient place, cited: BAtlas 5 unlocated Adisamon"
50589,https://pleiades.stoa.org/places/50589,Adisathra,,,"An ancient place, cited: BAtlas 5 unlocated Adisathra"
50591,https://pleiades.stoa.org/places/50591,Agara,,,"An ancient place, cited: BAtlas 5 unlocated Agara"
50592,https://pleiades.stoa.org/places/50592,Agathou Daimonos (island),80.0,-20.0,"An ancient place, cited: BAtlas 5 unlocated Agathou Daimonos Ins."
50593,https://pleiades.stoa.org/places/50593,Agrinagara,,,"An ancient place, cited: BAtlas 5 unlocated Agrinagara"
50594,https://pleiades.stoa.org/places/50594,Alaba,,,"An ancient place, cited: BAtlas 5 unlocated Alaba Ins."
50595,https://pleiades.stoa.org/places/50595,Amaraththa,,,"An ancient place, cited: BAtlas 5 unlocated Amaraththa"
50597,https://pleiades.stoa.org/places/50597,Ammine,,,"An ancient place, cited: BAtlas 5 unlocated Ammine Ins."
50598,https://pleiades.stoa.org/places/50598,Anarta,,,"An ancient place, cited: BAtlas 5 unlocated Anarta"
50600,https://pleiades.stoa.org/places/50600,Anoubartha,,,"An ancient place, cited: BAtlas 5 unlocated Anoubartha"
50601,https://pleiades.stoa.org/places/50601,Anoubingara,,,"An ancient place, cited: BAtlas 5 unlocated Anoubingara"
50602,https://pleiades.stoa.org/places/50602,Arana,,,"An ancient place, cited: BAtlas 5 unlocated Arana Ins."
50603,https://pleiades.stoa.org/places/50603,Arembour,,,"An ancient place, cited: BAtlas 5 unlocated Arembour"
50604,https://pleiades.stoa.org/places/50604,Armagara,,,"An ancient place, cited: BAtlas 5 unlocated Armagara"
50605,https://pleiades.stoa.org/places/50605,Aspathis,,,"An ancient place, cited: BAtlas 5 unlocated Aspathis"
50606,https://pleiades.stoa.org/places/50606,Aunes (river),,,"An ancient place, cited: BAtlas 5 unlocated Aunes fl."
50609,https://pleiades.stoa.org/places/50609,Balaka,,,"An ancient place, cited: BAtlas 5 unlocated Balaka Ins."
50610,https://pleiades.stoa.org/places/50610,Balantipyrgon,,,"An ancient place, cited: BAtlas 5 unlocated Balantipyrgon"
50611,https://pleiades.stoa.org/places/50611,Barakes (river),,,"An ancient place, cited: BAtlas 5 unlocated Barakes fl."
50612,https://pleiades.stoa.org/places/50612,Barakoura,,,"An ancient place, cited: BAtlas 5 unlocated Barakoura"
50613,https://pleiades.stoa.org/places/50613,Bardamana,,,"An ancient place, cited: BAtlas 5 unlocated Bardamana"
50614,https://pleiades.stoa.org/places/50614,Bardaotis,,,"An ancient place, cited: BAtlas 5 unlocated Bardaotis"
50615,https://pleiades.stoa.org/places/50615,Bere,,,"An ancient place, cited: BAtlas 5 unlocated Bere"
50616,https://pleiades.stoa.org/places/50616,Bideris,,,"An ancient place, cited: BAtlas 5 unlocated Bideris"
50617,https://pleiades.stoa.org/places/50617,Bitala,,,"An ancient place, cited: BAtlas 5 unlocated Bitala Ins."
50618,https://pleiades.stoa.org/places/50618,Bizala,,,"An ancient place, cited: BAtlas 5 unlocated Bizala"
50619,https://pleiades.stoa.org/places/50619,Bokana,,,"An ancient place, cited: BAtlas 5 unlocated Bokana"
50621,https://pleiades.stoa.org/places/50621,Boranga,,,"An ancient place, cited: BAtlas 5 unlocated Boranga"
50623,https://pleiades.stoa.org/places/50623,Bramagara,,,"An ancient place, cited: BAtlas 5 unlocated Bramagara"
50624,https://pleiades.stoa.org/places/50624,Bramme,,,"An ancient place, cited: BAtlas 5 unlocated Bramme"
50625,https://pleiades.stoa.org/places/50625,Bridama,,,"An ancient place, cited: BAtlas 5 unlocated Bridama"
50628,https://pleiades.stoa.org/places/50628,Callinipaza,,,"An ancient place, cited: BAtlas 5 unlocated Callinipaza"
50629,https://pleiades.stoa.org/places/50629,Carsania,,,"An ancient place, cited: BAtlas 5 unlocated Carsania"
50631,https://pleiades.stoa.org/places/50631,Crenacca,,,"An ancient place, cited: BAtlas 5 unlocated Crenacca fl."
50633,https://pleiades.stoa.org/places/50633,Dionysoupolis,,,"An ancient place, cited: BAtlas 5 unlocated Dionysoupolis"
50636,https://pleiades.stoa.org/places/50636,Eikour,,,"An ancient place, cited: BAtlas 5 unlocated Eikour"
50637,https://pleiades.stoa.org/places/50637,Eirene,,,"An ancient place, cited: BAtlas 5 unlocated Eirene Ins."
50638,https://pleiades.stoa.org/places/50638,Empelathra,,,"An ancient place, cited: BAtlas 5 unlocated Empelathra"
50640,https://pleiades.stoa.org/places/50640,Errenesis (river),,,"An ancient place, cited: BAtlas 5 unlocated Errenesis fl."
50642,https://pleiades.stoa.org/places/50642,Gabaliba,,,"An ancient place, cited: BAtlas 5 unlocated Gabaliba"
50643,https://pleiades.stoa.org/places/50643,Galiba,80.0,10.0,"An ancient place, cited: BAtlas 5 unlocated Galiba"
50646,https://pleiades.stoa.org/places/50646,Gammogoura,,,"An ancient place, cited: BAtlas 5 unlocated Gammogoura"
50647,https://pleiades.stoa.org/places/50647,Goumara,,,"An ancient place, cited: BAtlas 5 unlocated Goumara Ins."
50649,https://pleiades.stoa.org/places/50649,Hierakos,,,"An ancient place, cited: BAtlas 5 unlocated Hierakos Ins."
50650,https://pleiades.stoa.org/places/50650,Hippokoura,,,"An ancient place, cited: BAtlas 5 unlocated Hippokoura"
50652,https://pleiades.stoa.org/places/50652,Iatour,,,"An ancient place, cited: BAtlas 5 unlocated Iatour"
50653,https://pleiades.stoa.org/places/50653,Ikarta,,,"An ancient place, cited: BAtlas 5 unlocated Ikarta"
50654,https://pleiades.stoa.org/places/50654,Inde,,,"An ancient place, cited: BAtlas 5 unlocated Inde"
50655,https://pleiades.stoa.org/places/50655,Iogana,,,"An ancient place, cited: BAtlas 5 unlocated Iogana"
50657,https://pleiades.stoa.org/places/50657,Kalandadioua,,,"An ancient place, cited: BAtlas 5 unlocated Kalandadioua Ins."
50658,https://pleiades.stoa.org/places/50658,Karikardama,,,"An ancient place, cited: BAtlas 5 unlocated Karikardama"
50659,https://pleiades.stoa.org/places/50659,Kartasynar,,,"An ancient place, cited: BAtlas 5 unlocated Kartasynar"
50660,https://pleiades.stoa.org/places/50660,Kartinata,,,"An ancient place, cited: BAtlas 5 unlocated Kartinata"
50661,https://pleiades.stoa.org/places/50661,Kassida,,,"An ancient place, cited: BAtlas 5 unlocated Kassida"
50662,https://pleiades.stoa.org/places/50662,Kastra,,,"An ancient place, cited: BAtlas 5 unlocated Kastra"
