pid,uri,title,longitude,latitude,names
776,https://pleiades.stoa.org/places/776,Africum Mare,9.333752726837984,37.68713023884798,::Africum Mare
783,https://pleiades.stoa.org/places/783,Alpes (mountains),7.401755916845227,43.74479437887957,::Alpes M.|Ἄλπεις:grc:Alpeis
798,https://pleiades.stoa.org/places/798,Anatis/Asana (river),-5.325767734129178,33.02382868844972,::Anatis|:la:Asana
815,https://pleiades.stoa.org/places/815,Ap(p)enninus M.,12.761998634560495,42.95265657198761,::Appenninus M.|:la:Apenninus M.|Ἀπέννινον ὄρος:grc:Apenninon oros|Appennines:en:Appennines|Appennini:it:Appennini
837,https://pleiades.stoa.org/places/837,Asia Minor,27.278502749999998,37.910339750000006,::Asia Minor|Natolia:en:Natolia
845,https://pleiades.stoa.org/places/845,Atlanticus Oceanus,-19.665682,31.937048,oceanus Atlanticus:la:Atlanticus Oceanus|::Gaditanus Oceanus|::Hispanus Oceanus|::Hesperius Oceanus|:la:Occidentalis Oceanus|:ota:Baḥr-i Oḳyānūs
846,https://pleiades.stoa.org/places/846,Atlas (mountains),-6.033597780823801,32.25232149794394,:grc:Atlas|Atlas:la:Atlas
862,https://pleiades.stoa.org/places/862,Baetica,-2.3636132034531947,39.28572973090598,::Baetica
993,https://pleiades.stoa.org/places/993,Gallia,1.6706144893053327,46.360953305773286,::Gallia|::Galli
1000,https://pleiades.stoa.org/places/1000,Germania Superior,7.5,47.5,::Germania Superior
1004,https://pleiades.stoa.org/places/1004,(H)Adriaticum/Superum Mare,13.757172667463283,44.90974317072782,Hadriaticum:la:Hadriaticum|::Adriaticum|Superum Mare:la:Superum Mare|Ἰόνιος κόλπος:grc:Iónios kólpos|Adriatic Sea:en:Adriatic Sea
1027,https://pleiades.stoa.org/places/1027,Hispania,-7.5,42.5,::Hispania
1033,https://pleiades.stoa.org/places/1033,Ibericum Mare,-19.665682,31.937048,::Ibericum Mare|::Hibericum Mare
1043,https://pleiades.stoa.org/places/1043,Internum Mare,14.449366695083585,34.655205690792464,Internum Mare:la:Internum Mare|:en:Mediterranean Sea|Mare Intestinum:la:Mare Intestinum|Mare Nostrum:la:Mare Nostrum|:akk:Tâmtu elītu|:akk:Tâmtu elītu ša šulum Šamši|:akk:Tâmtu elēnītu ša šalām Šamši|:akk:Tâmtu elēnītu ša Amurrû|:akk:Tâmtu erēb Šamši|:akk:Tâmtu rabītu|:akk:Tâmtu rabītu ša Amurrû|:akk:Tâmtu rabītu ša Amurrû ša šulum Šamši|:akk:Tâmtu rabītu ša šulum Šamši|:akk:Tâmtu ša Amurrû|:akk:Tâmtu ša šulum Šamši|:akk:Tâmtu šalām Šamši|بحر روم:ota:Baḥr-i Rūm|بحرِ ابيض:ota:Baḥr-ı Ebyaż|دریاى ابيض:ota:Deryā-yı Ebyaż
1046,https://pleiades.stoa.org/places/1046,Ionium Mare,17.10639083568919,38.84541402167047,:la:Ionium Mare
1052,https://pleiades.stoa.org/places/1052,Italia,11.0949512,43.6941505,::Italia|Ἰταλία:grc:Italia
1063,https://pleiades.stoa.org/places/1063,Karpates Oros,20.1340595,49.1640319,::Karpates Oros|:en:Carpathian Mountains
1101,https://pleiades.stoa.org/places/1101,Lusitania (region),-8.013560314796992,38.79501920177801,::Lusitania
1119,https://pleiades.stoa.org/places/1119,Mauretania,-2.5,32.5,::Mauretania
1224,https://pleiades.stoa.org/places/1224,Pontus Euxinus,34.7425505,43.0786852,Pontus Euxinus:la:Pontus Euxinus|Black Sea:en:Black Sea|Ποντική Θάλαττα:grc:Pontike Thalatta|باحر نيطش:ota:Baḥr-i Nīṭaş|:ota:Ḳaradeñiz|دريا سواد:ota:Deryā-yı Sevād
1249,https://pleiades.stoa.org/places/1249,Rutubis,-8.510524,33.254782,::Rutubis
1273,https://pleiades.stoa.org/places/1273,Scythia,29.47509903778682,46.688700708155956,Scythia:la:Scythia|:grc:Skythai
1306,https://pleiades.stoa.org/places/1306,Syria,37.5,37.5,::Syria
1332,https://pleiades.stoa.org/places/1332,Thessalia,22.295432296217363,39.443868328499015,::Thessalia|Thessaly:en:Thessaly
1356,https://pleiades.stoa.org/places/1356,Tyrrhenum/Inferum Mare,12.671075447443245,41.646782949306164,:la:Tyrrhenum mare|inferum mare:la:Inferum Mare|:la:Tuscum mare|Τυρσηνικὸν πέλαγος:grc:Tyrsēnikòn pélagòs|Tyrrhenian Sea:en:Tyrrhenian Sea
20389,https://pleiades.stoa.org/places/20389,Aestii,22.5,52.5,::Aestii
20401,https://pleiades.stoa.org/places/20401,Auteinoi,-7.5,52.5,::Auteinoi
20419,https://pleiades.stoa.org/places/20419,Britannia/Albion (island),-2.422,53.826,Britannia:la:Britannia|Albion:la:Albion|Great Britain:en:Great Britain|:ota:Briṭāniyye
20420,https://pleiades.stoa.org/places/20420,Britannicum Mare,-2.0,50.0,::Britannicum Mare|:en:English Channel|:fr:la Manche
20429,https://pleiades.stoa.org/places/20429,Chersonesos Kimbrike,9.25,56.0,::Chersonesos Kimbrike
20430,https://pleiades.stoa.org/places/20430,Chesinos (river),24.137134352399137,56.94950997700292,::Chesinos
20431,https://pleiades.stoa.org/places/20431,Chronos (river),21.096891431549796,54.65344051381412,::Chronos|Преголя:ru:Pregolya
20442,https://pleiades.stoa.org/places/20442,‘Dabrona’ (river),-8.882755812722865,51.8766510301913,::Dabrona
20444,https://pleiades.stoa.org/places/20444,Dani,12.5,57.5,::Dani
20451,https://pleiades.stoa.org/places/20451,Dytikos Okeanos,-7.5,57.5,::Dytikos Okeanos
20456,https://pleiades.stoa.org/places/20456,Erdinoi,-7.5,52.5,::Erdinoi|::Erpeditanoi
20464,https://pleiades.stoa.org/places/20464,Galindai,22.5,52.5,::Galindai
20466,https://pleiades.stoa.org/places/20466,Ganganoi,-7.5,52.5,::Ganganoi
20467,https://pleiades.stoa.org/places/20467,Gepidi?,17.5,52.5,::Gepidi
20468,https://pleiades.stoa.org/places/20468,Germania,7.5,52.5,::Germania|::Barbaricum
20469,https://pleiades.stoa.org/places/20469,Germanicum Mare,3.0,56.0,:la:Germanicum Mare|Γερμανικὸς Ὠκεανός:grc:Germanikos Okeanos
20473,https://pleiades.stoa.org/places/20473,Gothiscandza,17.5,52.5,::Gothiscandza
20487,https://pleiades.stoa.org/places/20487,Hibernia,-8.599475027423367,53.04477149892999,Hibernia:la:Hibernia|Ἰέρνη:grc:Ierne|Éire:ga:Éire|:en:Ireland
20489,https://pleiades.stoa.org/places/20489,Hyperboreios/Douekaledonios Okeanos,-2.422,53.826,::Hyperboreios|::Douekaledonios Okeanos
20493,https://pleiades.stoa.org/places/20493,Iouernikos Okeanos,-5.0000001,53.6666671,::Iouernikos Okeanos|::Hibernikos Okeanos|Irish Sea:en:Irish Sea
20494,https://pleiades.stoa.org/places/20494,Iouernoi,-7.5,52.5,::Iouernoi
20497,https://pleiades.stoa.org/places/20497,[Iutae],7.5,57.5,::Iutae
20505,https://pleiades.stoa.org/places/20505,Karbones,22.5,57.5,::Karbones
20508,https://pleiades.stoa.org/places/20508,Kaukoi,-7.5,52.5,::Kaukoi
20533,https://pleiades.stoa.org/places/20533,Lugii,16.7764,51.527063,::Lugii|LVPIONES SARMATE:la:Lupiones Sarmate
20539,https://pleiades.stoa.org/places/20539,‘Magnatai’,-7.5,52.5,Μαγνάται:grc:Magnatai|::Nagnatai
20566,https://pleiades.stoa.org/places/20566,Osioi?,22.5,57.5,::Osioi
20567,https://pleiades.stoa.org/places/20567,Ouenedikos Kolpos,19.000573827357524,54.66101360365688,::Ouenedikos Kolpos
20568,https://pleiades.stoa.org/places/20568,Ouenniknioi,-7.5,52.5,::Ouenniknioi
20570,https://pleiades.stoa.org/places/20570,Ouiadoua (river),16.366545988430754,51.38239293687491,:grc:Ouiadoua
20586,https://pleiades.stoa.org/places/20586,Roudon (river),24.37511417148308,54.19352331311013,::Roudon|Neman:en:Neman
20594,https://pleiades.stoa.org/places/20594,Sarmaticus Oceanus,18.0,56.0,::Sarmaticus Oceanus
20595,https://pleiades.stoa.org/places/20595,Scadinavia/Scandza,7.5,62.5,::Scadinavia|::Scandza
20613,https://pleiades.stoa.org/places/20613,Soudinoi,22.5,52.5,::Soudinoi
20618,https://pleiades.stoa.org/places/20618,Suebicum Mare,20.0,58.0,::Suebicum Mare|:en:Baltic Sea|:ota:Baḥr-i Virenk
20619,https://pleiades.stoa.org/places/20619,Suiones?,12.5,57.5,:la:Suiones
20625,https://pleiades.stoa.org/places/20625,Tourountes? (river),22.5,57.5,::Tourountes
20634,https://pleiades.stoa.org/places/20634,Vandali,19.416275638511323,50.08671889124602,::Vandali|VANDVLI:la:Vanduli
20636,https://pleiades.stoa.org/places/20636,Vidivarii,17.5,52.5,::Vidivarii
20639,https://pleiades.stoa.org/places/20639,Vistula (river),20.05963418786485,51.65716560244051,::Vistula|Visula:la:Visula|Vistla:la:Vistla|Οὐιστούλα:grc:Ouistoula/Ouistoúla
21897,https://pleiades.stoa.org/places/21897,Ausoba (river),,,::Ausoba|Αὐσόβα ποταμοῦ ἐκβολαί:grc:Afsóva potamoú ekvolaí
21901,https://pleiades.stoa.org/places/21901,Dour (river),,,::Dour|Δουρ ποταμου εκβολαι:grc:Dour potamou ekvolai
21903,https://pleiades.stoa.org/places/21903,Iernos (river),,,::Iernos
21904,https://pleiades.stoa.org/places/21904,Iouernis,,,::Iouernis
21907,https://pleiades.stoa.org/places/21907,Luceni,,,::Luceni
21914,https://pleiades.stoa.org/places/21914,Ouellaboroi/Velabri,,,Οὐελλάβοροι:grc:Ouellaboroi|::Velabri
21915,https://pleiades.stoa.org/places/21915,Ouenniknion Akron,,,::Ouenniknion Akron
21916,https://pleiades.stoa.org/places/21916,Ousdiai,,,::Ousdiai
21919,https://pleiades.stoa.org/places/21919,Raouios (river),,,::Raouios
29457,https://pleiades.stoa.org/places/29457,Alexandria,62.16410466666667,34.331043666666666,::Alexandria
29461,https://pleiades.stoa.org/places/29461,Amata,37.239274,31.608198,::Amata
29463,https://pleiades.stoa.org/places/29463,Anauon,62.329170404052235,33.02135528788277,::Anauon
29475,https://pleiades.stoa.org/places/29475,Arabia (region),46.55153598369672,24.149005298567015,::Arabia|:akk:Arubu|:ota:Cezīretü’l-‘Arab
29482,https://pleiades.stoa.org/places/29482,Ari(m)aspai,62.050647063501486,30.446008917079386,::Arimaspai|::Ariaspai|::Euergitae
29492,https://pleiades.stoa.org/places/29492,Assyria (kingdom),43.24518914922291,36.10511410083722,:akk:Māt-Aššur|:akk:Subartu|:akk:Subaru|:akk:Šubartum|::Assyria|::Syria
29501,https://pleiades.stoa.org/places/29501,Bam,58.368953504896616,29.115595732452658,::Bam|None:arb:Bam|ارگ بم:fa:Bam
29503,https://pleiades.stoa.org/places/29503,Barna,62.331697,25.227074,::Barna
29540,https://pleiades.stoa.org/places/29540,Dahan-i Ghulaman/Zra(n)ka?,61.636091667455325,30.79630803090857,::Zranka|::Zraka|::Drangai|::Zarin
29542,https://pleiades.stoa.org/places/29542,Darabgird,54.544772,28.755075,::Darabgird
29547,https://pleiades.stoa.org/places/29547,Drangiane/Zarangiane (region),61.73790286018725,30.794624302080724,Δραγγιανή:grc:Drangiane|::Zarangiane|::Drangae|Derangae:la:Derangae|::Drangiani|::Sarangai|::Zarangae|::Zranka|DRANGIANE:la:Drangiane
29548,https://pleiades.stoa.org/places/29548,Dumatha,39.882216,29.803206,:ar:al-Ǧauf|:la:Dumatha
29556,https://pleiades.stoa.org/places/29556,Epimaranitae?/Nareitai?,52.5,22.5,Epimaranitae:la:Epimaranitae|::Nareitai|::Anareitai
29569,https://pleiades.stoa.org/places/29569,Garm-Kerman,57.29478759329696,27.680281105534036,::Garm-Kerman
29573,https://pleiades.stoa.org/places/29573,Gedrosia,63.895823412972376,26.608330085354712,:la:Gedrosia|Κεδρωσία:grc:Kedrosia|Γαδρωσία:grc:Gadrosia|Γεδρωσία:grc:Gedrosia|CEDROSIANI:la:Cedrosiani
29586,https://pleiades.stoa.org/places/29586,Harmozeia/Armuzia,56.22236,27.161555,::Harmozeia|Armuzia:la:Armuzia|::Harmozon
29605,https://pleiades.stoa.org/places/29605,Ichthyophagoi,63.77656173327984,25.558847678255315,::Ichthyophagoi
29610,https://pleiades.stoa.org/places/29610,Isatichai,52.5,32.5,::Isatichai
29620,https://pleiades.stoa.org/places/29620,Kalaiou Nesoi,58.093319,23.8573127,::Kalaiou Nesoi
29621,https://pleiades.stoa.org/places/29621,Kalon Oros,57.3319445,23.168472,::Kalon Oros|الجبل الأخضر:ar:Jebel Akhdar/aljbl alakhdr
29625,https://pleiades.stoa.org/places/29625,Karkuya/‘Korok’?,61.50457,31.1289975,::Karkuya|::Korok|::Carcoe
29626,https://pleiades.stoa.org/places/29626,Karmana,57.743416,28.665408,::Karmana
29630,https://pleiades.stoa.org/places/29630,Kish,53.97949473563709,26.538024808099525,::Kish
29633,https://pleiades.stoa.org/places/29633,Korodamon? Akron,59.7982879,22.533032,::Korodamon Akron
29635,https://pleiades.stoa.org/places/29635,Kryptos Limen?,58.592587,23.612619,::Kryptos Limen
29652,https://pleiades.stoa.org/places/29652,Macoraba,39.815421,21.426804,::Macoraba|None:de:Mekka|None:None:Ṃakka|None:arb:Makka/Makkah/Mekka/Mekkah/Makkat al-Mukarramah|مكّه:ota:Mekke
29656,https://pleiades.stoa.org/places/29656,Maka/Maketa,57.5,27.5,::Maka|::Maketa
29677,https://pleiades.stoa.org/places/29677,Nabataea (region),37.5,32.5,::Nabataea
29678,https://pleiades.stoa.org/places/29678,Nad-i Ali/Zarang?,61.849040153019644,30.99891001240899,Nād ʿAlī:en:Nād ʿAlī/Nad Ali/Nad i Ali|::Zarang
29686,https://pleiades.stoa.org/places/29686,Niriz/Narezzash?,54.319643,29.193851,::Niriz|::Narezzash
29713,https://pleiades.stoa.org/places/29713,Persicus Sinus/Erythr(ae)um Mare,50.9999999,27.0000001,::Persicus Sinus|::Erythraeum Mare|::Erythrum Mare|::Tamtu Shaplitu|Persian Gulf:en:Persian Gulf|Περσικὸς κόλπος:grc:Persikos kolpos|بحر فارس:ota:Baḥr-i Fārs
29718,https://pleiades.stoa.org/places/29718,Phra(da)/Prophthasia/Frakh-kar-Peroz,62.111652874372794,32.382119010923255,::Phrada|::Phra|Προφθασία:grc:Prophthasía|::Frakh-kar-Peroz|::Propasta|None:grc:Phrada|None:grc:Phra|None:arb:Farah|None:None:Frāh|None:fa:Farāh/Farah|None:fa:Farah|None:grc:Prophthasia|Propasta:la:Propasta
29743,https://pleiades.stoa.org/places/29743,Sarapi(a)s (island),58.78620910253658,20.428422490802593,::Sarapias|::Sarapis|Masirah Island:en:Masirah Island
29744,https://pleiades.stoa.org/places/29744,Sard-Kerman,57.5,27.5,::Sard-Kerman
29755,https://pleiades.stoa.org/places/29755,Shahristan/Zarang?,61.6263685,30.962826999999997,::Zarang|::Ram-Shahrestan|شهرستان:ota:Şehristān
29756,https://pleiades.stoa.org/places/29756,Shiragan/Sirjan,55.668645,29.436543,::Shiragan|::Sirjan
29762,https://pleiades.stoa.org/places/29762,[Siraf],52.33683,27.670345,::Siraf|سيراف:ota:Sīrāf
29766,https://pleiades.stoa.org/places/29766,[Sohar],56.731518,24.377793,::Sohar
29781,https://pleiades.stoa.org/places/29781,Tell-i Zohak/Pasa?/Bashiyan?,53.642646,28.931476,::Pasa|::Bashiyan|None:None:Fasān/Fasan|None:arb:Fasā/Fasa/Fassa/Fasan|None:fa:Fasā/Fasa/Fassa/Fasan|None:fa:Tall-e Siyāh/Tall-e Siyah/Tol Siah/Tall-e Siah/Tol-e Siah/Tol Seyah|None:None:Fassā|باسيان:ota:Bāsiyān
29799,https://pleiades.stoa.org/places/29799,Valashgerd,57.25407,27.862649,::Valashgerd|::Gulashkird
29802,https://pleiades.stoa.org/places/29802,Veh Ardashir/[Bardasir]/[Govasir],57.068581,30.273015,::Veh Ardashir|::Bardasir|::Govasir|::Bih-Ardashir|None:None:Bardašīr|None:fa:Kermān/Kerman/Kirman|None:None:Kermān|None:None:Kirman|None:arb:Bardasīr/Bardasir/Bardashir|None:None:Gwāšīr|None:fa:Govāšīr/Govashir|None:xmn:Vēh-Artašer/Veh-Artasher/Veh-Artaser|None:xmn:Vēh-Artaḫšēr/Veh-Artakhsher/Ver-Artahser|None:fa:Gavāšīr/Gavashir/Gavasir/Gwashir|None:arb:Kirmān/Kirman|:ota:Berdeşīr|:ota:Güvāsīr
29811,https://pleiades.stoa.org/places/29811,Yazd,54.35877,31.892187,::Yazd|None:arb:Yazd/Yezd|None:fa:Yazd/Yezd|None:grc:Issatis|Yesd:en:Yesd|:ota:Yezd
30203,https://pleiades.stoa.org/places/30203,Achindana (river),,,::Achindana
30204,https://pleiades.stoa.org/places/30204,Agris,,,::Agris
30205,https://pleiades.stoa.org/places/30205,Alexandria in Carmania,57.15222,27.96833,::Alexandria in Carmania|Alexandria:la:Alexandria
30206,https://pleiades.stoa.org/places/30206,Anamis/Andanis/Ananis (river),56.90720718785517,27.03046184409112,::Anamis|::Andanis|:la:Ananis
30207,https://pleiades.stoa.org/places/30207,Aradarum/Hardea/Ardea,57.5,27.5,Aradarvm:la:Aradarum|::Hardea|::Ardea
30208,https://pleiades.stoa.org/places/30208,Arai,,,::Arai
30209,https://pleiades.stoa.org/places/30209,Archedotis/Arciotis,,,::Archedotis|Arciotis:la:Arciotis
30211,https://pleiades.stoa.org/places/30211,Artacoana/Artakauna,,,::Artacoana|::Artakauna
30213,https://pleiades.stoa.org/places/30213,Bacinora,,,::Bacinora
30214,https://pleiades.stoa.org/places/30214,Badara/Balara,,,::Badara|::Balara
30215,https://pleiades.stoa.org/places/30215,Badgis,,,::Badgis
30216,https://pleiades.stoa.org/places/30216,Badis,,,::Badis
30217,https://pleiades.stoa.org/places/30217,Bageia Pr.,,,::Bageia Pr.
30218,https://pleiades.stoa.org/places/30218,Bagradas (river),52.79136607038231,27.336856210302617,رودخانه خور:fa:Rūdkhāneh-ye Khowr/rodkhaneh khor|:de:Nâbendrûd|::Bagradas
30221,https://pleiades.stoa.org/places/30221,Caumatis/Kanate/Kanthatis,63.75739217266097,26.59460467890728,Cavmatis:la:Caumatis|::Kanate|::Kanthatis
30222,https://pleiades.stoa.org/places/30222,Cetrora,,,::Cetrora
30223,https://pleiades.stoa.org/places/30223,Charadrai,,,::Charadrai
30226,https://pleiades.stoa.org/places/30226,Dagaseira,,,::Dagaseira
30227,https://pleiades.stoa.org/places/30227,Daras,,,::Daras
30228,https://pleiades.stoa.org/places/30228,Dendrobosa,,,::Dendrobosa
30229,https://pleiades.stoa.org/places/30229,Derane Billa/Derenobilla,,,::Derane Billa|::Derenobilla
30231,https://pleiades.stoa.org/places/30231,Guzeran-Ardashir/Kujaran,,,::Guzeran-Ardashir|::Kujaran
30234,https://pleiades.stoa.org/places/30234,Hictanis/Hyktanis,,,::Hictanis|::Hyktanis
30236,https://pleiades.stoa.org/places/30236,Kanasida,,,::Kanasida
30239,https://pleiades.stoa.org/places/30239,Karpella Pr.,,,::Karpella Pr.
30240,https://pleiades.stoa.org/places/30240,Kathraps,,,::Kathraps
30241,https://pleiades.stoa.org/places/30241,Khwash/Qash,,,::Khwash|::Qash
30242,https://pleiades.stoa.org/places/30242,Kophanta/Kophas,,,::Kophanta|Κώφας:grc:Kophas
30243,https://pleiades.stoa.org/places/30243,Kophanta,,,::Kophanta
30245,https://pleiades.stoa.org/places/30245,Kyiza,,,::Kyiza
30247,https://pleiades.stoa.org/places/30247,Nih,,,::Nih
30250,https://pleiades.stoa.org/places/30250,Omiza,,,::Omiza
30254,https://pleiades.stoa.org/places/30254,Pantyene,,,::Pantyene
30255,https://pleiades.stoa.org/places/30255,Parikane,,,::Parikane
30258,https://pleiades.stoa.org/places/30258,Poura,,,::Poura
30259,https://pleiades.stoa.org/places/30259,Pushang,,,::Pushang
30263,https://pleiades.stoa.org/places/30263,Rogana,,,::Rogana
30265,https://pleiades.stoa.org/places/30265,Sabis,,,::Sabis
30266,https://pleiades.stoa.org/places/30266,Sabis,,,::Sabis
30267,https://pleiades.stoa.org/places/30267,Saganos,,,::Saganos
30268,https://pleiades.stoa.org/places/30268,Salaros,,,::Salaros
30269,https://pleiades.stoa.org/places/30269,Salmous,,,::Salmous
30270,https://pleiades.stoa.org/places/30270,Semiramis (mountain),,,::Semiramis
30271,https://pleiades.stoa.org/places/30271,Sidodone,,,::Sidodone
30272,https://pleiades.stoa.org/places/30272,Sigara/Sigana,,,::Sigara|::Sigana
30273,https://pleiades.stoa.org/places/30273,Soxotai,,,::Soxotai
30275,https://pleiades.stoa.org/places/30275,Talmena,,,::Talmena
30276,https://pleiades.stoa.org/places/30276,Tazora,,,::Tazora
30277,https://pleiades.stoa.org/places/30277,Teisa,,,::Teisa
30280,https://pleiades.stoa.org/places/30280,Zorambos,,,::Zorambos
39262,https://pleiades.stoa.org/places/39262,Abasenoi,44.450797782321644,13.95167219952595,::Abasenoi
39263,https://pleiades.stoa.org/places/39263,Abisama,46.509908,13.538636,::Abisama|::Ambisama|::Ebisma
39264,https://pleiades.stoa.org/places/39264,Sumhuram,54.43415347890724,17.03892419266948,::Abyssa|::Abissagi|سمهرم:arb:Sumhuram|خور روري:arb:Khor Rori
39265,https://pleiades.stoa.org/places/39265,Achoma,43.841134,13.817324,::Achoma
39266,https://pleiades.stoa.org/places/39266,Achomai,43.21326306143294,14.316246223695245,::Achomai|::Achomeni
39267,https://pleiades.stoa.org/places/39267,Actaei,47.96372385528765,15.881328687236874,::Actaei|::Acthei|:ar:al-Qatn
39268,https://pleiades.stoa.org/places/39268,Adana,43.987875,13.958528,::Adana
39269,https://pleiades.stoa.org/places/39269,Adane/Athenae/Eudaimon Arabia,45.038928,12.771651,::Adane|::Athenae|::Eudaimon Arabia|None:grc:Nēsoi Eudaimones/Nesoi Eudaimones|None:arb:ʿAdan/Adan/Aden|None:None:Adan|None:arb:Madīnat aš-Šaʿb/Madinat ash-Sha'b/Medinat esh-Sha'b/Madinat ash-Shab/Medinat esh-Shab/Madinat ash-Shaab/Medinat esh-Shaab/Madinat al-Sha'b/Medinat el-Sha'b/Madinat al-Shab/Medinat el-Shab/Madinat al-Shaab/Medinat el-Shaab/Madinat al-Sha'ab/Medinat el-Sha'ab/Madinat ash-Sha'ab/Medinat esh-Sha'ab/Medīnat eš-Šaʿb|None:grc:Arabia Eudaimōn/Arabia Eudaimon|None:None:Arabia Eudaiman|None:grc:Eudaimōn Polis/Eudaimon Polis|None:grc:Eudaimōn Arabia/Eudaimon Arabia
39270,https://pleiades.stoa.org/places/39270,Adedou Kome,42.948026,14.798024,::Adedou Kome|None:arb:al-Ḥudaida/al-Hudaida/el-Hodeida/al-Hudayda/el-Hodeyda/al-Hudaidah/el-Hodeidah/al-Hudaydah/el-Hodeydah|None:None:Hodeida
39271,https://pleiades.stoa.org/places/39271,Adouli,39.6591296,15.2616612,::Adouli|::Adule
39272,https://pleiades.stoa.org/places/39272,Adoulitikos Kolpos,39.7108842,15.3619056,::Adoulitikos Kolpos|Gulf of Zula:en:Gulf of Zula|Annesley Bay:en:Annesley Bay
39273,https://pleiades.stoa.org/places/39273,Adramiton Chora,50.497159120545334,16.38080125196526,::Adramiton Chora|::Adramyta|::Atramitis|::Astramitis|حضرموت:ar:Hadramaut/Hadhramaut/hadramawt
39274,https://pleiades.stoa.org/places/39274,Aethiopia,39.66061943218561,10.737069097886705,::Aethiopia
39275,https://pleiades.stoa.org/places/39275,Agathokleous Ins.,52.2773862,12.1797995,::Agathokleous
39276,https://pleiades.stoa.org/places/39276,Agraei,49.05945142056254,15.018868681529256,::Agraei|::Harrei
39277,https://pleiades.stoa.org/places/39277,Ailou Kome,43.376606,13.871006,::Ailou Kome
39278,https://pleiades.stoa.org/places/39278,Aithiopika (mountain),40.12201671135662,11.498770571833788,::Aithiopika
39279,https://pleiades.stoa.org/places/39279,Akila/Okelis,43.479115718658996,12.713776033658277,::Akila|::Okelis|::Ocilia
39280,https://pleiades.stoa.org/places/39280,Akme,42.841909,16.468331,::Akme|::Ambe
39282,https://pleiades.stoa.org/places/39282,Amaitaei,44.096212547858165,14.678498015872199,::Amaitaei
39284,https://pleiades.stoa.org/places/39284,Ammoniou (promontory),44.86639,12.74972,::Ammoniou Pr.|Little Aden:en:Little Aden|عدن الصغرى:ar:‘Adan aş Şughrá/`Adan as Sughra/eadn alsughraa
39285,https://pleiades.stoa.org/places/39285,Amnestum,44.793055,16.699491,::Amnestum|::Nestum
39286,https://pleiades.stoa.org/places/39286,Anagrana/Negram,44.18,17.477,::Anagrana|::Negram|Νέγρανα:grc:Negrana|نجران:ar:Nagran/Najran|الأخدود:ar:al-Ukhdūd/al-Ukhdud/Al-Okhdood/al'akhdud
39287,https://pleiades.stoa.org/places/39287,Anchitai,44.008368551190124,13.871318840312577,::Anchitai|::Akchenoi
39290,https://pleiades.stoa.org/places/39290,Arabicus Sinus/Erythr(ae)um/Rubrum Mare,39.5,19.0,::Arabicus Sinus|::Erythraeum|::Erythrum|:la:Rubrum Mare|::Indike Thalassa|:en:Red Sea|Ἀραβικὸς Κόλπος:grc:Arabikos kolpos|:ota:Baḥr-i Ḳulzüm
39291,https://pleiades.stoa.org/places/39291,Ararene,43.04018794075882,17.8782026129451,Ἀραρηνή:grc:Ararene|:ar:Jizan|:ar:al-'Ara'ir
39292,https://pleiades.stoa.org/places/39292,Are,48.7335031109817,15.941401312396055,::Are
39293,https://pleiades.stoa.org/places/39293,Aromata Emporion,50.948956,11.825923,::Aromata Emporion
39295,https://pleiades.stoa.org/places/39295,Arsinoe,43.251399,12.711748,::Arsinoe
39297,https://pleiades.stoa.org/places/39297,Askitai,57.5,17.5,::Askitai
39298,https://pleiades.stoa.org/places/39298,Astapous (river),35.51457545531424,11.862329927331956,::Astapous|Blue Nile:en:Blue Nile
39300,https://pleiades.stoa.org/places/39300,Athroula/Laththa,44.8045596,16.0186886,Ἄθρουλα:grc:Athroula|::Laththa|::Athlula|:la:Athrida|براقش:arb:Barāqish
39301,https://pleiades.stoa.org/places/39301,Ausara,52.098032,16.33209,::Ausara
39303,https://pleiades.stoa.org/places/39303,A(u)xoume,38.721292020401236,14.133850459089953,Aksum:en:Aksum|::Auxoume|::Axoume|Ἄξουμις:grc:Axoumis
39304,https://pleiades.stoa.org/places/39304,Aualites,43.098299,12.242145,::Aualites|Αὐαλίτης:grc:Aualites
39305,https://pleiades.stoa.org/places/39305,Aualites Sinus,47.10731220898384,12.35860587159105,::Aualites Sinus
39307,https://pleiades.stoa.org/places/39307,Azania,44.04281205843768,3.535632875206621,::Azania
39308,https://pleiades.stoa.org/places/39308,Azanium Mare/Barbarikon Pelagos,64.9999999,20.0000001,Azanium mare:la:Azanium Mare|::Barbarikon Pelagos
39310,https://pleiades.stoa.org/places/39310,Bachylitae,44.11660141428049,13.968002102532576,Bachylitae:la:Bachylitae|::Datilum
39311,https://pleiades.stoa.org/places/39311,Badeo,42.980529,15.220499,::Badeo|::Badis
39312,https://pleiades.stoa.org/places/39312,Baitios,42.819149,16.56401,::Baitios|::Baitheo
39314,https://pleiades.stoa.org/places/39314,Bosara,52.5,17.5,::Bosara
39315,https://pleiades.stoa.org/places/39315,Bracheia/Prasodes Thalassa,72.49999995,5.000000058430487e-08,::Bracheia|πρασώδης θάλασσα:grc:Prasodes Thalassa
39317,https://pleiades.stoa.org/places/39317,Calingi,43.57633266492425,16.431060098990848,::Calingi|::Chalingii
39318,https://pleiades.stoa.org/places/39318,Camarum (island),42.5984874534886,15.376031729432645,::Camarum|Kamaran:en:Kamaran
39319,https://pleiades.stoa.org/places/39319,Caminacum,44.689,16.16805,كمنا:ar:Kamna|Caminacum:la:Caminacum|::Camiaeum|::Chamimaum
39320,https://pleiades.stoa.org/places/39320,Canauna (region),42.291213406886556,18.389190839176003,::Canauna
39321,https://pleiades.stoa.org/places/39321,Canon,47.5,12.5,::Canon
39322,https://pleiades.stoa.org/places/39322,Cardava,44.705389,16.743842,:la:Cardava|::Cardaba
39323,https://pleiades.stoa.org/places/39323,Cariati,45.15010315,19.78331795,::Cariati|::Cariati Tachoali|::Cariati achoali|::Cariath Tacitoali|::Cariat Tacitoali|::Chinati Thacalin|::Cyrmica|::Cyrituca
39324,https://pleiades.stoa.org/places/39324,Caripeta,45.514,14.893,Caripeta:la:Caripeta|::Cosaba
39326,https://pleiades.stoa.org/places/39326,Casani/Gasani/Kassanitai,43.67000224585194,15.665567433848553,::Casani|::Gasani|Κασσανῖται:grc:Kassanitai
39327,https://pleiades.stoa.org/places/39327,Cerbani,45.565999644202265,13.902822777995828,Cerbani:la:Cerbani|::Caeubani|::Catapani|::Cebbranitae|::Cebbanitae|::Gabonita|::Gataphani|Gebbanitae:la:Gebbanitae|::Kattabenoi|::Kithibanitai|::Kitibanitai|::Kottabanoi|::Kotabanoi|::Tabam
39328,https://pleiades.stoa.org/places/39328,Chardaleon,40.52728994340584,20.711635897450005,regio Chardaleon:la:Chardaleon|::Cardaleon|::Cardalena|الليث:ar:al-Lith/Al-Layth/allayth
39329,https://pleiades.stoa.org/places/39329,C(h)armei,44.980674813283656,16.77516632582897,::Charmei|::Carmei
39330,https://pleiades.stoa.org/places/39330,Chelonitis (island),42.17834771907295,15.055391241472938,::Chelonitis
39331,https://pleiades.stoa.org/places/39331,Coralis? (river),42.5,17.5,::Coralis|::Corolia|::Periba
39333,https://pleiades.stoa.org/places/39333,Dacharenoi,43.97591949197233,17.89562028954487,::Dacharenoi
39334,https://pleiades.stoa.org/places/39334,Debai,42.08628610443923,18.07694590187154,Δέβαι:grc:Debai|::Dedebae|::Obie
39335,https://pleiades.stoa.org/places/39335,Deire,43.31115,12.437736,::Deire|::Berenice Epidires
39336,https://pleiades.stoa.org/places/39336,Dela,46.254233,14.104997,::Dela
39338,https://pleiades.stoa.org/places/39338,Diosko(u)rides (island),53.9293594,12.4805981,سُقُطْرَى‎ :ar:Suqutra/Suquṭra|::Dioskourides|::Dioskorides
39340,https://pleiades.stoa.org/places/39340,Elephas Pr.,50.632696,11.939418,::Elephas Pr.
39341,https://pleiades.stoa.org/places/39341,Elisaroi,42.5,12.5,::Elisaroi
39343,https://pleiades.stoa.org/places/39343,Ethraui,43.58695290757988,17.006801751362506,Ethravi:la:Ethraui|::et Thauri|::Thauri|Banu Thaur:en:Banu Thaur
39345,https://pleiades.stoa.org/places/39345,Exusta/Katakekaumene (islands),41.83387525688433,15.541152766338778,Exusta:la:Exusta|::Katakekaumene
39349,https://pleiades.stoa.org/places/39349,Hippalon Pelagos,52.5,12.5,::Hippalon Pelagos
39350,https://pleiades.stoa.org/places/39350,Homeritai,39.87095128884315,21.586632771390867,Ὁμηρίται:grc:Homeritai|::Amiroei|Hamiroei:la:Hamiroei|::Omerita|Homeritae:la:Homeritae
39352,https://pleiades.stoa.org/places/39352,Indicum Mare,80.0,-20.0,:la:Indicum Mare|Ἰνδικὸν πέλαγος:grc:Indikon pelagos
39353,https://pleiades.stoa.org/places/39353,Ioula,48.568626,16.249392,::Ioula
39355,https://pleiades.stoa.org/places/39355,Kane,48.23595376156997,13.992228265045917,::Kane|:ar:Bir 'Ali
39356,https://pleiades.stoa.org/places/39356,Karbai,43.474771187498845,14.772873612131956,::Karbai|::Carphati
39357,https://pleiades.stoa.org/places/39357,Karna,44.814,16.128,::Karna|:la:Carnus|::Karnana
39359,https://pleiades.stoa.org/places/39359,Kebranitai,44.068479977728416,14.490589148372521,::Kebranitai
39361,https://pleiades.stoa.org/places/39361,Kinnamomophoros Chora,49.35444424710613,11.035640090145723,::Kinnamomophoros Chora|Κινναμωμοφόρος χώρα:grc:Kinnamōmophóros chṓra
39362,https://pleiades.stoa.org/places/39362,Kokkonatou (islands),53.10146888675187,12.32462134398506,::Kokkonatou|Socotra Archipelago:en:Socotra Archipelago
39363,https://pleiades.stoa.org/places/39363,Koloe,39.552787,14.709112,::Koloe
39365,https://pleiades.stoa.org/places/39365,Labaetia,44.558041,16.5545,Labaetia:la:Labaetia|::Labecia|::Labraum
39366,https://pleiades.stoa.org/places/39366,Lathinat,47.4289616667184,14.440188695175452,::Lathinat
39368,https://pleiades.stoa.org/places/39368,Laupas,43.445883,14.175369,portus Laupas:la:Laupas|:grc:Boulikas
39369,https://pleiades.stoa.org/places/39369,Lexianae,47.22303019928653,14.92818231789456,::Lexianae
39370,https://pleiades.stoa.org/places/39370,Libanophoros Chora,53.40736604984976,17.41088595160069,::Libanophoros Chora|::Libanotophoros Chora
39371,https://pleiades.stoa.org/places/39371,Lysanitae,44.171064609959245,15.22996925139778,Lysanitae:la:Lysanitae|::Lusor
39373,https://pleiades.stoa.org/places/39373,Maipha,47.730183,14.555811,::Maipha|::Mephra|::Maithath
39374,https://pleiades.stoa.org/places/39374,Malangitai,42.5,17.5,::Malangitai
39375,https://pleiades.stoa.org/places/39375,Malao,45.013109,10.420294,::Malao
39377,https://pleiades.stoa.org/places/39377,Mamaeum Litus,42.78178834332744,17.207480969011147,litus Mamaeum:la:Mamaeum Litus|::Mamali|Mamaeum Litus:la:Mamaeum Litus
39378,https://pleiades.stoa.org/places/39378,Maphoritae,42.5,12.5,::Maphoritae|::Olafi|::Sata
39379,https://pleiades.stoa.org/places/39379,Mari(a)ba,45.336,15.427,Μαρίαβα:grc:Mariaba|Mariba oppidum:la:Mariba|::Amara|::Mara|::Baraba|::Barmalacum|::Marasdu|::Mareliabata|::Palmalachum|::Palmalacum|::Sabas|::Saba|:ota:Sebā|:ota:Meʾrib|Muḩāfaz̧at Ma’rib:en:Muḩāfaz̧at Ma’rib
39380,https://pleiades.stoa.org/places/39380,Marimatha,45.4633,14.9425,::Marimatha
39381,https://pleiades.stoa.org/places/39381,Maritha (mountain),46.10944425579193,20.94139530986622,::Maritha|Maritha M.:la:Maritha M./Maritha Mons
39382,https://pleiades.stoa.org/places/39382,Marma,42.34894,17.326869,::Marma|::Merme
39383,https://pleiades.stoa.org/places/39383,Meda,43.693538,13.615017,::Meda
39384,https://pleiades.stoa.org/places/39384,Melan (mountain),46.56320631754457,13.763365704904263,::Melan|Melan Mons:la:Melan Mons
39385,https://pleiades.stoa.org/places/39385,Mesala,45.440538,13.147317,::Mesala|::Mesalum
39386,https://pleiades.stoa.org/places/39386,Minaei,47.5,17.5,:la:Minaei|Μιναῖοι:grc:Minaioi|::Minoes
39387,https://pleiades.stoa.org/places/39387,Mosylon Emporion,48.605954,11.28743,::Mosylon Emporion
39388,https://pleiades.stoa.org/places/39388,Mosylon? Pr.,49.553262,11.446381,::Mosylon Pr.
39389,https://pleiades.stoa.org/places/39389,Moundou,47.123147,11.00357,::Moundou|::Mondou
39390,https://pleiades.stoa.org/places/39390,Mouza Emporion,43.421475,13.261275,::Mouza Emporion
39394,https://pleiades.stoa.org/places/39394,Nascus,44.651994,16.558214,:la:Nascus|::Aska|::Nesca
39396,https://pleiades.stoa.org/places/39396,Neogilla,52.785062,16.730687,::Neogilla|::Neogeiala
39397,https://pleiades.stoa.org/places/39397,Nestus,44.73158,16.561019,::Nestus
39398,https://pleiades.stoa.org/places/39398,Nossa,45.325396,15.134369,::Nossa|::Messa
39399,https://pleiades.stoa.org/places/39399,Notou Keras/Aromata Pr.,51.2836084,11.8330631,::Notou Keras|::Aromata Pr.
39401,https://pleiades.stoa.org/places/39401,Odanda,43.109713112404215,15.253890625076304,:la:Odanda
39403,https://pleiades.stoa.org/places/39403,Opone,51.2760513,10.4160905,::Opone|ἐμπόριον Ὀπώνη:grc:emporion Opone
39404,https://pleiades.stoa.org/places/39404,Oreine (island),39.751392179273445,15.463690439377638,::Oreine
39405,https://pleiades.stoa.org/places/39405,Orneon Ins.,48.3870518,13.9317288,::Orneon
39407,https://pleiades.stoa.org/places/39407,Phoda,43.53849,17.760701,::Phoda|::Foth|::Tota
39410,https://pleiades.stoa.org/places/39410,Pyraloi (islands),40.96111133333333,-2.2166666666666663,::Pyraloi
39412,https://pleiades.stoa.org/places/39412,Raida,44.414857,14.316682,::Raida
39413,https://pleiades.stoa.org/places/39413,Rhadamaei,44.90099215436161,13.530547656988151,Rhadamaei:la:Rhadamaei|::Marmei|::Narmaei|::Rhammanitae
39417,https://pleiades.stoa.org/places/39417,Saba,44.226264112353114,14.45140889796411,::Saba|Sabaeans:en:Sabaeans
39418,https://pleiades.stoa.org/places/39418,Sabat(h)a,47.026,15.369,::Sabatha|::Sabata|Sabota:la:Sabota|::Chabatanon
39419,https://pleiades.stoa.org/places/39419,Sachalites Sinus,52.2093989,15.9270015,::Sachalites Sinus|Al Qamar Bay:en:Al Qamar Bay/Qamar Bay|:ar:Ghubbat al Qamar
39420,https://pleiades.stoa.org/places/39420,Sachalitis,53.26226540803683,16.991652128460405,::Sachalitis|::Sacamum|رأس فرتك:ar:Ras Fartak/Ra's Fartak/Ras Furtak/ras faratik|رأس مرباط:ar:Ras Mirbat/Ras Murbat/Ras Merbat/Ras Marbāt/Ra’s Mirbāţ
39421,https://pleiades.stoa.org/places/39421,Sakchenoi,44.174302640431854,13.662184704509649,::Sakchenoi
39422,https://pleiades.stoa.org/places/39422,Sammaei,44.63993915934264,14.040009590173334,::Sammaei
39423,https://pleiades.stoa.org/places/39423,Ẓafār,44.400794,14.211704,Sapphar:la:Sapphar|::Saphar|::Tafra|::Tapharon|::Tarphara
39424,https://pleiades.stoa.org/places/39424,Saraka,43.925998,13.434482,::Saraka
39425,https://pleiades.stoa.org/places/39425,Sarouon,46.394374,14.785877,::Sarouon
39426,https://pleiades.stoa.org/places/39426,Save,43.925,13.34722,::Save|::Sabe
39427,https://pleiades.stoa.org/places/39427,Smyrnophoros Chora,43.25155601892553,11.3280466663749,::Smyrnophoros Chora
39428,https://pleiades.stoa.org/places/39428,Syagros? Pr.,52.223611,15.635278,::Syagros Pr.|::Sygaros Pr.|Σύαγρος ἄκρα:grc:Syagros Akra
39430,https://pleiades.stoa.org/places/39430,Tamna,45.805079072391344,15.019981003216799,Τάμνα:grc:Tamna|::Thomna|::Thumna
39431,https://pleiades.stoa.org/places/39431,Thialemath,50.52766,15.048659,::Thialemath|::Thiallela
39432,https://pleiades.stoa.org/places/39432,Thomala,43.164874,19.91721,:la:Thomala
39433,https://pleiades.stoa.org/places/39433,T(h)onabaei,47.05249067906581,15.152450102130603,::Thonabaei|Tonabaei:la:Tonabaei
39434,https://pleiades.stoa.org/places/39434,Tretos,49.123406,14.534337,::Tretos|::Tritos
39435,https://pleiades.stoa.org/places/39435,Trogodytice,39.00159862811528,15.255350797625091,::Trogodytice|::Trogloditike
39436,https://pleiades.stoa.org/places/39436,Troullas Ins.,48.46128809460384,13.981210596023923,::Troullas
39438,https://pleiades.stoa.org/places/39438,Za(a)bram,40.0769259647422,20.448572635676975,::Zaabram|::Zabram|::Zadrame
39439,https://pleiades.stoa.org/places/39439,Zabida,43.315773,14.1952705,::Zabida|::Taruda
39441,https://pleiades.stoa.org/places/39441,Zenobiou (islands),55.93017363412318,17.48747684398752,::Zenobiou|جزر خوريا موريا:ar:Juzur Khurīyā Murīyā
40017,https://pleiades.stoa.org/places/40017,Aelamitae,,,:la:Aelamitae
40018,https://pleiades.stoa.org/places/40018,Agame,,,::Agame
40019,https://pleiades.stoa.org/places/40019,Agge,,,::Agge
40020,https://pleiades.stoa.org/places/40020,Agmanisphe/Atmanisphe/Atmanisti,,,::Agmanisphe|::Atmanisphe|::Atmanisti
40021,https://pleiades.stoa.org/places/40021,Agra,,,::Agra
40022,https://pleiades.stoa.org/places/40022,Aiathuris,,,::Aiathuris
40023,https://pleiades.stoa.org/places/40023,Aigialos Megas,,,::Aigialos Megas
40024,https://pleiades.stoa.org/places/40024,Aigialos Mikros,,,::Aigialos Mikros
40025,https://pleiades.stoa.org/places/40025,Aigra/Egra,,,::Aigra|::Egra
40026,https://pleiades.stoa.org/places/40026,Aithiopes Anthropophagoi,,,::Aithiopes Anthropophagoi
40027,https://pleiades.stoa.org/places/40027,Aithiopes Athakai,,,::Aithiopes Athakai
40028,https://pleiades.stoa.org/places/40028,Aithiopes Ichthyophagoi,,,::Aithiopes Ichthyophagoi
40029,https://pleiades.stoa.org/places/40029,Aithiopes Rhapsioi,,,::Aithiopes Rhapsioi
40030,https://pleiades.stoa.org/places/40030,Akkanai/Akanai,,,::Akkanai|::Akanai
40031,https://pleiades.stoa.org/places/40031,Akanthine,,,::Akanthine
40032,https://pleiades.stoa.org/places/40032,Alabana/Albana,,,::Alabana|::Albana
40033,https://pleiades.stoa.org/places/40033,Alilaioi,,,::Alilaioi
40034,https://pleiades.stoa.org/places/40034,Allumaiotai/Alumeotai,,,::Allumaiotai|::Alumeotai
40035,https://pleiades.stoa.org/places/40035,Aminea/Aminoei,,,::Aminea|::Aminoei
40036,https://pleiades.stoa.org/places/40036,Amithoscattha/Amithoscatta/Amithoscutta,,,::Amithoscattha|Amithoscatta:la:Amithoscatta|::Amithoscutta
40038,https://pleiades.stoa.org/places/40038,Amnum,,,::Amnum
40039,https://pleiades.stoa.org/places/40039,Andidalei/Antiadalei/Antidalei/Anthiadala/Antiadala,,,::Andidalei|::Antiadalei|::Antidalei|::Anthiadala|::Antiadala|Antiadalaei:la:Antiadalaei
40040,https://pleiades.stoa.org/places/40040,Annene/Annine,,,::Annene|::Annine
40044,https://pleiades.stoa.org/places/40044,Antiochou Solen,,,::Antiochou Solen|:grc-Latn:Antiochou Solen
40046,https://pleiades.stoa.org/places/40046,Apate,,,::Apate
40047,https://pleiades.stoa.org/places/40047,Apokopa Megala,,,::Apokopa Megala
40048,https://pleiades.stoa.org/places/40048,Apokopa Mikra,,,::Apokopa Mikra
40049,https://pleiades.stoa.org/places/40049,Arabis/Arbis,,,::Arabis|::Arbis
40050,https://pleiades.stoa.org/places/40050,Arrabitai/Arabitai,,,::Arrabitai|::Arabitai
40051,https://pleiades.stoa.org/places/40051,Arabanitai,,,::Arabanitai
40052,https://pleiades.stoa.org/places/40052,Arabanitai/Rabanitai/Sabor/Mafa,,,::Arabanitai|::Rabanitai|::Sabor|::Mafa
40053,https://pleiades.stoa.org/places/40053,Arabis,,,::Arabis
40054,https://pleiades.stoa.org/places/40054,Arsi,,,::Arsi
40055,https://pleiades.stoa.org/places/40055,Asaraei,,,:la:Asaraei
40056,https://pleiades.stoa.org/places/40056,Aspis Pr.,,,::Aspis Pr.
40057,https://pleiades.stoa.org/places/40057,Astarte,,,::Astarte
40058,https://pleiades.stoa.org/places/40058,Atalmo,,,::Atalmo
40059,https://pleiades.stoa.org/places/40059,Athagaus,,,::Athagaus
40062,https://pleiades.stoa.org/places/40062,Attiroi,,,::Attiroi
40063,https://pleiades.stoa.org/places/40063,Aua/Aue,,,::Aua|::Aue
40065,https://pleiades.stoa.org/places/40065,Autoba,,,::Autoba
40067,https://pleiades.stoa.org/places/40067,Babyllenioi,,,::Babyllenioi
40070,https://pleiades.stoa.org/places/40070,Bainun/Barnun,,,::Bainun|::Barnun
40072,https://pleiades.stoa.org/places/40072,Bana/Baua,,,::Bana|::Baua
40073,https://pleiades.stoa.org/places/40073,Bangenos,,,:la:Bangenos
40076,https://pleiades.stoa.org/places/40076,Basa,,,::Basa
40077,https://pleiades.stoa.org/places/40077,Bathys Limen,,,::Bathys Limen
40079,https://pleiades.stoa.org/places/40079,Bega,,,::Bega
40081,https://pleiades.stoa.org/places/40081,Berethis,,,::Berethis
40082,https://pleiades.stoa.org/places/40082,Bliulaioi,,,::Bliulaioi
40084,https://pleiades.stoa.org/places/40084,Bomos Athenas,,,::Bomos Athenas
40085,https://pleiades.stoa.org/places/40085,Bomos Erotos Pr.,,,::Bomos Erotos Pr.
40086,https://pleiades.stoa.org/places/40086,Boon,,,::Boon
40087,https://pleiades.stoa.org/places/40087,Borea,,,::Borea
40088,https://pleiades.stoa.org/places/40088,Bosara/Boseude/Kosara/Koseude,,,::Bosara|::Boseude|::Kosara|::Koseude
40090,https://pleiades.stoa.org/places/40090,Cachinna/Cachina/Chachina/Capina,,,::Cachinna|::Cachina|::Chachina|::Capina
40091,https://pleiades.stoa.org/places/40091,Caldis,,,::Caldis
40092,https://pleiades.stoa.org/places/40092,Candaei,,,::Candaei
40093,https://pleiades.stoa.org/places/40093,Canthace,,,::Canthace
40095,https://pleiades.stoa.org/places/40095,Carphati/Karbai,,,::Carphati|::Karbai
40096,https://pleiades.stoa.org/places/40096,Chaalla,,,::Chaalla
40099,https://pleiades.stoa.org/places/40099,Chargatha,,,::Chargatha
40101,https://pleiades.stoa.org/places/40101,Chelonitides,,,::Chelonitides
40102,https://pleiades.stoa.org/places/40102,Chenneseri/Chonneseri,,,Chenneseri:la:Chenneseri|::Chonneseri
40103,https://pleiades.stoa.org/places/40103,Clara/Clari/Glari,,,::Clara|::Clari|::Glari
40104,https://pleiades.stoa.org/places/40104,Coboris,,,::Coboris
40107,https://pleiades.stoa.org/places/40107,Coria/Boanum,,,::Coria|::Boanum
40108,https://pleiades.stoa.org/places/40108,Cornan,,,::Cornan
40110,https://pleiades.stoa.org/places/40110,Cytis,,,::Cytis
40112,https://pleiades.stoa.org/places/40112,Daphnine,,,::Daphnine
40113,https://pleiades.stoa.org/places/40113,Daphnous,,,::Daphnous
40114,https://pleiades.stoa.org/places/40114,Daraba/Darada,,,::Daraba|::Darada
40115,https://pleiades.stoa.org/places/40115,Darde,,,::Darde
40116,https://pleiades.stoa.org/places/40116,Daulotos,,,::Daulotos
40117,https://pleiades.stoa.org/places/40117,Dedakai/Didaskai/Didakai,,,::Dedakai|::Didaskai|::Didakai
40118,https://pleiades.stoa.org/places/40118,Demetros Skopias Pr.,,,::Demetros Skopias Pr.
40119,https://pleiades.stoa.org/places/40119,Deua,,,::Deua
40121,https://pleiades.stoa.org/places/40121,Didyma M.,,,::Didyma M.
40122,https://pleiades.stoa.org/places/40122,Diogenous Pr.,,,::Diogenous Pr.
40123,https://pleiades.stoa.org/places/40123,Dioskoron Limen,,,::Dioskoron Limen
40124,https://pleiades.stoa.org/places/40124,Divitia,,,::Divitia
40125,https://pleiades.stoa.org/places/40125,Dolicae/Doricae,,,::Dolicae|::Doricae
40126,https://pleiades.stoa.org/places/40126,Domazenes,,,::Domazenes
40127,https://pleiades.stoa.org/places/40127,Dora,,,::Dora
40129,https://pleiades.stoa.org/places/40129,Draga/Grada,,,::Draga|::Grada
40130,https://pleiades.stoa.org/places/40130,Drimati/Drytmati,,,::Drimati|::Drytmati
40133,https://pleiades.stoa.org/places/40133,Embolon,,,::Embolon
40135,https://pleiades.stoa.org/places/40135,Eos M.,,,::Eos M.
40136,https://pleiades.stoa.org/places/40136,Eratonos (islands),,,::Eratonos
40137,https://pleiades.stoa.org/places/40137,Erchoas,,,::Erchoas
40138,https://pleiades.stoa.org/places/40138,Eristhe,,,::Eristhe
40139,https://pleiades.stoa.org/places/40139,Eser,,,::Eser
40140,https://pleiades.stoa.org/places/40140,Euangelon Limen,,,::Euangelon Limen
40142,https://pleiades.stoa.org/places/40142,Euonymitai,,,::Euonymitai
40144,https://pleiades.stoa.org/places/40144,Gabala,,,::Gabala
40147,https://pleiades.stoa.org/places/40147,Gapachoi/Gapaloi,,,::Gapachoi|::Gapaloi
40148,https://pleiades.stoa.org/places/40148,Garbaton M./Garbato M.,,,::Garbaton M.|::Garbato M.
40149,https://pleiades.stoa.org/places/40149,Gauron M.,,,::Gauron M.
40150,https://pleiades.stoa.org/places/40150,Gaze,,,::Gaze
40151,https://pleiades.stoa.org/places/40151,Geapolis,,,::Geapolis
40152,https://pleiades.stoa.org/places/40152,Gerbo/Terbo,,,::Gerbo|::Terbo
40154,https://pleiades.stoa.org/places/40154,Gomadeon Nesoi,,,::Gomadeon Nesoi
40156,https://pleiades.stoa.org/places/40156,Gypsitis,,,::Gypsitis
40160,https://pleiades.stoa.org/places/40160,Hyaila,,,::Hyaila
40163,https://pleiades.stoa.org/places/40163,Ision M.,,,::Ision M.
40165,https://pleiades.stoa.org/places/40165,Isidos (island),,,::Isidos ins.
40167,https://pleiades.stoa.org/places/40167,Kaboubathra M.,,,::Kaboubathra M.
40168,https://pleiades.stoa.org/places/40168,Kadoupoi,,,::Kadoupoi
40169,https://pleiades.stoa.org/places/40169,Kalaa,,,::Kalaa
40170,https://pleiades.stoa.org/places/40170,Kamelokomai,,,::Kamelokomai
40172,https://pleiades.stoa.org/places/40172,Kardamine,,,::Kardamine
40173,https://pleiades.stoa.org/places/40173,Katadrai,,,::Katadrai
40174,https://pleiades.stoa.org/places/40174,Katathrai (islands),,,::Katathrai inss.
40175,https://pleiades.stoa.org/places/40175,Kentos,,,::Kentos
40176,https://pleiades.stoa.org/places/40176,Klimax (mountain),44.675684,14.57107,::Klimax M.
40177,https://pleiades.stoa.org/places/40177,Koa,,,::Koa
40178,https://pleiades.stoa.org/places/40178,Kobe,,,::Kobe
40179,https://pleiades.stoa.org/places/40179,Koloboi/Kolboi,,,::Koloboi|::Kolboi
40180,https://pleiades.stoa.org/places/40180,"Kolobon M., Pr.",,,::Kolobon M./Pr.
40181,https://pleiades.stoa.org/places/40181,Koraos,,,::Koraos
40185,https://pleiades.stoa.org/places/40185,Kronou Pr.,,,::Kronou Pr.
40186,https://pleiades.stoa.org/places/40186,Kyeneion,,,::Kyeneion
40187,https://pleiades.stoa.org/places/40187,Kynamolgoi,,,::Kynamolgoi
40189,https://pleiades.stoa.org/places/40189,Labatanis,,,::Labatanis
40190,https://pleiades.stoa.org/places/40190,Lachchere/Lachere,,,::Lachchere|::Lachere
40192,https://pleiades.stoa.org/places/40192,Lasine,,,::Lasine
40195,https://pleiades.stoa.org/places/40195,Machala/Makkala/Makala,,,::Machala|::Makkala|::Makala
40196,https://pleiades.stoa.org/places/40196,Mada,,,::Mada
40197,https://pleiades.stoa.org/places/40197,Madarra/Madasara/Sadasara,,,::Madarra|::Madasara|::Sadasara
40198,https://pleiades.stoa.org/places/40198,Madoki,,,::Madoki
40200,https://pleiades.stoa.org/places/40200,Magon,,,::Magon
40201,https://pleiades.stoa.org/places/40201,Magusum,,,::Magusum
40203,https://pleiades.stoa.org/places/40203,Makaria (island),,,::Makaria
40204,https://pleiades.stoa.org/places/40204,Mandaith,,,::Mandaith
40205,https://pleiades.stoa.org/places/40205,Mandalum,,,::Mandalum
40206,https://pleiades.stoa.org/places/40206,Manteion Artemidos,,,::Manteion Artemidos
40207,https://pleiades.stoa.org/places/40207,Maraeu/Maru/Matreu,,,::Maraeu|::Maru|::Matreu
40208,https://pleiades.stoa.org/places/40208,Maratha,,,::Maratha
40209,https://pleiades.stoa.org/places/40209,Mardache,,,::Mardache
40210,https://pleiades.stoa.org/places/40210,Mariua,,,::Mariua
40211,https://pleiades.stoa.org/places/40211,Marsyaba,,,::Marsyaba
40212,https://pleiades.stoa.org/places/40212,Masonitai,,,::Masonitai
40213,https://pleiades.stoa.org/places/40213,Maste,,,::Maste
40214,https://pleiades.stoa.org/places/40214,Maste M.,,,::Maste M.
40215,https://pleiades.stoa.org/places/40215,Mastitai,,,::Mastitai
40217,https://pleiades.stoa.org/places/40217,Meiba,,,::Meiba
40218,https://pleiades.stoa.org/places/40218,Melinos,,,::Melinos
40219,https://pleiades.stoa.org/places/40219,Memnoneis,,,::Memnoneis
40220,https://pleiades.stoa.org/places/40220,Menan/Mena,,,::Menan|::Mena
40221,https://pleiades.stoa.org/places/40221,Menambis,,,::Menambis
40223,https://pleiades.stoa.org/places/40223,Metine,,,::Metine
40224,https://pleiades.stoa.org/places/40224,Mnemeion Pr.,,,::Mnemeion Pr.
40225,https://pleiades.stoa.org/places/40225,Molibai,,,::Molibai
40226,https://pleiades.stoa.org/places/40226,Monodaktylon M.,,,::Monodaktylon M.
40227,https://pleiades.stoa.org/places/40227,Morou,,,::Morou
40229,https://pleiades.stoa.org/places/40229,Myrike/Myrsiake (island),,,::Myrike|::Myrsiake
40230,https://pleiades.stoa.org/places/40230,Myronos,,,::Myronos
40233,https://pleiades.stoa.org/places/40233,Nakis/Naki,,,::Nakis|::Naki
40234,https://pleiades.stoa.org/places/40234,Napegus,,,::Napegus
40235,https://pleiades.stoa.org/places/40235,Negra,,,::Negra
40236,https://pleiades.stoa.org/places/40236,Neiloptolemaiou,,,::Neiloptolemaiou
40237,https://pleiades.stoa.org/places/40237,Nema,,,::Nema
40238,https://pleiades.stoa.org/places/40238,Nikon,,,::Nikon
40239,https://pleiades.stoa.org/places/40239,Novacum/Novata,,,::Novacum|::Novata
40241,https://pleiades.stoa.org/places/40241,Orbadarou,,,::Orbadarou
40242,https://pleiades.stoa.org/places/40242,Ouodona,,,::Ouodona
40244,https://pleiades.stoa.org/places/40244,Palindromos Pr.,,,::Palindromos Pr.
40245,https://pleiades.stoa.org/places/40245,Pano,,,::Pano
40246,https://pleiades.stoa.org/places/40246,Panos,,,::Panos
40247,https://pleiades.stoa.org/places/40247,Pataita,,,::Pataita
40248,https://pleiades.stoa.org/places/40248,Pechinoi,,,::Pechinoi
40249,https://pleiades.stoa.org/places/40249,Pesendarai,,,::Pesendarai
40250,https://pleiades.stoa.org/places/40250,Phalangis M.,,,::Phalangis M.
40251,https://pleiades.stoa.org/places/40251,Phthouri/Phthour,,,::Phthouri|::Phthour
40252,https://pleiades.stoa.org/places/40252,Pistre,,,::Pistre
40253,https://pleiades.stoa.org/places/40253,Pnoups,,,::Pnoups
40254,https://pleiades.stoa.org/places/40254,Polybiou,,,::Polybiou
40255,https://pleiades.stoa.org/places/40255,Pontyris,,,::Pontyris
40256,https://pleiades.stoa.org/places/40256,Prason,40.4520746,-10.4815672,::Prason
40257,https://pleiades.stoa.org/places/40257,Prionos,,,::Prionos
40258,https://pleiades.stoa.org/places/40258,Prionoton,,,::Prionoton
40259,https://pleiades.stoa.org/places/40259,Pseudokelis,,,::Pseudokelis
40260,https://pleiades.stoa.org/places/40260,Psygmos,,,::Psygmos
40261,https://pleiades.stoa.org/places/40261,Ptemithis,,,::Ptemithis
40262,https://pleiades.stoa.org/places/40262,Pteros,,,::Pteros
40263,https://pleiades.stoa.org/places/40263,Pudnu,,,::Pudnu
40264,https://pleiades.stoa.org/places/40264,Pylaia M./Pylai M.,,,::Pylaia M.|::Pylai M.
40265,https://pleiades.stoa.org/places/40265,Pythangelos,,,::Pythangelos
40266,https://pleiades.stoa.org/places/40266,Pytholaos Pr.,,,::Pytholaos Pr.
40269,https://pleiades.stoa.org/places/40269,Rathinai/Rathinoi,,,::Rathinai|::Rathinoi
40270,https://pleiades.stoa.org/places/40270,Rauso,,,::Rauso
40271,https://pleiades.stoa.org/places/40271,Rhapsioi,,,::Rhapsioi
40272,https://pleiades.stoa.org/places/40272,Rhapton,,,::Rhapton
40275,https://pleiades.stoa.org/places/40275,Sabatra,,,::Sabatra
40276,https://pleiades.stoa.org/places/40276,Sabeon Mediana,,,::Sabeon Mediana
40277,https://pleiades.stoa.org/places/40277,Sabeon Minor,,,::Sabeon Minor
40278,https://pleiades.stoa.org/places/40278,Sabeone Maior,,,::Sabeone Maior
40280,https://pleiades.stoa.org/places/40280,Sachle,,,::Sachle
40282,https://pleiades.stoa.org/places/40282,Sagiatta/Sagitta/Sagitha,,,Sagiatta:la:Sagiatta|::Sagitta|::Sagitha
40283,https://pleiades.stoa.org/places/40283,Sakatia,,,::Sakatia
40284,https://pleiades.stoa.org/places/40284,Sakolche/Sakole,,,::Sakolche|::Sakole
40285,https://pleiades.stoa.org/places/40285,Salate/Solate,,,::Salate|::Solate
40286,https://pleiades.stoa.org/places/40286,Sambracena/Sambrachate,,,::Sambracena|Sambrachate:la:Sambrachate
40287,https://pleiades.stoa.org/places/40287,Samene,,,::Samene
40288,https://pleiades.stoa.org/places/40288,Sandake,,,::Sandake
40289,https://pleiades.stoa.org/places/40289,Sanina,,,::Sanina
40290,https://pleiades.stoa.org/places/40290,Sapaioi,,,::Sapaioi
40291,https://pleiades.stoa.org/places/40291,Sappheirine,,,::Sappheirine
40292,https://pleiades.stoa.org/places/40292,Sarapion,,,::Sarapion
40293,https://pleiades.stoa.org/places/40293,Sargo,,,::Sargo
40294,https://pleiades.stoa.org/places/40294,Sariba,,,::Sariba
40295,https://pleiades.stoa.org/places/40295,Saritai,,,::Saritai
40296,https://pleiades.stoa.org/places/40296,Sasu,,,::Sasu
40297,https://pleiades.stoa.org/places/40297,Satachthai/Satachtha,,,::Satachthai|::Satachtha
40298,https://pleiades.stoa.org/places/40298,Satyron M.,,,::Satyron M.
40299,https://pleiades.stoa.org/places/40299,Saxinae/Xoxinae,,,::Saxinae|::Xoxinae
40302,https://pleiades.stoa.org/places/40302,Sebridai,,,::Sebridai
40303,https://pleiades.stoa.org/places/40303,Sebritae/Sembitae,,,::Sebritae|::Sembitae|Σεμβρῖται:grc:Sembritai
40306,https://pleiades.stoa.org/places/40306,Sesea,,,::Sesea
40307,https://pleiades.stoa.org/places/40307,Sibis,,,::Sibis
40308,https://pleiades.stoa.org/places/40308,Sigyene/Suskinitai,,,::Sigyene|::Suskinitai
40309,https://pleiades.stoa.org/places/40309,Silaion,,,::Silaion
40310,https://pleiades.stoa.org/places/40310,Sirechae/Sirecae,,,::Sirechae|::Sirecae
40311,https://pleiades.stoa.org/places/40311,Sirtibeis,,,::Sirtibeis
40312,https://pleiades.stoa.org/places/40312,Soboridai,,,::Soboridai
40313,https://pleiades.stoa.org/places/40313,Sochchor,,,::Sochchor
40314,https://pleiades.stoa.org/places/40314,Sokratus,,,::Sokratus
40316,https://pleiades.stoa.org/places/40316,Solate,,,::Solate
40318,https://pleiades.stoa.org/places/40318,Sophanitae,,,::Sophanitae
40319,https://pleiades.stoa.org/places/40319,Sophanitai,,,::Sophanitai
40320,https://pleiades.stoa.org/places/40320,Sosippu Limen,,,::Sosippu Limen
40323,https://pleiades.stoa.org/places/40323,Strato,,,::Strato
40324,https://pleiades.stoa.org/places/40324,Strythophagoi,,,::Strythophagoi
40325,https://pleiades.stoa.org/places/40325,Stygos,,,::Stygos
40328,https://pleiades.stoa.org/places/40328,Tabienoi,,,::Tabienoi
40329,https://pleiades.stoa.org/places/40329,Taruda,,,::Taruda
40330,https://pleiades.stoa.org/places/40330,Tasitia/Tasitis,,,::Tasitia|::Tasitis
40331,https://pleiades.stoa.org/places/40331,Tathis,,,::Tathis
40332,https://pleiades.stoa.org/places/40332,Tenessis,,,::Tenessis
40334,https://pleiades.stoa.org/places/40334,Thalibae,,,:la:Thalibae
40335,https://pleiades.stoa.org/places/40335,Thamar,,,::Thamar
40336,https://pleiades.stoa.org/places/40336,Theon Soteron Limen,,,::Theon Soteron Limen
40337,https://pleiades.stoa.org/places/40337,Thuris,,,::Thuris
40338,https://pleiades.stoa.org/places/40338,Tiamaa/Tidma,,,::Tiamaa|::Tidma
40339,https://pleiades.stoa.org/places/40339,Trete,,,::Trete
40341,https://pleiades.stoa.org/places/40341,Troulla Limen,,,::Troulla Limen
40347,https://pleiades.stoa.org/places/40347,Zaa,,,::Zaa
40348,https://pleiades.stoa.org/places/40348,Zangenai/Gangerae/Gangorae,,,::Zangenai|::Gangerae|::Gangorae
40349,https://pleiades.stoa.org/places/40349,Zeeritai,,,::Zeeritai
40350,https://pleiades.stoa.org/places/40350,Zeiritai,,,::Zeiritai
40351,https://pleiades.stoa.org/places/40351,Zingabene,,,::Zingabene
40352,https://pleiades.stoa.org/places/40352,Zingis Pr.,,,::Zingis Pr.|Ζίγγις:grc:Zingis
49835,https://pleiades.stoa.org/places/49835,Abour,79.641886,10.99906,::Abour
49838,https://pleiades.stoa.org/places/49838,Adisathron (mountain),72.5,17.5,:grc:Adisathron
49841,https://pleiades.stoa.org/places/49841,Aigidioi,73.8474976008872,15.567358123213308,::Aigidioi
49842,https://pleiades.stoa.org/places/49842,Aigidion Nesos,73.275844563487,15.431656329897196,::Aigidion Nesos
49843,https://pleiades.stoa.org/places/49843,Aioi,76.85062411335839,8.717024137559111,::Aioi
49849,https://pleiades.stoa.org/places/49849,Akour,79.084495,9.929814,::Akour
49853,https://pleiades.stoa.org/places/49853,Aloe,76.353203,10.109984,::Aloe
49854,https://pleiades.stoa.org/places/49854,Alosygni,82.03177,16.618319,::Alosygni
49858,https://pleiades.stoa.org/places/49858,Andarae,81.45822730294078,16.82018311971633,::Andarae|::Andre Indi
49860,https://pleiades.stoa.org/places/49860,Andrisimoundou (Akron),79.81495959977401,9.043863200822926,::Andrisimoundou Akron|::Andrisimoundou|Mannar Island:en:Mannar Island
49870,https://pleiades.stoa.org/places/49870,Argarikos Kolpos,79.8488668,9.3229187,::Argarikos Kolpos|Palk Bay:en:Palk Bay
49871,https://pleiades.stoa.org/places/49871,Argarou,78.67343905322404,11.097740890827586,::Argarou|::Argalou
49874,https://pleiades.stoa.org/places/49874,Ariake Sadenon,74.49926834869882,18.143053494109164,::Ariake Sadenon
49878,https://pleiades.stoa.org/places/49878,Arouaia M.,78.95764465550293,14.078904512618754,::Arouaia M.|::Oroudia M.
49879,https://pleiades.stoa.org/places/49879,Arouarnoi,79.82866687152996,12.597511428219192,::Arouarnoi
49880,https://pleiades.stoa.org/places/49880,Astakapra,72.268473,21.608478,::Astakapra|::Astakanpra
49886,https://pleiades.stoa.org/places/49886,Azanos? (river),80.0,10.0,::Azanos
49889,https://pleiades.stoa.org/places/49889,Baiones (island),72.35376184730254,21.60078339021849,::Baiones
49890,https://pleiades.stoa.org/places/49890,Bakare,76.36792,9.35099,Βακάρη:grc:Bakare|Becare:la:Becare|Βαραρή:grc:Barare|Pirakkād:en:Pirakkād|:ml:Vaikkarai|പുറക്കാട്:ml:Purakkaadu|Purakkad:en:Purakkad|::Bakare
49892,https://pleiades.stoa.org/places/49892,Balita/Bambala,76.990276,8.380214,::Balita|::Bambala
49901,https://pleiades.stoa.org/places/49901,Baris (river),76.85072642424458,9.377496532851488,::Baris|Fl. Paleris:la:Fl. Paleris/flumen Paleris/Paleris (flumen)
49903,https://pleiades.stoa.org/places/49903,Barous(s)ai? (islands),93.23463946666668,8.155266766666667,::Baroussai|::Barousai|Nicobar Islands:en:Nicobar Islands
49906,https://pleiades.stoa.org/places/49906,Bassa (island),81.48132,6.18202,::Bassa
49907,https://pleiades.stoa.org/places/49907,Bata,78.827628,10.37826,::Bata
49909,https://pleiades.stoa.org/places/49909,Batoi,79.49692728269049,10.904530231788655,::Batoi
49911,https://pleiades.stoa.org/places/49911,Bazakata? (island),93.38353411481158,19.215633731471772,::Bazakata
49912,https://pleiades.stoa.org/places/49912,Benagouron,81.004404,16.642933,::Benagouron
49913,https://pleiades.stoa.org/places/49913,Bendas (river),72.5,17.5,::Bendas
49922,https://pleiades.stoa.org/places/49922,Bittigo M.,76.81426578787415,10.567355478899778,::Bittigo M.|::Bittigoi
49925,https://pleiades.stoa.org/places/49925,Boreion Pr.,80.212,9.835,::Boreion Pr.|::Boreum|Point Pedro:en:Point Pedro
49929,https://pleiades.stoa.org/places/49929,Byzantion?,73.339812,16.503036,::Byzantion
49931,https://pleiades.stoa.org/places/49931,Cabirus (river),77.10451499147801,11.93251178217356,:la:Cabirus|::Chaberos
49933,https://pleiades.stoa.org/places/49933,Calamina,80.170138,12.846573,::Calamina
49934,https://pleiades.stoa.org/places/49934,Calingae,84.73048497491246,19.54520400098917,:la:Calingae|::Modogalingae
49939,https://pleiades.stoa.org/places/49939,Chaberis Emporion,79.85456,11.025067,::Chaberis Emporion|::Kamara|:ta:Kaveripattinam|:en:Pumpuhar
49945,https://pleiades.stoa.org/places/49945,Chersonesos,74.131102,14.811768,::Chersonesos
49947,https://pleiades.stoa.org/places/49947,Choromandae,79.47637078700315,12.678589508107486,::Choromandae
49951,https://pleiades.stoa.org/places/49951,Coliacum/Kalligikon Pr.,79.8258095,10.2781938,Coliacum:la:Coliacum|::Kalligikon Pr.|::Caligarda|::Caligardamana|::Colis|::Kory Akron
49953,https://pleiades.stoa.org/places/49953,Cottonara,76.88894218680161,9.004191350292476,::Cottonara|::Kottanarike
49954,https://pleiades.stoa.org/places/49954,Cydara (river),80.0,10.0,::Cydara|::Palaesimundus|Φᾶσις:grc:Phasis
49957,https://pleiades.stoa.org/places/49957,Dagana,80.69206949557113,5.979566853778961,::Dagana|Tangalla:en:Tangalla
49958,https://pleiades.stoa.org/places/49958,Dandagula/Paloura,83.921094,18.244258,::Dandagula|::Paloura|oppidum Dandaguda:la:oppidum Dandaguda
49960,https://pleiades.stoa.org/places/49960,Deopalli,73.835692,19.944583,::Deopalli
49961,https://pleiades.stoa.org/places/49961,Desarene,85.48611060294839,20.455815579010682,::Desarene
49965,https://pleiades.stoa.org/places/49965,Divae,72.72514973784713,10.983940320478295,::Divae
49967,https://pleiades.stoa.org/places/49967,Dosaron (river),87.5,22.5,::Dosaron
49968,https://pleiades.stoa.org/places/49968,Dounga,72.90704,19.205176,::Dounga|:sa:Dhenukātaka|Salsette Island:en:Salsette Island
49972,https://pleiades.stoa.org/places/49972,Elankoros,77.265021,8.19228,::Elankoros|::Alcon
49984,https://pleiades.stoa.org/places/49984,Ganges (river in Sri Lanka),80.57353523911175,7.07429741452205,Mahaweli River:en:Mahaweli River|::Ganges
49989,https://pleiades.stoa.org/places/49989,Goaris (river),73.19488554781043,19.114973628023396,::Goaris
49990,https://pleiades.stoa.org/places/49990,Gondaloi,74.94796574496029,16.048306644084846,::Gondaloi
49997,https://pleiades.stoa.org/places/49997,Herone (island),72.5,22.5,::Herone
49999,https://pleiades.stoa.org/places/49999,Hippokoura,74.35932,16.569362,::Hippokoura
50000,https://pleiades.stoa.org/places/50000,Hippuri Pr.,79.866667,8.533333,::Hippuri Pr.
50004,https://pleiades.stoa.org/places/50004,India,79.53326050324434,20.63673796159033,::India
50015,https://pleiades.stoa.org/places/50015,Kaineiton Nesos,72.5,12.5,::Kaineiton Nesos
50017,https://pleiades.stoa.org/places/50017,Kalaikaris,76.334349,10.308184,::Kalaikaris
50019,https://pleiades.stoa.org/places/50019,Kalindoia,77.5,12.5,::Kalindoia
50020,https://pleiades.stoa.org/places/50020,Kaliour/Orthoura,78.679619,10.687267,::Kaliour|::Orthoura|::Sora
50023,https://pleiades.stoa.org/places/50023,Kalliena,73.139156,19.272784,::Kalliena
50024,https://pleiades.stoa.org/places/50024,Kalliga,83.966616,18.597236,::Kalliga
50025,https://pleiades.stoa.org/places/50025,Kalligeris,76.152406,13.495276,::Kalligeris
50032,https://pleiades.stoa.org/places/50032,Kammoni,72.925301,21.402921,::Kammoni|::Kamani
50033,https://pleiades.stoa.org/places/50033,Kanathra (island),79.68877811792926,9.51604786767614,::Kanathra|Delft island:en:Delft island
50035,https://pleiades.stoa.org/places/50035,Kannagara?,81.06276,16.315208,::Kannagara
50038,https://pleiades.stoa.org/places/50038,Kantakossyla,80.260333,16.150994,::Kantakossyla
50041,https://pleiades.stoa.org/places/50041,Kareoi,78.27056168428261,9.156823970428551,::Kareoi
50042,https://pleiades.stoa.org/places/50042,Karige,79.690518,11.432137,::Karige
50044,https://pleiades.stoa.org/places/50044,Karmara,79.632958,10.771881,::Karmara
50046,https://pleiades.stoa.org/places/50046,Karoura,77.5,12.5,::Karoura
50055,https://pleiades.stoa.org/places/50055,Kerobothros,76.25058185317283,10.90479485224958,::Kerobothros|Caelobothras:la:Caelobothras
50060,https://pleiades.stoa.org/places/50060,Koddoura,80.930118,16.259169,::Koddoura
50063,https://pleiades.stoa.org/places/50063,Kolchikos Kolpos,79.23670020753552,7.927230308933972,::Kolchikos Kolpos
50064,https://pleiades.stoa.org/places/50064,Kolchoi,78.01884,8.612651,::Kolchoi
50066,https://pleiades.stoa.org/places/50066,Komar(ei) (promontory),77.5513761,8.0772932,"::Komarei Pr.|::Komar Pr.|::Komaria|Comorin, Cape:en:Cape Comorin|:ta:Kanniyakumari/Kanniyākumāri"
50071,https://pleiades.stoa.org/places/50071,Koniakoi,77.67640181912101,8.281588785704466,::Koniakoi
50073,https://pleiades.stoa.org/places/50073,Koreoura?,76.036497,10.594294,::Koreoura
50074,https://pleiades.stoa.org/places/50074,Korounkala,79.587917,17.998359,::Korounkala
50076,https://pleiades.stoa.org/places/50076,Kory (island),79.32526871393956,9.24417392393757,::Kory
50080,https://pleiades.stoa.org/places/50080,Kottiara,76.777701,8.991778,::Kottiara|::Cotiara
50081,https://pleiades.stoa.org/places/50081,Kottis,79.904146,15.074163,::Kottis
50082,https://pleiades.stoa.org/places/50082,Kottobora,80.992405,16.421321,::Kottobora
50083,https://pleiades.stoa.org/places/50083,Kourelloura,77.170952,11.067143,::Kourelloura
50084,https://pleiades.stoa.org/places/50084,Kouroula,79.837316,10.926422,::Kouroula
50091,https://pleiades.stoa.org/places/50091,Leuke (island),74.3250429,14.0188543,::Leuke
50092,https://pleiades.stoa.org/places/50092,Limyrike,75.92164718452868,11.071631803796759,::Limyrike
50096,https://pleiades.stoa.org/places/50096,Maagrammon,81.278156,6.28428,::Maagrammon
50099,https://pleiades.stoa.org/places/50099,Magaris,85.994719,20.378459,::Magaris
50104,https://pleiades.stoa.org/places/50104,Maisolos (river),77.23648317768321,16.57542963071817,::Maisolos
50105,https://pleiades.stoa.org/places/50105,Malaia (mountain),80.71591239074576,6.887936236789827,::Malaia
50107,https://pleiades.stoa.org/places/50107,Malanga,79.69958,12.838963,::Malanga
50116,https://pleiades.stoa.org/places/50116,Mandagara?,73.03939,17.951342,::Mandagara|::Mandagora
50117,https://pleiades.stoa.org/places/50117,Mandas (river),78.06443769366221,18.7916693485695,::Mandas|::Paleris
50118,https://pleiades.stoa.org/places/50118,Maniolai (islands),92.80095117106964,12.356071346709554,::Maniolai
50123,https://pleiades.stoa.org/places/50123,Masalia,80.20345089471738,16.11050054235501,::Masalia|::Maisolia
50128,https://pleiades.stoa.org/places/50128,Melange,79.991827,14.159117,::Melange
50133,https://pleiades.stoa.org/places/50133,Milizigeris?/Sigerus?,73.213429,17.294362,::Milizigeris|::Sigerus
50137,https://pleiades.stoa.org/places/50137,Modogoulla,76.439,16.001479,::Modogoulla
50138,https://pleiades.stoa.org/places/50138,Modoura,78.122503,9.90839,::Modoura
50140,https://pleiades.stoa.org/places/50140,Modubae,78.45215174242466,17.024297320346573,::Modubae
50141,https://pleiades.stoa.org/places/50141,Monoglosson Emporion,70.246746,21.020751,::Monoglosson Emporion
50145,https://pleiades.stoa.org/places/50145,Musiris? L.,77.5,12.5,::Musiris L.
50146,https://pleiades.stoa.org/places/50146,Muziris,76.213146,10.153976,Muziris:la:Muziris|::Mouzeris|::Zmiris
50151,https://pleiades.stoa.org/places/50151,Nagagoura,79.096187,21.146995,::Nagagoura
50155,https://pleiades.stoa.org/places/50155,Nagour,79.775066,11.18796,::Nagour
50156,https://pleiades.stoa.org/places/50156,Namades/Lamnaios (river),77.61144148724505,22.52964037676565,::Namades|::Lamnaios
50157,https://pleiades.stoa.org/places/50157,Nanagounas (river),75.53370878175613,21.417089960223095,::Nanagounas
50159,https://pleiades.stoa.org/places/50159,Nanigaina,80.286238,16.770014,::Nanigaina
50160,https://pleiades.stoa.org/places/50160,Naoura/Nitriae,74.449703,14.281472,::Naoura|::Nitriae
50162,https://pleiades.stoa.org/places/50162,Nasika,73.777681,19.993198,::Nasika
50165,https://pleiades.stoa.org/places/50165,Nelkynda,76.558846,9.272624,::Nelkynda|::Melkyda|:la:Neacyndon
50168,https://pleiades.stoa.org/places/50168,Nikama,79.842074,10.784632,::Nikama
50170,https://pleiades.stoa.org/places/50170,Nousaripa,72.924985,20.944035,::Nousaripa
50172,https://pleiades.stoa.org/places/50172,Odoka,80.226317,6.045488,::Odoka
50174,https://pleiades.stoa.org/places/50174,Olochoira,74.720013,13.344129,::Olochoira
50178,https://pleiades.stoa.org/places/50178,Orientale Mare/Gangeticus Sinus/Eous Oceanus,89.9999999,15.0000001,::Orientale Mare|::Gangeticus Sinus|Eous oceanus:la:Eous Oceanus
50179,https://pleiades.stoa.org/places/50179,Orneon? Pr.,80.5916227,5.9192089,::Orneon Pr.
50182,https://pleiades.stoa.org/places/50182,Ouangana? (island),79.83167340477169,9.596698163244023,::Ouangana
50184,https://pleiades.stoa.org/places/50184,Oulippada?,80.497715,6.808048,::Oulippada
50192,https://pleiades.stoa.org/places/50192,Paithana,75.385416,19.468043,::Paithana|::Baithana
50194,https://pleiades.stoa.org/places/50194,Palaeogoni/Serendivae,80.8953661251433,7.5738998443082135,::Palaeogoni|::Serendivae|Serendivi:la:Serendivi
50196,https://pleiades.stoa.org/places/50196,Palaipatmai?,73.302413,17.526305,::Palaipatmai|::Balepatna
50199,https://pleiades.stoa.org/places/50199,Paloura,76.700285,10.472567,::Paloura
50201,https://pleiades.stoa.org/places/50201,Pandion,78.19358994658116,9.653858785357345,::Pandion|::Pandae|::Pandiones
50202,https://pleiades.stoa.org/places/50202,Pandipatna,80.194277,12.614347,::Pandipatna
50204,https://pleiades.stoa.org/places/50204,Papike Pr.,72.5,22.5,::Papike Pr.
50205,https://pleiades.stoa.org/places/50205,Paralia,77.50765587158209,8.531066006606288,::Paralia
50213,https://pleiades.stoa.org/places/50213,Perinkari,78.616334,9.684856,::Perinkari
50216,https://pleiades.stoa.org/places/50216,Phrourion,79.414997,12.245497,::Phrourion
50219,https://pleiades.stoa.org/places/50219,Pitoura,80.031192,16.346845,::Pitoura|::Pityndra
50220,https://pleiades.stoa.org/places/50220,Podoperoura,76.561462,10.595404,::Podoperoura
50221,https://pleiades.stoa.org/places/50221,Podouke/Arikamedu,79.81975045173745,11.902299155510416,अरिकमेडु:hi:Arikamedu|அரிக்கமேடு:ta:Arikkamedu/Arikkamēṭu|::Podouke
50225,https://pleiades.stoa.org/places/50225,Poulipoula,72.963116,20.769455,::Poulipoula
50226,https://pleiades.stoa.org/places/50226,Pounnata,76.530222,9.584268,::Pounnata
50234,https://pleiades.stoa.org/places/50234,Pseudostomos (river),76.81861656035815,9.848470792001356,::Pseudostomos
50236,https://pleiades.stoa.org/places/50236,Pyrron Oros,77.5,7.5,::Pyrron Oros
50243,https://pleiades.stoa.org/places/50243,Sada,93.330422,20.013925,::Sada
50244,https://pleiades.stoa.org/places/50244,Sadenoi,77.47571170006027,18.877867641368937,::Sadenoi
50248,https://pleiades.stoa.org/places/50248,Salakenoi,81.56768619959611,16.60732313316992,::Salakenoi|:sa:Śālankāyana
50252,https://pleiades.stoa.org/places/50252,Saline? (island),93.6353035,18.7969257,::Saline
50257,https://pleiades.stoa.org/places/50257,Sardonyx (mountain),76.38888953949329,21.54876483663184,::Sardonyx
50260,https://pleiades.stoa.org/places/50260,Selour,77.38007,10.432112,::Selour
50261,https://pleiades.stoa.org/places/50261,Semylla,72.947229,18.521268,::Semylla
50264,https://pleiades.stoa.org/places/50264,Sesekreienai? Inss.,72.5,17.5,::Sesekreienai
50271,https://pleiades.stoa.org/places/50271,Sippara,83.554891,18.300264,::Sippara
50275,https://pleiades.stoa.org/places/50275,Solen (river),77.5,7.5,::Solen
50278,https://pleiades.stoa.org/places/50278,Sopatma,79.942282,12.188994,::Sopatma
50279,https://pleiades.stoa.org/places/50279,Sorai,79.03998187266694,12.376989244653016,::Sorai|::Soringoi
50281,https://pleiades.stoa.org/places/50281,Souboura,79.763329,11.750868,::Souboura
50282,https://pleiades.stoa.org/places/50282,Souppara,72.804527,19.434113,::Souppara|:hi:Sopara|:sa:Shurparaka
50291,https://pleiades.stoa.org/places/50291,Syrastrene,70.71643056261146,21.21847095452941,:sa:Saurāṣṭra|::Syrastrene|Σαραόστος:grc:Saraostos
50294,https://pleiades.stoa.org/places/50294,Tagara,76.14594,18.301382,::Tagara
50295,https://pleiades.stoa.org/places/50295,Tainour,77.93307,9.869413,::Tainour
50297,https://pleiades.stoa.org/places/50297,Tangala,77.833286,9.700443,::Tangala
50298,https://pleiades.stoa.org/places/50298,Sri Lanka,80.57467817700461,7.981399724107249,Taprobane:la:Taprobane|:grc:Palaisimoundou|:grc:Salike|:grc:Silenfantine|::Simoundou|Ταπροβάνη:grc:Taprobane|Sri Lanka:en:Sri Lanka|Insvla Taproba[n]e:la:Insula Taprobane|:ota:Cezīre-i Serendīb|:ota:Cezā’ir-i Serendīb|:ota:Serendīb
50299,https://pleiades.stoa.org/places/50299,Tarachoi,81.50598691179326,7.756747232932038,::Tarachoi
50301,https://pleiades.stoa.org/places/50301,Tennagora,77.897214,11.376307,::Tennagora
50305,https://pleiades.stoa.org/places/50305,Tiagoura,74.204221,20.344225,::Tiagoura
50308,https://pleiades.stoa.org/places/50308,Toparon?,73.58469,16.220106,::Toparon
50309,https://pleiades.stoa.org/places/50309,Tosale,86.016551,20.141589,::Tosale
50312,https://pleiades.stoa.org/places/50312,Tyndis,75.926477,10.763548,::Tyndis
50313,https://pleiades.stoa.org/places/50313,Tyndis (river),82.5,22.5,::Tyndis
50314,https://pleiades.stoa.org/places/50314,Tynnas (river),77.5,12.5,::Tynnas
50315,https://pleiades.stoa.org/places/50315,Tyrannosboas?,73.472008,16.078557,::Tyrannosboas
50338,https://pleiades.stoa.org/places/50338,Zaba? (island),81.716667,6.4,::Zaba
50587,https://pleiades.stoa.org/places/50587,Adarima,,,::Adarima
50588,https://pleiades.stoa.org/places/50588,Adisamon,,,::Adisamon
50589,https://pleiades.stoa.org/places/50589,Adisathra,,,::Adisathra
50590,https://pleiades.stoa.org/places/50590,Adisathroi,,,::Adisathroi
50591,https://pleiades.stoa.org/places/50591,Agara,,,::Agara
50592,https://pleiades.stoa.org/places/50592,Agathou Daimonos (island),80.0,-20.0,::Agathou Daimonos
50593,https://pleiades.stoa.org/places/50593,Agrinagara,,,::Agrinagara
50594,https://pleiades.stoa.org/places/50594,Alaba,,,::Alaba
50595,https://pleiades.stoa.org/places/50595,Amaraththa,,,::Amaraththa
50596,https://pleiades.stoa.org/places/50596,Ambastai,,,::Ambastai
50597,https://pleiades.stoa.org/places/50597,Ammine,,,::Ammine
50598,https://pleiades.stoa.org/places/50598,Anarta,,,::Anarta
50599,https://pleiades.stoa.org/places/50599,Aninachai/Nanichai,,,::Aninachai|::Nanichai
50600,https://pleiades.stoa.org/places/50600,Anoubartha,,,::Anoubartha
50601,https://pleiades.stoa.org/places/50601,Anoubingara,,,::Anoubingara
50602,https://pleiades.stoa.org/places/50602,Arana,,,::Arana
50603,https://pleiades.stoa.org/places/50603,Arembour,,,::Arembour
50604,https://pleiades.stoa.org/places/50604,Armagara,,,::Armagara
50605,https://pleiades.stoa.org/places/50605,Aspathis,,,::Aspathis
50606,https://pleiades.stoa.org/places/50606,Aunes (river),,,::Aunes
50608,https://pleiades.stoa.org/places/50608,Badiamaioi,,,::Badiamaioi
50609,https://pleiades.stoa.org/places/50609,Balaka,,,::Balaka
50610,https://pleiades.stoa.org/places/50610,Balantipyrgon,,,::Balantipyrgon
50611,https://pleiades.stoa.org/places/50611,Barakes (river),,,::Barakes
50612,https://pleiades.stoa.org/places/50612,Barakoura,,,::Barakoura
50613,https://pleiades.stoa.org/places/50613,Bardamana,,,::Bardamana
50614,https://pleiades.stoa.org/places/50614,Bardaotis,,,::Bardaotis
50615,https://pleiades.stoa.org/places/50615,Bere,,,::Bere
50616,https://pleiades.stoa.org/places/50616,Bideris,,,::Bideris
50617,https://pleiades.stoa.org/places/50617,Bitala,,,::Bitala
50618,https://pleiades.stoa.org/places/50618,Bizala,,,::Bizala
50619,https://pleiades.stoa.org/places/50619,Bokana,,,::Bokana
50620,https://pleiades.stoa.org/places/50620,Bokanoi,,,::Bokanoi
50621,https://pleiades.stoa.org/places/50621,Boranga,,,::Boranga
50622,https://pleiades.stoa.org/places/50622,Boumasanoi,,,::Boumasanoi
50623,https://pleiades.stoa.org/places/50623,Bramagara,,,::Bramagara
50624,https://pleiades.stoa.org/places/50624,Bramme,,,::Bramme
50625,https://pleiades.stoa.org/places/50625,Bridama,,,::Bridama
50627,https://pleiades.stoa.org/places/50627,Calissae,,,:la:Calissae
50629,https://pleiades.stoa.org/places/50629,Carsania,,,::Carsania
50630,https://pleiades.stoa.org/places/50630,Chrysei,,,::Chrysei
50631,https://pleiades.stoa.org/places/50631,Crenacca,,,::Crenacca
50633,https://pleiades.stoa.org/places/50633,Dionysoupolis,,,::Dionysoupolis
50634,https://pleiades.stoa.org/places/50634,Drilophyleitai,,,::Drilophyleitai
50636,https://pleiades.stoa.org/places/50636,Eikour,,,::Eikour
50637,https://pleiades.stoa.org/places/50637,Eirene,,,::Eirene
50638,https://pleiades.stoa.org/places/50638,Empelathra,,,::Empelathra
50639,https://pleiades.stoa.org/places/50639,Eoae,,,::Eoae
50640,https://pleiades.stoa.org/places/50640,Errenesis (river),,,::Errenesis
50642,https://pleiades.stoa.org/places/50642,Gabaliba,,,::Gabaliba
50643,https://pleiades.stoa.org/places/50643,Galiba,80.0,10.0,::Galiba
50644,https://pleiades.stoa.org/places/50644,Galiba (mountain),,,::Galiba M.|Γάλιβα ὄρη:grc:Galiba ore
50645,https://pleiades.stoa.org/places/50645,Galiboi,80.0,10.0,::Galiboi
50646,https://pleiades.stoa.org/places/50646,Gammogoura,,,::Gammogoura
50647,https://pleiades.stoa.org/places/50647,Goumara,,,::Goumara
50649,https://pleiades.stoa.org/places/50649,Hierakos,,,::Hierakos
50650,https://pleiades.stoa.org/places/50650,Hippokoura,,,::Hippokoura
50652,https://pleiades.stoa.org/places/50652,Iatour,,,::Iatour
50653,https://pleiades.stoa.org/places/50653,Ikarta,,,::Ikarta
50654,https://pleiades.stoa.org/places/50654,Inde,,,::Inde
50655,https://pleiades.stoa.org/places/50655,Iogana,,,::Iogana
50657,https://pleiades.stoa.org/places/50657,Kalandadioua,,,::Kalandadioua
50658,https://pleiades.stoa.org/places/50658,Karikardama,,,::Karikardama
50659,https://pleiades.stoa.org/places/50659,Kartasynar,,,::Kartasynar
50660,https://pleiades.stoa.org/places/50660,Kartinata,,,::Kartinata
50661,https://pleiades.stoa.org/places/50661,Kassida,,,::Kassida
50662,https://pleiades.stoa.org/places/50662,Kastra,,,::Kastra
50663,https://pleiades.stoa.org/places/50663,Katabedas,,,::Katabedas
50664,https://pleiades.stoa.org/places/50664,Katikardamma,,,::Katikardamma
50665,https://pleiades.stoa.org/places/50665,Kerange,,,::Kerange
50666,https://pleiades.stoa.org/places/50666,Ketaion Akron,,,::Ketaion Akron
50667,https://pleiades.stoa.org/places/50667,Koanka,,,::Koanka
50668,https://pleiades.stoa.org/places/50668,Kondota,,,::Kondota
50669,https://pleiades.stoa.org/places/50669,Konga/Konta,,,::Konga|::Konta
50670,https://pleiades.stoa.org/places/50670,Korindiour,,,::Korindiour
50671,https://pleiades.stoa.org/places/50671,Korounda,,,::Korounda
50672,https://pleiades.stoa.org/places/50672,Korygaza,,,::Korygaza
50673,https://pleiades.stoa.org/places/50673,Kosa,,,::Kosa
50674,https://pleiades.stoa.org/places/50674,Kosamba,,,::Kosamba
50675,https://pleiades.stoa.org/places/50675,Kouma,,,::Kouma
50676,https://pleiades.stoa.org/places/50676,Kouraporina,,,::Kouraporina
50677,https://pleiades.stoa.org/places/50677,Koureour,,,::Koureour
50678,https://pleiades.stoa.org/places/50678,Krokobara,,,::Krokobara
50680,https://pleiades.stoa.org/places/50680,Malaita,,,::Malaita
50681,https://pleiades.stoa.org/places/50681,Maliarpha,,,::Maliarpha
50682,https://pleiades.stoa.org/places/50682,Maliba,,,::Maliba
50683,https://pleiades.stoa.org/places/50683,Manippala,,,::Manippala
50684,https://pleiades.stoa.org/places/50684,Mantitour,,,::Mantitour
50685,https://pleiades.stoa.org/places/50685,Mapoura,,,::Mapoura
50686,https://pleiades.stoa.org/places/50686,Margana,,,::Margana
50687,https://pleiades.stoa.org/places/50687,Margara,,,::Margara
50688,https://pleiades.stoa.org/places/50688,Mendela,,,::Mendela
50689,https://pleiades.stoa.org/places/50689,Mentanour,,,::Mentanour
50690,https://pleiades.stoa.org/places/50690,Minagara,,,::Minagara
50691,https://pleiades.stoa.org/places/50691,Mordoula,,,::Mordoula
50692,https://pleiades.stoa.org/places/50692,Mordouloi,,,::Mordouloi
50693,https://pleiades.stoa.org/places/50693,Mousopallis,,,::Mousopallis
50695,https://pleiades.stoa.org/places/50695,Naadoubada,,,::Naadoubada
50696,https://pleiades.stoa.org/places/50696,Nakadouma,,,::Nakadouma
50697,https://pleiades.stoa.org/places/50697,Nalloura,,,::Nalloura
50698,https://pleiades.stoa.org/places/50698,Nanigeris (island),,,::Nanigeris
50699,https://pleiades.stoa.org/places/50699,Nanigiroi,,,::Nanigiroi
50700,https://pleiades.stoa.org/places/50700,Nygdosora,,,::Nygdosora
50702,https://pleiades.stoa.org/places/50702,Omenogara,,,::Omenogara
50703,https://pleiades.stoa.org/places/50703,Opotoura,,,::Opotoura
50704,https://pleiades.stoa.org/places/50704,Orbadarou,,,::Orbadarou
50705,https://pleiades.stoa.org/places/50705,Oreophanta,,,::Oreophanta
50706,https://pleiades.stoa.org/places/50706,Orneon,,,::Orneon
50707,https://pleiades.stoa.org/places/50707,Ostha,,,::Ostha
50709,https://pleiades.stoa.org/places/50709,Paloura,,,::Paloura
50710,https://pleiades.stoa.org/places/50710,Panassa,,,::Panassa
50711,https://pleiades.stoa.org/places/50711,Pangipoleis,,,::Pangipoleis
50712,https://pleiades.stoa.org/places/50712,Pasage,,,::Pasage
50713,https://pleiades.stoa.org/places/50713,Passalae/Passadai/Passyadrae/Pazalai,,,Passalae:la:Passalae|::Passadai|::Passyadrae|::Pazalai
50714,https://pleiades.stoa.org/places/50714,Pausi,,,::Pausi
50715,https://pleiades.stoa.org/places/50715,Pedouke,,,::Pedouke
50716,https://pleiades.stoa.org/places/50716,Peperine,,,::Peperine
50717,https://pleiades.stoa.org/places/50717,Petirgala,,,::Petirgala
50718,https://pleiades.stoa.org/places/50718,Phagytra,,,::Phagytra
50719,https://pleiades.stoa.org/places/50719,Philekos,,,::Philekos
50720,https://pleiades.stoa.org/places/50720,Pikendaka,,,::Pikendaka
50721,https://pleiades.stoa.org/places/50721,Poleour,,,::Poleour
50722,https://pleiades.stoa.org/places/50722,Praeti,,,:la:Praeti
50723,https://pleiades.stoa.org/places/50723,Prasodes,,,::Prasodes
50724,https://pleiades.stoa.org/places/50724,Priapios,,,::Priapios
50725,https://pleiades.stoa.org/places/50725,Prokouri,,,::Prokouri
50727,https://pleiades.stoa.org/places/50727,Rhodopha,,,::Rhodopha
50729,https://pleiades.stoa.org/places/50729,Sados,,,::Sados
50730,https://pleiades.stoa.org/places/50730,Sagantion,,,::Sagantion
50731,https://pleiades.stoa.org/places/50731,Salariga,,,::Salariga
50732,https://pleiades.stoa.org/places/50732,Sannaba,,,::Sannaba
50733,https://pleiades.stoa.org/places/50733,Sapolos,,,::Sapolos
50734,https://pleiades.stoa.org/places/50734,Sarisabis,,,::Sarisabis
50735,https://pleiades.stoa.org/places/50735,Sarkana,,,::Sarkana
50736,https://pleiades.stoa.org/places/50736,Sasuri,,,:la:Sasuri
50737,https://pleiades.stoa.org/places/50737,Selour,,,::Selour
50738,https://pleiades.stoa.org/places/50738,Semne,,,::Semne
50739,https://pleiades.stoa.org/places/50739,Semnoi,,,::Semnoi
50740,https://pleiades.stoa.org/places/50740,Sibrion,,,::Sibrion
50741,https://pleiades.stoa.org/places/50741,Sigerdis,,,::Sigerdis
50742,https://pleiades.stoa.org/places/50742,Sinapatinga,,,::Sinapatinga
50743,https://pleiades.stoa.org/places/50743,Sindokanda,,,::Sindokanda
50744,https://pleiades.stoa.org/places/50744,Sindokandai,,,::Sindokandai
50745,https://pleiades.stoa.org/places/50745,Siramnai,,,::Siramnai
50746,https://pleiades.stoa.org/places/50746,Sirimalaga,,,::Sirimalaga
50747,https://pleiades.stoa.org/places/50747,Sittokatis (river),,,::Sittokatis
50748,https://pleiades.stoa.org/places/50748,Skopeloura,,,::Skopeloura
50749,https://pleiades.stoa.org/places/50749,Soanas,,,::Soanas
50750,https://pleiades.stoa.org/places/50750,Soanoi,,,::Soanoi
50751,https://pleiades.stoa.org/places/50751,Solomatis,,,::Solomatis
50752,https://pleiades.stoa.org/places/50752,Souara,,,::Souara
50753,https://pleiades.stoa.org/places/50753,Soubouttou,,,::Soubouttou
50754,https://pleiades.stoa.org/places/50754,Sousouara,,,::Sousouara
50755,https://pleiades.stoa.org/places/50755,Spatana,,,::Spatana
50756,https://pleiades.stoa.org/places/50756,Stagabaza,,,::Stagabaza
50757,https://pleiades.stoa.org/places/50757,Storna,,,::Storna
50758,https://pleiades.stoa.org/places/50758,Symbras,,,::Symbras
50759,https://pleiades.stoa.org/places/50759,Syrastra,,,::Syrastra
50761,https://pleiades.stoa.org/places/50761,Tabaso,,,::Tabaso
50762,https://pleiades.stoa.org/places/50762,Tabasoi,,,::Tabasoi
50763,https://pleiades.stoa.org/places/50763,Tallara,,,::Tallara
50764,https://pleiades.stoa.org/places/50764,Tamagis,,,::Tamagis
50765,https://pleiades.stoa.org/places/50765,Tarakori,,,::Tarakori
50766,https://pleiades.stoa.org/places/50766,Tasopeion,,,::Tasopeion
50767,https://pleiades.stoa.org/places/50767,Tathilba,,,::Tathilba
50768,https://pleiades.stoa.org/places/50768,Thellyr,,,::Thellyr
50769,https://pleiades.stoa.org/places/50769,Theophila,,,::Theophila
50770,https://pleiades.stoa.org/places/50770,Tholobana,,,::Tholobana
50771,https://pleiades.stoa.org/places/50771,Tilogrammon,,,::Tilogrammon
50772,https://pleiades.stoa.org/places/50772,Tiripangalida,,,::Tiripangalida
50773,https://pleiades.stoa.org/places/50773,Tittoua,,,::Tittoua
50774,https://pleiades.stoa.org/places/50774,Tokosanas,,,::Tokosanas
50775,https://pleiades.stoa.org/places/50775,Touana,,,::Touana
50776,https://pleiades.stoa.org/places/50776,Trikadiba,,,::Trikadiba
50778,https://pleiades.stoa.org/places/50778,Xerogerei,,,::Xerogerei
59648,https://pleiades.stoa.org/places/59648,Abastanoi/Sambastai,71.59226468671434,28.751810473590666,Ἀβαστάνοι:grc:Abastanoi|:grc:Sambastai|:la:Megallae|::Sabarcae|::Sabbas|::Sabou|::Subagrae
59649,https://pleiades.stoa.org/places/59649,Aberia,68.70373216215937,26.222011238527823,::Aberia
59650,https://pleiades.stoa.org/places/59650,Abii,65.18051698457413,40.44585246840036,:la:Abii
59651,https://pleiades.stoa.org/places/59651,Abiria,74.73711205081261,22.6473654352932,::Abiria
59652,https://pleiades.stoa.org/places/59652,Abisareis,73.44540747023036,34.03666228050725,::Abisareis
59654,https://pleiades.stoa.org/places/59654,Acutri?,71.08802258775775,34.50671684486372,:la:Acutri
59655,https://pleiades.stoa.org/places/59655,Adamas? (river),86.37591043921834,22.65087510717981,::Adamas
59656,https://pleiades.stoa.org/places/59656,Adisdara,79.111003,29.381476,::Adisdara
59657,https://pleiades.stoa.org/places/59657,Adrestae,74.6708279608821,31.507940963272702,::Adrestae|::Andri|::Adri
59658,https://pleiades.stoa.org/places/59658,Agalasseis/Agensonae,70.8824991749093,30.1772226700362,::Agalasseis|::Agensonae|::Gesonae
59659,https://pleiades.stoa.org/places/59659,Aganagara?,88.430067,23.620683,::Aganagara
59664,https://pleiades.stoa.org/places/59664,Akesinos/Sandabal (river),72.56760560324085,31.3176944630876,::Akesinos|::Sandabal|::Cantaba
59668,https://pleiades.stoa.org/places/59668,Alexandria/Kapisa,69.310488,34.992542,:en:Alexandria|Bagram:en:Bagram|Ἀλεξάνδρεια πρὸς Καυκάσῳ:akk:Alexandreia pròs Kaukásōi
59669,https://pleiades.stoa.org/places/59669,Alexandria/Alexandropolis/Cufis,65.6597,31.601,::Alexandria|::Alexandropolis|::Cufis|Qandahar:en:Qandahar|None:grc:Alexandropolis|None:grc:Arachōsia/Arachosia|None:None:Kandāhār|None:en:Alexandreia en Arachōsia/Alexandreia en Arachosia/Alexandria in Arachosia|None:grc:Alexandreia en Arachōsia/Alexandreia en Arachosia/Alexandria in Arachosia|:fa:Qandahār/Qandahar|None:fa:Kandahār/Kandahar/Candahar|None:grc:Alexandreia|قندهار:fa:Qandahār|:ota:Ḳandehār
59672,https://pleiades.stoa.org/places/59672,Alexandria Eschate,69.640562,40.264798,::Alexandria Eschate|::Cyreschata|Хуҷанд:tg-Cyrl:Khujand/Khojend/Xuçand|خجند:ota:Ḫucend
59675,https://pleiades.stoa.org/places/59675,Alexandria/Rhambakia,66.45966756250053,26.130729898182246,:la:Alexandria|Ῥαμβακία:grc:Rhambakia|::Alexandropolis|::Arbis|Alexandria/Rhambakia:en:Alexandria/Rhambakia
59677,https://pleiades.stoa.org/places/59677,Alexandrou Limen/Portus Macedonum,67.920001,24.649668,::Alexandrou Limen|::Portus Macedonum|::Abies|::Barbara|::Barce|::Biblon|::Paricea|Xylinepolis:la:Xylinepolis
59680,https://pleiades.stoa.org/places/59680,Amystis (river),87.19021429660275,23.9326639231594,::Amystis
59682,https://pleiades.stoa.org/places/59682,Andomatis (river),86.60687364030639,23.421717229195067,::Andomatis
59683,https://pleiades.stoa.org/places/59683,Aninacha,80.056044,27.478658,::Aninacha
59684,https://pleiades.stoa.org/places/59684,Antibolei (river),90.82273079301956,23.826826467049468,::Antibolei
59687,https://pleiades.stoa.org/places/59687,Aornos,73.28464,34.72192,::Aornos|::Aornis
59689,https://pleiades.stoa.org/places/59689,Apokopa (mountain),73.65639163185409,25.03744951964815,::Apokopa
59690,https://pleiades.stoa.org/places/59690,Arabis (river),66.69363,24.88207,::Arabis|:grc:Arbius|::Arbis|::Barbarus|::Chariphou|Arbius:la:Arbius
59691,https://pleiades.stoa.org/places/59691,Arabitai,68.10255477928911,25.323393242811445,Ἀραβῖται:grc:Arabitai|::Aribae|::Arbae|Ἄρβιες:grc:Arbies|::Abritai|::Terabdoi
59692,https://pleiades.stoa.org/places/59692,Arachosia,67.26989683607847,30.888258077177504,Arachosia:la:Arachosia|::Arachotoi|::Arachosii|::Rachousoi
59693,https://pleiades.stoa.org/places/59693,Arachosia (river),66.15175668727049,32.14524140706726,Arachosia:la:Arachosia|::Arachotos
59694,https://pleiades.stoa.org/places/59694,Arachosiorum Oppidum/Alexandria,68.388483,33.498616,Arachosiorum Oppidum:la:Arachosiorum Oppidum|::Alexandria|::Arachosia|::Arachotos|::Demetrias|::Agazaca|::Gazaca|None:fa:Ġaznīn/Ghaznin|None:None:Ġazni|None:fa:Ġaznī/Ghazni|None:arb:Ġazna/Ghazna
59695,https://pleiades.stoa.org/places/59695,Arachotos Krene,68.054,33.794,::Arachotos Krene
59697,https://pleiades.stoa.org/places/59697,Arbita (mountain),66.99839724467209,26.99972343926125,::Arbita M.|::Arbitani M.
59700,https://pleiades.stoa.org/places/59700,Ariake/Larike,71.97578733971922,22.30414301467541,::Ariake|::Larike
59702,https://pleiades.stoa.org/places/59702,Arigaion/Acadira,71.161012,34.663757,::Arigaion|::Acadira|::Ariani
59703,https://pleiades.stoa.org/places/59703,Aristobathra/Orobatis,72.48637,33.916803,::Aristobathra|::Orobatis
59705,https://pleiades.stoa.org/places/59705,Ārjunāyanas,76.39497942924939,27.6075119353747,::Ārjunāyanas
59707,https://pleiades.stoa.org/places/59707,Arsagalitae,73.35817820493334,33.86390698822857,Arsagalitae:la:Arsagalitae|:la:Orsaei
59710,https://pleiades.stoa.org/places/59710,Ascatancas (mountain),70.97797249913452,41.15942110250566,:grc:Ascatancas
59711,https://pleiades.stoa.org/places/59711,Asigramma,72.602753,34.028693,::Asigramma
59713,https://pleiades.stoa.org/places/59713,Aspasioi,70.5114575803496,34.55028242754162,::Aspasioi|Ὑπάσιοι:grc:Hypasioi
59714,https://pleiades.stoa.org/places/59714,Assakanoi,71.47516049052555,34.860703395611125,::Assakanoi|::Asmagi|:la:Assoi|::Assakia
59716,https://pleiades.stoa.org/places/59716,Astakenoi/Sattagydai,70.24093132934284,35.191447578962276,::Astakenoi|::Sattagydai|::Aspagani|::Tatakene
59717,https://pleiades.stoa.org/places/59717,Asthagoura,83.021033,25.020732,::Asthagoura
59718,https://pleiades.stoa.org/places/59718,Asthala/Solis?/Karmina? (island),63.84586111932306,25.12009297727392,::Asthala|::Solis|::Karmina|::Karnine|::Nosala|Nympharum Cubile:la:Nympharum Cubile
59719,https://pleiades.stoa.org/places/59719,Astomi,80.44915267747022,30.746069477488664,::Astomi
59720,https://pleiades.stoa.org/places/59720,Astrybai,74.12951864455823,31.09309337437042,::Astrybai
59721,https://pleiades.stoa.org/places/59721,Attakenoi,74.07626418007459,30.624399132691057,::Attakenoi
59722,https://pleiades.stoa.org/places/59722,Automula,71.834758,21.770393,::Automula
59726,https://pleiades.stoa.org/places/59726,Bactrus?/Zariaspis? (river),66.84695521159703,36.67438950775735,::Bactrus|::Zariaspis
59727,https://pleiades.stoa.org/places/59727,Bagisara,64.627005,25.22383,::Bagisara
59728,https://pleiades.stoa.org/places/59728,Bagoon (mountain),63.78273036983263,32.898975069344964,:grc:Bagoon
59729,https://pleiades.stoa.org/places/59729,Baitia (mountain),65.7869892220628,29.14191658492146,::Baitia
59731,https://pleiades.stoa.org/places/59731,Bandobene,72.349267,34.015874,Βανδοβηνὴ:grc:Bandobene|::Peukelaotis
59732,https://pleiades.stoa.org/places/59732,Barake (islands),69.11490452091387,22.45463247744228,::Barake
59733,https://pleiades.stoa.org/places/59733,Barakes Kolpos,69.7625581,22.6612804,::Barakes Kolpos|::Kanthikos Kolpos|Gulf of Kutch:en:Gulf of Kutch/Kutch (Gulf of)|Gulf of Kachchh:en:Gulf of Kachchh/Kachchh (Gulf of)|કચ્છનો અખાત:gu:Kacchanō akhāta
59734,https://pleiades.stoa.org/places/59734,Barbarikon,69.021536,24.92407,::Barbarikon
59735,https://pleiades.stoa.org/places/59735,Bargysoi,85.48293992980784,26.243751339055336,::Bargysoi
59737,https://pleiades.stoa.org/places/59737,Barygaza,72.983068,21.70078,:grc:Barygaza|Βαργόση:grc:Bargose
59738,https://pleiades.stoa.org/places/59738,Barygazon Kolpos,72.39405641663208,21.214278281066015,::Barygazon Kolpos|::Barygazenos Kolpos
59739,https://pleiades.stoa.org/places/59739,Batankaisara?,77.791142,26.860053,::Batankaisara
59740,https://pleiades.stoa.org/places/59740,Bazira,72.2128014,34.6813245,::Bazira|::Beira|:ps:Bī̄r-Koṭ-Ghwaṇḍai
59741,https://pleiades.stoa.org/places/59741,Bepyron (mountain),92.06043510572331,27.377594551198428,:grc:Bepyron
59744,https://pleiades.stoa.org/places/59744,Bibakta (island),67.68303659926481,24.424264404536345,::Bibakta|Bibaga:la:Bibaga
59747,https://pleiades.stoa.org/places/59747,Bigis/Bestia Desolata/Parabeste,64.3566,31.5081,لښکرګاه:ps:Lashkargah/Lashkargāh|بوست:ar:Bost/Bust|::Bigis|Bestia deselvtia:la:Bestia Desolata|Parabeste:la:Parabeste|::Biyt|بست:ota:Bust
59749,https://pleiades.stoa.org/places/59749,Bolingae,75.68518877457329,27.59925032250876,:la:Bolingae
59750,https://pleiades.stoa.org/places/59750,Boukephala,73.44737579485059,32.68886475983254,Βουκεφάλα:grc:Boukephala|::Boos Kephalai|Bucephala:la:Bucephala|Ἀλεξάνδρεια Βουκέφαλα:grc:Alexandreia Boukephala/Alexándreia Bouképhala|Alexandria Bvcefalos:la:Alexandria Bucefalos
59753,https://pleiades.stoa.org/places/59753,Butae,69.47028099490292,22.97119399860428,::Butae
59754,https://pleiades.stoa.org/places/59754,Byltai,76.31219890207619,35.49080666855811,::Byltai|::Bolitai
59759,https://pleiades.stoa.org/places/59759,Capisa,69.755491,34.951323,Capisa:la:Capisa|::Caphisa
59761,https://pleiades.stoa.org/places/59761,Capitalia (mountain),72.7081876,24.592433,::Capitalia
59763,https://pleiades.stoa.org/places/59763,Casuagus/Kossoanos (river),86.78947279055427,26.022594994105738,::Casuagus|::Kossoanos
59766,https://pleiades.stoa.org/places/59766,Chaarene/Arana,64.95528307014071,28.03185914429766,Χααρηνὴ:grc:Chaarene|::Arana|::Rhana
59768,https://pleiades.stoa.org/places/59768,Charmae,78.49739095457578,25.21116839153654,::Charmae
59770,https://pleiades.stoa.org/places/59770,Chatriaioi,76.19429159574085,23.58914261429,::Chatriaioi
59771,https://pleiades.stoa.org/places/59771,Chaurana,79.922825,37.112392,::Chaurana
59772,https://pleiades.stoa.org/places/59772,Chirotosagi/Kirradai,87.95251097554161,27.449538422411816,:la:Chirotosagi|::Kirradai|::Cirrabe Indi|::Kirradia|::Korouda|::Piladai|::Sciratae|::Thalutae
59773,https://pleiades.stoa.org/places/59773,Choaspes (river),73.2261416632634,30.740367443312874,Χοάσπης:grc:Choaspes|:grc:Gouraios|::Garoias|Parospus:la:Parospus
59774,https://pleiades.stoa.org/places/59774,Choes? (river),70.2884894,34.5126952,::Choes
59775,https://pleiades.stoa.org/places/59775,Chrisobora/Kleisobora,77.649033,28.030792,::Chrisobora|::Kleisobora
59776,https://pleiades.stoa.org/places/59776,Chrysoun Stoma,70.12808435,29.059230300000003,::Chrysoun Stoma
59778,https://pleiades.stoa.org/places/59778,Colobae,77.12664513948312,31.79441564704721,::Colobae
59779,https://pleiades.stoa.org/places/59779,Comedus (mountain),72.3423339443528,38.72162248095683,::Comedus M.|::Caumestes M.
59781,https://pleiades.stoa.org/places/59781,Cyropolis/Kyra,69.26197650812992,40.13535503272606,::Cyropolis|::Kyra|::Cyreschata
59787,https://pleiades.stoa.org/places/59787,Daradrai/Dadikai,71.43775859933993,35.35238569613247,Δαράδραι:grc:Daradrai|::Dadikai|Dardae:la:Dardae|::Dardaneis|::Datichai
59789,https://pleiades.stoa.org/places/59789,Dargoidos? (river),68.50873658907629,35.99835222705465,::Dargoidos
59790,https://pleiades.stoa.org/places/59790,Dari,70.26716979849299,24.629794208211326,::Dari
59794,https://pleiades.stoa.org/places/59794,Dosara,84.731548,24.881711,::Dosara
59798,https://pleiades.stoa.org/places/59798,Dymos? (river),69.48754823656833,41.35409615514111,::Dymos
59799,https://pleiades.stoa.org/places/59799,Dyrta,72.483036,34.502149,::Dyrta
59801,https://pleiades.stoa.org/places/59801,Eirinon,70.943,23.99,::Eirinon
59802,https://pleiades.stoa.org/places/59802,Eiron (mountain),67.86166,24.67025,:grc:Eiron
59803,https://pleiades.stoa.org/places/59803,Embolima,72.79376,34.648977,::Embolima|::Ecbolima
59804,https://pleiades.stoa.org/places/59804,Emodon/Kasia (mountain),80.915833,35.315833,::Emodon|::Kasia M.
59807,https://pleiades.stoa.org/places/59807,Eragassa,78.502924,25.692849,::Eragassa
59808,https://pleiades.stoa.org/places/59808,Erannoboas/Sonus (river),83.79738394056189,24.8285318048606,Ἐραννοβόας:grc:Erannoboas|Sonus:la:Sonus|::Eramnomboua|::So
59810,https://pleiades.stoa.org/places/59810,Erymandros (river),64.79228598375738,32.08959322746954,::Erymandros|::Cymander|::Ebimaris|::Etymandros|::Ethymantus|Helmand River:en:Helmand/Helmand River
59812,https://pleiades.stoa.org/places/59812,Euthymedeia/Sangala,74.541542,32.238201,::Euthymedeia|::Sangala
59814,https://pleiades.stoa.org/places/59814,‘Focari’,82.59076685176568,40.79189781459732,::Focari|::Tochari|Thocari:la:Thocari
59818,https://pleiades.stoa.org/places/59818,Gandaris,,,::Gandaris|::Gandaritis|GANDARI INDI:la:Gandari Indi
59819,https://pleiades.stoa.org/places/59819,Ganganoi,79.57606554735061,28.978032240086037,::Ganganoi
59820,https://pleiades.stoa.org/places/59820,Gangaridae,89.2620336294572,22.85090066305825,::Gangaridae|::Gandaridai
59821,https://pleiades.stoa.org/places/59821,Gange,81.810766,25.425265,::Gange
59822,https://pleiades.stoa.org/places/59822,Ganges (river),83.77990189470715,25.932326764891943,Fl. Ganges:la:Ganges|::Padus|::Phison|::Alibotra
59824,https://pleiades.stoa.org/places/59824,Gari,64.3142,31.878378,::Gari
59825,https://pleiades.stoa.org/places/59825,Gatasmira,77.064491,27.330766,::Gatasmira
59828,https://pleiades.stoa.org/places/59828,Glauganikai,74.3173777620029,33.21859136895765,Γλαυγανῖκαι:grc:Glauganikai|::Glausai
59829,https://pleiades.stoa.org/places/59829,Gogaraei,71.91013403132233,29.39120571019234,:la:Gogaraei
59830,https://pleiades.stoa.org/places/59830,Goryaia,71.86972776705935,35.255077361613296,::Goryaia|::Gouraioi
59831,https://pleiades.stoa.org/places/59831,Gynaikon Limen/Morontobara,67.055289,24.855015,::Gynaikon Limen|::Morontobara
59834,https://pleiades.stoa.org/places/59834,Hemodos/Imaus/Caucasus (mountains),81.17261048904085,30.247764207578754,::Hemodos|::Imaus|:grc:Caucasus M.|::Emodus M.|::Hemoda M.|::Emoda M.|::Imaikos M.|::Lamnus M.|::Tauros M.|Ἠμωδὰ:grc:Hemoda|Ἠμωδὸν ὄρος:grc:Emodon oros/Ēmōdòn óros
59835,https://pleiades.stoa.org/places/59835,(H)Eorta/Sageda,81.857671,26.953896,::Heorta|::Eorta|::Sageda|::Sagala|::Arate
59837,https://pleiades.stoa.org/places/59837,Hydaspes/Bidaspes (river),73.63348746089652,33.256595528438005,Ὑδάσπης:grc:Hydaspes|Βιδάσπης:grc:Bidaspes|::Idaspes
59838,https://pleiades.stoa.org/places/59838,Hydraotes/Arouadis/Porrus (river),73.93861100057684,31.415582546289716,Ὑδραώτης:grc:Hydraṓtēs|::Arouadis|::Porrus|Ὑάρωτις:grc:Hyárōtis
59839,https://pleiades.stoa.org/places/59839,Vipās/Hyp(h)asis/Bibasis/Hypanis (river),75.54716082714245,31.730138675406824,::Hyphasis|::Hypasis|::Bibasis|::Hypanis
59844,https://pleiades.stoa.org/places/59844,Iaxartes/Silis/Tanais (river),66.51560093296845,43.43289257150945,::Iaxartes|::Silis|::Tanais|::Araxes|::Laxates|::Orexartes|::Oxyartes|نهر شاش:ota:Nehr-i Şāş
59847,https://pleiades.stoa.org/places/59847,Indabara,77.256284,28.612334,::Indabara
59849,https://pleiades.stoa.org/places/59849,Indoi,68.69990395751553,27.072485032511352,::Indoi
59850,https://pleiades.stoa.org/places/59850,Indoskythia,67.81094562544773,26.365542534627913,::Indoskythia
59851,https://pleiades.stoa.org/places/59851,Indus/Sinthos/Phison (river),72.26800054060094,31.153513500910684,::Indus|::Sinthos|::Phison|::Sindus|::Sygoton
59852,https://pleiades.stoa.org/places/59852,Iomanes/Iobares (river),78.18148087998077,30.754385934728944,amnis Iomanes:la:Iomanes|::Iobares|::Diamounas|Semana:en:Semana|Jemma:en:Jemma
59853,https://pleiades.stoa.org/places/59853,Issedones,95.07657418062111,39.43307145374756,::Issedones|ESSEDONES SCYTHAE:la:Essedones Scythae
59856,https://pleiades.stoa.org/places/59856,Kakouthis,85.052746,25.227741,::Kakouthis
59857,https://pleiades.stoa.org/places/59857,Kalama Kolpos,64.05951,25.43851,::Kalama Kolpos
59858,https://pleiades.stoa.org/places/59858,Kamberichon Stoma,,,গড়াই-মধুমতি:bn:gaṛāi-madhumati/Gôŗai-Modhumoti|Gorai-Madhumati:en:Gorai-Madhumati|Garai:en:Garai|::Kamberichon Stoma
59859,https://pleiades.stoa.org/places/59859,Kambistholoi,72.83523255110936,30.745809876449616,::Kambistholoi
59860,https://pleiades.stoa.org/places/59860,Kambouson Stoma,87.5,22.5,::Kambouson Stoma
59861,https://pleiades.stoa.org/places/59861,Kamigara,68.849077,27.689213,::Kamigara|::Camagora
59862,https://pleiades.stoa.org/places/59862,Kanogiza,79.918632,27.053262,::Kanogiza|::Kanagora
59863,https://pleiades.stoa.org/places/59863,Kanthi,70.47051,23.481786,::Kanthi
59866,https://pleiades.stoa.org/places/59866,Kāśī,83.033976,25.326033,::Kāśī
59869,https://pleiades.stoa.org/places/59869,Kaspiria/Caspyre/Kattybourine,74.8246963017859,34.0907837288023,::Kaspiria|::Caspyre|::Kattybourine
59870,https://pleiades.stoa.org/places/59870,Katadoupe,88.132158,23.63355,::Katadoupe
59871,https://pleiades.stoa.org/places/59871,Kathaioi/Xathroi,74.67188998686004,32.22274185807949,::Kathaioi|::Xathroi|::Catheani|::Mathai
59873,https://pleiades.stoa.org/places/59873,Kauśāmbī,81.392899,25.338984,::Kauśāmbī
59874,https://pleiades.stoa.org/places/59874,Kekeoi,73.37669209192184,30.912940981385635,:grc:Kekeoi|Ceae:la:Ceae
59875,https://pleiades.stoa.org/places/59875,Kelydna,88.137799,25.022024,::Kelydna
