pid,uri,title,longitude,latitude
20387,https://pleiades.stoa.org/places/20387,Åby,16.650029,56.583364
20408,https://pleiades.stoa.org/places/20408,Biesenbrow,14.014382,53.119531
20410,https://pleiades.stoa.org/places/20410,Biskupin,17.744919,52.787574
20412,https://pleiades.stoa.org/places/20412,Björnhovda,16.515654,56.655797
20416,https://pleiades.stoa.org/places/20416,Botes,18.574342,57.289788
20477,https://pleiades.stoa.org/places/20477,Gundestrup,9.562383,56.814072
20492,https://pleiades.stoa.org/places/20492,Illerup Ådal,9.938972,56.053145
20503,https://pleiades.stoa.org/places/20503,Känne,18.492355,57.176286
20506,https://pleiades.stoa.org/places/20506,Karlino,15.877106,54.033665
20510,https://pleiades.stoa.org/places/20510,Klein Köris,13.688226,52.1677
20515,https://pleiades.stoa.org/places/20515,Krusza Zamkowa,18.25851,52.739998
20530,https://pleiades.stoa.org/places/20530,Łubiana,17.870365,54.111638
20550,https://pleiades.stoa.org/places/20550,Morshanskoe,20.510445,54.856848
20553,https://pleiades.stoa.org/places/20553,Mrzezino,18.429722,54.652959
20603,https://pleiades.stoa.org/places/20603,Sindarve,18.387163,57.202552
20608,https://pleiades.stoa.org/places/20608,Smørenge,14.859981,55.075621
20610,https://pleiades.stoa.org/places/20610,Soldatergård,15.07536,54.994366
20612,https://pleiades.stoa.org/places/20612,Sorte Muld,15.077045,55.099878
20633,https://pleiades.stoa.org/places/20633,Vallhagar,18.209431,57.333805
20647,https://pleiades.stoa.org/places/20647,Witaszkowo,14.770749,51.864705
29457,https://pleiades.stoa.org/places/29457,Alexandria,62.16410466666667,34.331043666666666
29503,https://pleiades.stoa.org/places/29503,Barna,62.331697,25.227074
29525,https://pleiades.stoa.org/places/29525,Chatracharta,63.544933,39.06704
29542,https://pleiades.stoa.org/places/29542,Darabgird,54.544772,28.755075
29626,https://pleiades.stoa.org/places/29626,Karmana,57.743416,28.665408
29652,https://pleiades.stoa.org/places/29652,Macoraba,39.815421,21.426804
29756,https://pleiades.stoa.org/places/29756,Shiragan/Sirjan,55.668645,29.436543
29799,https://pleiades.stoa.org/places/29799,Valashgerd,57.25407,27.862649
29811,https://pleiades.stoa.org/places/29811,Yazd,54.35877,31.892187
39263,https://pleiades.stoa.org/places/39263,Abisama,46.509908,13.538636
39265,https://pleiades.stoa.org/places/39265,Achoma,43.841134,13.817324
39268,https://pleiades.stoa.org/places/39268,Adana,43.987875,13.958528
39269,https://pleiades.stoa.org/places/39269,Adane/Athenae/Eudaimon Arabia,45.038928,12.771651
39270,https://pleiades.stoa.org/places/39270,Adedou Kome,42.948026,14.798024
39277,https://pleiades.stoa.org/places/39277,Ailou Kome,43.376606,13.871006
39280,https://pleiades.stoa.org/places/39280,Akme,42.841909,16.468331
39285,https://pleiades.stoa.org/places/39285,Amnestum,44.793055,16.699491
39293,https://pleiades.stoa.org/places/39293,Aromata Emporion,50.948956,11.825923
39301,https://pleiades.stoa.org/places/39301,Ausara,52.098032,16.33209
39311,https://pleiades.stoa.org/places/39311,Badeo,42.980529,15.220499
39312,https://pleiades.stoa.org/places/39312,Baitios,42.819149,16.56401
39322,https://pleiades.stoa.org/places/39322,Cardava,44.705389,16.743842
39336,https://pleiades.stoa.org/places/39336,Dela,46.254233,14.104997
39353,https://pleiades.stoa.org/places/39353,Ioula,48.568626,16.249392
39365,https://pleiades.stoa.org/places/39365,Labaetia,44.558041,16.5545
39373,https://pleiades.stoa.org/places/39373,Maipha,47.730183,14.555811
39375,https://pleiades.stoa.org/places/39375,Malao,45.013109,10.420294
39382,https://pleiades.stoa.org/places/39382,Marma,42.34894,17.326869
39383,https://pleiades.stoa.org/places/39383,Meda,43.693538,13.615017
39385,https://pleiades.stoa.org/places/39385,Mesala,45.440538,13.147317
39393,https://pleiades.stoa.org/places/39393,Nagia,45.638293,15.430638
39394,https://pleiades.stoa.org/places/39394,Nascus,44.651994,16.558214
39396,https://pleiades.stoa.org/places/39396,Neogilla,52.785062,16.730687
39397,https://pleiades.stoa.org/places/39397,Nestus,44.73158,16.561019
39398,https://pleiades.stoa.org/places/39398,Nossa,45.325396,15.134369
39407,https://pleiades.stoa.org/places/39407,Phoda,43.53849,17.760701
39412,https://pleiades.stoa.org/places/39412,Raida,44.414857,14.316682
39424,https://pleiades.stoa.org/places/39424,Saraka,43.925998,13.434482
39425,https://pleiades.stoa.org/places/39425,Sarouon,46.394374,14.785877
39431,https://pleiades.stoa.org/places/39431,Thialemath,50.52766,15.048659
39432,https://pleiades.stoa.org/places/39432,Thomala,43.164874,19.91721
39434,https://pleiades.stoa.org/places/39434,Tretos,49.123406,14.534337
49835,https://pleiades.stoa.org/places/49835,Abour,79.641886,10.99906
49849,https://pleiades.stoa.org/places/49849,Akour,79.084495,9.929814
49853,https://pleiades.stoa.org/places/49853,Aloe,76.353203,10.109984
49854,https://pleiades.stoa.org/places/49854,Alosygni,82.03177,16.618319
49880,https://pleiades.stoa.org/places/49880,Astakapra,72.268473,21.608478
49892,https://pleiades.stoa.org/places/49892,Balita/Bambala,76.990276,8.380214
49907,https://pleiades.stoa.org/places/49907,Bata,78.827628,10.37826
49912,https://pleiades.stoa.org/places/49912,Benagouron,81.004404,16.642933
49939,https://pleiades.stoa.org/places/49939,Chaberis Emporion,79.85456,11.025067
49945,https://pleiades.stoa.org/places/49945,Chersonesos,74.131102,14.811768
49958,https://pleiades.stoa.org/places/49958,Dandagula/Paloura,83.921094,18.244258
49960,https://pleiades.stoa.org/places/49960,Deopalli,73.835692,19.944583
49968,https://pleiades.stoa.org/places/49968,Dounga,72.90704,19.205176
49972,https://pleiades.stoa.org/places/49972,Elankoros,77.265021,8.19228
49999,https://pleiades.stoa.org/places/49999,Hippokoura,74.35932,16.569362
50017,https://pleiades.stoa.org/places/50017,Kalaikaris,76.334349,10.308184
50020,https://pleiades.stoa.org/places/50020,Kaliour/Orthoura,78.679619,10.687267
50023,https://pleiades.stoa.org/places/50023,Kalliena,73.139156,19.272784
50024,https://pleiades.stoa.org/places/50024,Kalliga,83.966616,18.597236
50025,https://pleiades.stoa.org/places/50025,Kalligeris,76.152406,13.495276
50032,https://pleiades.stoa.org/places/50032,Kammoni,72.925301,21.402921
50038,https://pleiades.stoa.org/places/50038,Kantakossyla,80.260333,16.150994
50042,https://pleiades.stoa.org/places/50042,Karige,79.690518,11.432137
50044,https://pleiades.stoa.org/places/50044,Karmara,79.632958,10.771881
50060,https://pleiades.stoa.org/places/50060,Koddoura,80.930118,16.259169
50064,https://pleiades.stoa.org/places/50064,Kolchoi,78.01884,8.612651
50074,https://pleiades.stoa.org/places/50074,Korounkala,79.587917,17.998359
50080,https://pleiades.stoa.org/places/50080,Kottiara,76.777701,8.991778
50081,https://pleiades.stoa.org/places/50081,Kottis,79.904146,15.074163
50082,https://pleiades.stoa.org/places/50082,Kottobora,80.992405,16.421321
50083,https://pleiades.stoa.org/places/50083,Kourelloura,77.170952,11.067143
50084,https://pleiades.stoa.org/places/50084,Kouroula,79.837316,10.926422
50096,https://pleiades.stoa.org/places/50096,Maagrammon,81.278156,6.28428
50099,https://pleiades.stoa.org/places/50099,Magaris,85.994719,20.378459
50107,https://pleiades.stoa.org/places/50107,Malanga,79.69958,12.838963
50128,https://pleiades.stoa.org/places/50128,Melange,79.991827,14.159117
50137,https://pleiades.stoa.org/places/50137,Modogoulla,76.439,16.001479
50138,https://pleiades.stoa.org/places/50138,Modoura,78.122503,9.90839
50141,https://pleiades.stoa.org/places/50141,Monoglosson Emporion,70.246746,21.020751
50151,https://pleiades.stoa.org/places/50151,Nagagoura,79.096187,21.146995
50155,https://pleiades.stoa.org/places/50155,Nagour,79.775066,11.18796
50159,https://pleiades.stoa.org/places/50159,Nanigaina,80.286238,16.770014
50160,https://pleiades.stoa.org/places/50160,Naoura/Nitriae,74.449703,14.281472
50162,https://pleiades.stoa.org/places/50162,Nasika,73.777681,19.993198
50165,https://pleiades.stoa.org/places/50165,Nelkynda,76.558846,9.272624
50168,https://pleiades.stoa.org/places/50168,Nikama,79.842074,10.784632
50170,https://pleiades.stoa.org/places/50170,Nousaripa,72.924985,20.944035
50172,https://pleiades.stoa.org/places/50172,Odoka,80.226317,6.045488
50174,https://pleiades.stoa.org/places/50174,Olochoira,74.720013,13.344129
50192,https://pleiades.stoa.org/places/50192,Paithana,75.385416,19.468043
50199,https://pleiades.stoa.org/places/50199,Paloura,76.700285,10.472567
50202,https://pleiades.stoa.org/places/50202,Pandipatna,80.194277,12.614347
50213,https://pleiades.stoa.org/places/50213,Perinkari,78.616334,9.684856
50216,https://pleiades.stoa.org/places/50216,Phrourion,79.414997,12.245497
50219,https://pleiades.stoa.org/places/50219,Pitoura,80.031192,16.346845
50220,https://pleiades.stoa.org/places/50220,Podoperoura,76.561462,10.595404
50225,https://pleiades.stoa.org/places/50225,Poulipoula,72.963116,20.769455
50226,https://pleiades.stoa.org/places/50226,Pounnata,76.530222,9.584268
50227,https://pleiades.stoa.org/places/50227,Prabhas Patan,70.402269,20.890744
50243,https://pleiades.stoa.org/places/50243,Sada,93.330422,20.013925
50260,https://pleiades.stoa.org/places/50260,Selour,77.38007,10.432112
50261,https://pleiades.stoa.org/places/50261,Semylla,72.947229,18.521268
50271,https://pleiades.stoa.org/places/50271,Sippara,83.554891,18.300264
50278,https://pleiades.stoa.org/places/50278,Sopatma,79.942282,12.188994
50281,https://pleiades.stoa.org/places/50281,Souboura,79.763329,11.750868
50282,https://pleiades.stoa.org/places/50282,Souppara,72.804527,19.434113
50294,https://pleiades.stoa.org/places/50294,Tagara,76.14594,18.301382
50295,https://pleiades.stoa.org/places/50295,Tainour,77.93307,9.869413
50297,https://pleiades.stoa.org/places/50297,Tangala,77.833286,9.700443
50301,https://pleiades.stoa.org/places/50301,Tennagora,77.897214,11.376307
50305,https://pleiades.stoa.org/places/50305,Tiagoura,74.204221,20.344225
50309,https://pleiades.stoa.org/places/50309,Tosale,86.016551,20.141589
50311,https://pleiades.stoa.org/places/50311,Tropina,76.482942,9.806614
50312,https://pleiades.stoa.org/places/50312,Tyndis,75.926477,10.763548
59656,https://pleiades.stoa.org/places/59656,Adisdara,79.111003,29.381476
59683,https://pleiades.stoa.org/places/59683,Aninacha,80.056044,27.478658
59694,https://pleiades.stoa.org/places/59694,Arachosiorum Oppidum/Alexandria,68.388483,33.498616
59702,https://pleiades.stoa.org/places/59702,Arigaion/Acadira,71.161012,34.663757
59703,https://pleiades.stoa.org/places/59703,Aristobathra/Orobatis,72.48637,33.916803
59711,https://pleiades.stoa.org/places/59711,Asigramma,72.602753,34.028693
59717,https://pleiades.stoa.org/places/59717,Asthagoura,83.021033,25.020732
59722,https://pleiades.stoa.org/places/59722,Automula,71.834758,21.770393
59727,https://pleiades.stoa.org/places/59727,Bagisara,64.627005,25.22383
59731,https://pleiades.stoa.org/places/59731,Bandobene,72.349267,34.015874
59737,https://pleiades.stoa.org/places/59737,Barygaza,72.983068,21.70078
59771,https://pleiades.stoa.org/places/59771,Chaurana,79.922825,37.112392
59775,https://pleiades.stoa.org/places/59775,Chrisobora/Kleisobora,77.649033,28.030792
59794,https://pleiades.stoa.org/places/59794,Dosara,84.731548,24.881711
59799,https://pleiades.stoa.org/places/59799,Dyrta,72.483036,34.502149
59803,https://pleiades.stoa.org/places/59803,Embolima,72.79376,34.648977
59807,https://pleiades.stoa.org/places/59807,Eragassa,78.502924,25.692849
59812,https://pleiades.stoa.org/places/59812,Euthymedeia/Sangala,74.541542,32.238201
59821,https://pleiades.stoa.org/places/59821,Gange,81.810766,25.425265
59824,https://pleiades.stoa.org/places/59824,Gari,64.3142,31.878378
59825,https://pleiades.stoa.org/places/59825,Gatasmira,77.064491,27.330766
59831,https://pleiades.stoa.org/places/59831,Gynaikon Limen/Morontobara,67.055289,24.855015
59835,https://pleiades.stoa.org/places/59835,(H)Eorta/Sageda,81.857671,26.953896
59847,https://pleiades.stoa.org/places/59847,Indabara,77.256284,28.612334
59856,https://pleiades.stoa.org/places/59856,Kakouthis,85.052746,25.227741
59861,https://pleiades.stoa.org/places/59861,Kamigara,68.849077,27.689213
59862,https://pleiades.stoa.org/places/59862,Kanogiza,79.918632,27.053262
59863,https://pleiades.stoa.org/places/59863,Kanthi,70.47051,23.481786
59866,https://pleiades.stoa.org/places/59866,Kāśī,83.033976,25.326033
59870,https://pleiades.stoa.org/places/59870,Katadoupe,88.132158,23.63355
59875,https://pleiades.stoa.org/places/59875,Kelydna,88.137799,25.022024
59876,https://pleiades.stoa.org/places/59876,Kindia,82.739094,25.333951
59880,https://pleiades.stoa.org/places/59880,Kognabanda,77.715146,23.475906
59897,https://pleiades.stoa.org/places/59897,Lithinos Pyrgos,75.22933,37.774616
59931,https://pleiades.stoa.org/places/59931,Methora,77.678846,27.483527
59937,https://pleiades.stoa.org/places/59937,Mosarna,63.428222,25.234509
59940,https://pleiades.stoa.org/places/59940,Naagramma,68.073615,26.823941
59954,https://pleiades.stoa.org/places/59954,Ora,72.315461,34.770568
59972,https://pleiades.stoa.org/places/59972,Ozene,75.782933,23.177194
59973,https://pleiades.stoa.org/places/59973,Ozoana,79.3409,26.638152
59975,https://pleiades.stoa.org/places/59975,Pagala,66.741236,25.244838
59976,https://pleiades.stoa.org/places/59976,Pakidare,72.984245,22.038537
59978,https://pleiades.stoa.org/places/59978,Palibothra,85.13502,25.614443
59987,https://pleiades.stoa.org/places/59987,Patala/Minnagar,68.065079,24.72237
59990,https://pleiades.stoa.org/places/59990,Pentapolis,91.822736,22.334611
59992,https://pleiades.stoa.org/places/59992,Pertalis,88.414196,23.013782
60011,https://pleiades.stoa.org/places/60011,Puṇḍranagara,89.371189,24.870868
60016,https://pleiades.stoa.org/places/60016,Rājagṛha,85.420057,25.024108
60027,https://pleiades.stoa.org/places/60027,Salariga,91.273523,23.826933
60040,https://pleiades.stoa.org/places/60040,Sauarabatis,72.768587,24.455659
60041,https://pleiades.stoa.org/places/60041,Selampoura,88.587306,22.782979
60048,https://pleiades.stoa.org/places/60048,Śibipura,72.271549,30.754527
60054,https://pleiades.stoa.org/places/60054,Siripalla,79.589819,22.939776
60060,https://pleiades.stoa.org/places/60060,Soita,77.665795,38.350807
60063,https://pleiades.stoa.org/places/60063,Souannagoura,88.312399,25.584897
60067,https://pleiades.stoa.org/places/60067,Śrāvastī,81.682871,27.722423
60068,https://pleiades.stoa.org/places/60068,Stobera,65.547215,25.400826
60079,https://pleiades.stoa.org/places/60079,Tamalites,87.915951,22.290418
60091,https://pleiades.stoa.org/places/60091,Tripuri,79.857072,23.171013
60097,https://pleiades.stoa.org/places/60097,Vaiśālī,85.354435,25.682066
60099,https://pleiades.stoa.org/places/60099,Vidiśā,77.814463,23.523122
60100,https://pleiades.stoa.org/places/60100,Virāta,76.171377,27.442939
60105,https://pleiades.stoa.org/places/60105,Xenippa,65.78786,38.853026
69484,https://pleiades.stoa.org/places/69484,Caracoticum,0.199338,49.507074
69493,https://pleiades.stoa.org/places/69493,Coriallum,-1.614411,49.637675
79283,https://pleiades.stoa.org/places/79283,Ad Ansam,0.901227,51.88983
79314,https://pleiades.stoa.org/places/79314,Bannovallum,-0.114724,53.20809
79364,https://pleiades.stoa.org/places/79364,Caesaromagus,0.469629,51.735893
79373,https://pleiades.stoa.org/places/79373,Canonium,0.703298,51.839173
79437,https://pleiades.stoa.org/places/79437,Durolitum,-0.006928,51.558448
79586,https://pleiades.stoa.org/places/79586,Magiovinium,-0.716167,51.998623
79668,https://pleiades.stoa.org/places/79668,Salinae,-2.153713,52.268106
79736,https://pleiades.stoa.org/places/79736,Verlucio,-2.052027,51.411692
89131,https://pleiades.stoa.org/places/89131,Calcaria,-1.263805,53.883085
98957,https://pleiades.stoa.org/places/98957,Feddersen Wierde,8.54315,53.665868
98981,https://pleiades.stoa.org/places/98981,Hildesheim,9.951003,52.150961
108738,https://pleiades.stoa.org/places/108738,Altrier,6.327856,49.750289
108739,https://pleiades.stoa.org/places/108739,Amanium,5.317465,50.548275
108746,https://pleiades.stoa.org/places/108746,Antunnacum,7.406147,50.439196
108747,https://pleiades.stoa.org/places/108747,Anvers,4.399272,51.219718
108748,https://pleiades.stoa.org/places/108748,Aquae,8.239789,48.759799
108769,https://pleiades.stoa.org/places/108769,Augers-en-Brie,3.356492,48.680306
108811,https://pleiades.stoa.org/places/108811,Blariacum,6.148,51.362853
108828,https://pleiades.stoa.org/places/108828,Brocomagus,7.711178,48.73002
108830,https://pleiades.stoa.org/places/108830,Brugge,3.22502,51.209253
108855,https://pleiades.stoa.org/places/108855,Cany-Barville,0.638951,49.792094
108859,https://pleiades.stoa.org/places/108859,Cardena,7.303236,50.173768
108871,https://pleiades.stoa.org/places/108871,Catualium,5.89589,51.178052
108872,https://pleiades.stoa.org/places/108872,Caturicis,5.160545,48.773706
108903,https://pleiades.stoa.org/places/108903,Confluentes,7.599486,50.356728
108905,https://pleiades.stoa.org/places/108905,Contra Aginnum,3.279702,49.628457
108911,https://pleiades.stoa.org/places/108911,Cortoriacum,3.264944,50.827833
108948,https://pleiades.stoa.org/places/108948,Duronum,3.926293,50.058266
108970,https://pleiades.stoa.org/places/108970,Etaples,1.6380155,50.514189
108977,https://pleiades.stoa.org/places/108977,Fanum Martis,3.517835,50.311862
108984,https://pleiades.stoa.org/places/108984,Florange-Daspich,6.134727,49.330648
108990,https://pleiades.stoa.org/places/108990,Fontaine-Valmont,4.213372,50.321135
109010,https://pleiades.stoa.org/places/109010,Givry,4.028436,50.379106
109028,https://pleiades.stoa.org/places/109028,Halder,5.323284,51.649683
109043,https://pleiades.stoa.org/places/109043,Hermoniacum,3.529921,50.249015
109054,https://pleiades.stoa.org/places/109054,Howardries,3.355031,50.505544
109068,https://pleiades.stoa.org/places/109068,Iuliacum,6.361194,50.921007
109080,https://pleiades.stoa.org/places/109080,Kester,4.119402,50.764132
109082,https://pleiades.stoa.org/places/109082,Kindsbach,7.612017,49.416017
109093,https://pleiades.stoa.org/places/109093,Kruishoutem,3.528018,50.904532
109112,https://pleiades.stoa.org/places/109112,Liffol-le-Grand,5.579562,48.316173
109146,https://pleiades.stoa.org/places/109146,Martelange,5.740502,49.83227
109152,https://pleiades.stoa.org/places/109152,Mederiacum,6.018727,51.157771
109162,https://pleiades.stoa.org/places/109162,Metlosedum,2.66025,48.541316
109178,https://pleiades.stoa.org/places/109178,Morlanwelz,4.243634,50.455157
109231,https://pleiades.stoa.org/places/109231,Ophoven,5.802235,51.12606
109254,https://pleiades.stoa.org/places/109254,Pons Saravi,7.051854,48.734948
109292,https://pleiades.stoa.org/places/109292,Rumst,4.423279,51.078086
109317,https://pleiades.stoa.org/places/109317,Saletio,8.106201,48.895055
109335,https://pleiades.stoa.org/places/109335,Segessera,4.704612,48.234801
109347,https://pleiades.stoa.org/places/109347,Sion,6.084235,48.430708
109348,https://pleiades.stoa.org/places/109348,Solimariaca,5.733986,48.403257
109362,https://pleiades.stoa.org/places/109362,Tabernae,8.278086,49.119313
109369,https://pleiades.stoa.org/places/109369,Taviers,4.930357,50.616688
109372,https://pleiades.stoa.org/places/109372,Teucera,2.4532,50.127518
109379,https://pleiades.stoa.org/places/109379,Tienen,4.938749,50.804521
109384,https://pleiades.stoa.org/places/109384,Tourinnes-St-Lambert,4.719713,50.638952
109419,https://pleiades.stoa.org/places/109419,Versigny,3.43427,49.654054
109423,https://pleiades.stoa.org/places/109423,Vicus Augustanus,8.409495,49.924327
109428,https://pleiades.stoa.org/places/109428,Vicus Iulius,8.369585,49.218856
109441,https://pleiades.stoa.org/places/109441,Vodgoriacum,4.15025,50.413173
109444,https://pleiades.stoa.org/places/109444,Vosolvia,7.726596,50.107417
109454,https://pleiades.stoa.org/places/109454,Wasserbillig,6.501875,49.714344
109468,https://pleiades.stoa.org/places/109468,Yutz,6.192852,49.355685
118569,https://pleiades.stoa.org/places/118569,Aquileia,10.151322,48.678383
118629,https://pleiades.stoa.org/places/118629,Cetium,15.622695,48.20473
118716,https://pleiades.stoa.org/places/118716,Guntia,10.281491,48.454426
118813,https://pleiades.stoa.org/places/118813,Lopodunum,8.614162,49.47416
118926,https://pleiades.stoa.org/places/118926,Rapis,10.755043,48.185612
119002,https://pleiades.stoa.org/places/119002,Třisov,14.346702,48.883305
119017,https://pleiades.stoa.org/places/119017,Manching,11.493325,48.717024
119019,https://pleiades.stoa.org/places/119019,Venaxamodurum,11.184336,48.735955
119030,https://pleiades.stoa.org/places/119030,Vicus Scuttarensium,11.22852,48.797511
119031,https://pleiades.stoa.org/places/119031,Vicus Senot(ensis),8.571926,48.950261
128355,https://pleiades.stoa.org/places/128355,Aquae,16.2323655,48.006138
128366,https://pleiades.stoa.org/places/128366,Borkovany,16.81032,49.028348
138172,https://pleiades.stoa.org/places/138172,Alingo,-0.249733,44.555584
138173,https://pleiades.stoa.org/places/138173,Ambaciacum,1.399235,45.955991
138191,https://pleiades.stoa.org/places/138191,Argenta,1.938318,45.092526
138195,https://pleiades.stoa.org/places/138195,Arthona,3.140504,46.002611
138214,https://pleiades.stoa.org/places/138214,Banassac,3.201436,44.434654
138217,https://pleiades.stoa.org/places/138217,Becciacum,-1.152853,46.536935
138220,https://pleiades.stoa.org/places/138220,Berraum,0.771694,46.865829
138232,https://pleiades.stoa.org/places/138232,Boii,-0.971141,44.627926
138236,https://pleiades.stoa.org/places/138236,Bricca,0.388212,47.569754
138238,https://pleiades.stoa.org/places/138238,Briggogalus,0.536795,47.14519
138246,https://pleiades.stoa.org/places/138246,Brixis,0.881623,47.233585
138252,https://pleiades.stoa.org/places/138252,Cabrianecum,1.339832,45.316117
138257,https://pleiades.stoa.org/places/138257,Calatonno,1.213436,47.315484
138259,https://pleiades.stoa.org/places/138259,Cambonum,2.424714,46.188516
138262,https://pleiades.stoa.org/places/138262,Campaniacum,0.912631,45.709358
138263,https://pleiades.stoa.org/places/138263,Canaviacum,1.036615,45.69569
138264,https://pleiades.stoa.org/places/138264,Canéjan,-0.653423,44.762468
138282,https://pleiades.stoa.org/places/138282,Ceratis,1.190303,47.259821
138299,https://pleiades.stoa.org/places/138299,Claudiomagus,1.232804,46.941585
138313,https://pleiades.stoa.org/places/138313,Cossium,-0.213375,44.431514
138321,https://pleiades.stoa.org/places/138321,Curisiacum,1.533999,45.632688
138331,https://pleiades.stoa.org/places/138331,Dolus,0.863485,47.18047
138368,https://pleiades.stoa.org/places/138368,Gannat,3.197837,46.099304
138370,https://pleiades.stoa.org/places/138370,Gaudiaco,0.660147,47.342501
138393,https://pleiades.stoa.org/places/138393,Idunum,1.667105,46.305478
138400,https://pleiades.stoa.org/places/138400,Iuliomagus,-0.549081,47.469175
138402,https://pleiades.stoa.org/places/138402,Jaunay-Clan,0.370679,46.685465
138406,https://pleiades.stoa.org/places/138406,Korbilon,-2.213486,47.274275
138429,https://pleiades.stoa.org/places/138429,Lucas,0.998339,47.128771
138431,https://pleiades.stoa.org/places/138431,Luciliacus,1.060398,47.261699
138481,https://pleiades.stoa.org/places/138481,Navicellis,0.952891,47.43216
138497,https://pleiades.stoa.org/places/138497,Novioritum,-0.457612,46.32378
138506,https://pleiades.stoa.org/places/138506,Ouidana Limen,-2.866666,47.55
138535,https://pleiades.stoa.org/places/138535,Rauranum,0.114765,46.292399
138569,https://pleiades.stoa.org/places/138569,Salviacum,1.608065,45.906187
138573,https://pleiades.stoa.org/places/138573,Santonon Limen,-1.064762,46.021662
138578,https://pleiades.stoa.org/places/138578,Segimovicus,2.178585,47.456486
138633,https://pleiades.stoa.org/places/138633,Userca,1.563467,45.424647
138635,https://pleiades.stoa.org/places/138635,Ussubium/Vesubio,0.216269,44.409754
138642,https://pleiades.stoa.org/places/138642,Vendoeuvres-en-Brenne,1.354989,46.801194
138646,https://pleiades.stoa.org/places/138646,Vernaus,0.845377,47.420158
138665,https://pleiades.stoa.org/places/138665,Voglada,0.165424,46.635984
147997,https://pleiades.stoa.org/places/147997,Araura/Cessero,3.4201810000000004,43.394561499999995
148004,https://pleiades.stoa.org/places/148004,Avennio,4.806612,43.950668
148007,https://pleiades.stoa.org/places/148007,Balaruc-les-Bains,3.677563,43.441823
148018,https://pleiades.stoa.org/places/148018,Beauregard,5.042732,43.786975
148037,https://pleiades.stoa.org/places/148037,Carsicis,5.538571,43.216076
148091,https://pleiades.stoa.org/places/148091,Gargarius,5.612456,43.313944
148112,https://pleiades.stoa.org/places/148112,Lettino,4.510532,43.914829
148123,https://pleiades.stoa.org/places/148123,Magalona,3.882631,43.514715
148125,https://pleiades.stoa.org/places/148125,Maritima,5.054721,43.407522
148158,https://pleiades.stoa.org/places/148158,Piscenae,3.423558,43.459976
148178,https://pleiades.stoa.org/places/148178,St-Blaise,4.981817,43.463003
148190,https://pleiades.stoa.org/places/148190,St-Pierre-les-Martigues,5.053319,43.369827
148216,https://pleiades.stoa.org/places/148216,Teste-Nègre,5.307387,43.401657
148226,https://pleiades.stoa.org/places/148226,Vallis Clara,4.647629,44.256597
148237,https://pleiades.stoa.org/places/148237,Vindasca,5.146838,43.99512
157816,https://pleiades.stoa.org/places/157816,Athenopolis,6.640921,43.270134
157843,https://pleiades.stoa.org/places/157843,Dinia,6.231425,44.090921
157850,https://pleiades.stoa.org/places/157850,Eturamina,6.493189,44.08571
157852,https://pleiades.stoa.org/places/157852,Le Fort,6.437904,43.454598
157868,https://pleiades.stoa.org/places/157868,Herakles Monoikos/Portus Monoeci,7.425673,43.740339
157891,https://pleiades.stoa.org/places/157891,Navelis,7.28351,43.725031
157894,https://pleiades.stoa.org/places/157894,Nicaea,7.266233,43.703436
157904,https://pleiades.stoa.org/places/157904,Pergantion,6.309294,43.11465
157920,https://pleiades.stoa.org/places/157920,Salinae,6.510738,43.847565
157923,https://pleiades.stoa.org/places/157923,Sanitium,6.406847,43.913316
157934,https://pleiades.stoa.org/places/157934,Taurois/Tauroention,5.803273,43.074395
157936,https://pleiades.stoa.org/places/157936,Telo Martius,5.931031,43.1251
157952,https://pleiades.stoa.org/places/157952,Vintium,7.113504,43.722738
167624,https://pleiades.stoa.org/places/167624,Aeria,4.755811,44.32022
167627,https://pleiades.stoa.org/places/167627,Akousion/Acunum,4.750905,44.558333
167630,https://pleiades.stoa.org/places/167630,Albinnum,5.945534,45.7858795
167654,https://pleiades.stoa.org/places/167654,Arebrigium,6.984632,45.764042
167657,https://pleiades.stoa.org/places/167657,Asa Paulini,4.718192,45.936105
167658,https://pleiades.stoa.org/places/167658,Augusta,5.05726,44.715501
167663,https://pleiades.stoa.org/places/167663,Axima/Forum Claudii Ceutronum,6.653224,45.556944
167675,https://pleiades.stoa.org/places/167675,Bergintrum,6.766804,45.615918
167676,https://pleiades.stoa.org/places/167676,Bergoiata,4.646003,44.370817
167677,https://pleiades.stoa.org/places/167677,Bergusium,5.276805,45.585793
167694,https://pleiades.stoa.org/places/167694,Brivas,3.383993,45.293364
167699,https://pleiades.stoa.org/places/167699,Catorissium,6.03323,45.049809
167742,https://pleiades.stoa.org/places/167742,Dourion,4.777924,44.555077
167771,https://pleiades.stoa.org/places/167771,Forum Segusiavorum,4.222007,45.743773
167781,https://pleiades.stoa.org/places/167781,Geminae,6.130653,44.645028
167791,https://pleiades.stoa.org/places/167791,Icidmago,3.941957,45.389319
167792,https://pleiades.stoa.org/places/167792,Ictodurus,6.192454,44.57064
167798,https://pleiades.stoa.org/places/167798,Labisco,5.754422,45.436151
167806,https://pleiades.stoa.org/places/167806,Lemincum,5.9208005,45.5666305
167815,https://pleiades.stoa.org/places/167815,Lucus Augusti,5.451422,44.615727
167816,https://pleiades.stoa.org/places/167816,Ludna,4.729707,46.046113
167819,https://pleiades.stoa.org/places/167819,Lunna,4.740069,46.094027
167827,https://pleiades.stoa.org/places/167827,Maurienna,6.34517,45.276549
167849,https://pleiades.stoa.org/places/167849,Mustiae Calmes,6.762891,44.474637
167854,https://pleiades.stoa.org/places/167854,Noiomagos,5.139559,44.360264
167883,https://pleiades.stoa.org/places/167883,Rigomagus,6.648039,44.386142
167885,https://pleiades.stoa.org/places/167885,Rodumna,4.071772,46.039132
167921,https://pleiades.stoa.org/places/167921,Senomagos,4.748071,44.302214
167925,https://pleiades.stoa.org/places/167925,Soio,4.849434,44.889595
167954,https://pleiades.stoa.org/places/167954,Vappincum,6.075897,44.559876
167960,https://pleiades.stoa.org/places/167960,Venetonimagus,5.6822395,45.897330499999995
167978,https://pleiades.stoa.org/places/167978,Vologatae,5.564001,44.568983
177427,https://pleiades.stoa.org/places/177427,Aballo,3.907961,47.492513
177489,https://pleiades.stoa.org/places/177489,Castrum Divionense,5.044076,47.327186
177552,https://pleiades.stoa.org/places/177552,Larga,7.187133,47.561446
177573,https://pleiades.stoa.org/places/177573,Mantoche,5.530268,47.41955
187283,https://pleiades.stoa.org/places/187283,Anaunion,11.04805,46.315249
187289,https://pleiades.stoa.org/places/187289,Aquae Bormiae,10.378107,46.467537
187305,https://pleiades.stoa.org/places/187305,Baisweil,10.543667,47.943504
187311,https://pleiades.stoa.org/places/187311,Bellunum,12.217395,46.140031
187317,https://pleiades.stoa.org/places/187317,Bilitio,9.018035,46.193329
187325,https://pleiades.stoa.org/places/187325,Brigantium,9.747061,47.503041
187355,https://pleiades.stoa.org/places/187355,Cucullae,13.145278,47.626855
187362,https://pleiades.stoa.org/places/187362,Dietringen,10.73561,47.633827
187412,https://pleiades.stoa.org/places/187412,Hohenkrähen,8.820544,47.798788
187416,https://pleiades.stoa.org/places/187416,Ibligo,12.937114,46.407838
187494,https://pleiades.stoa.org/places/187494,Oberdrauburg,12.971174,46.748673
187536,https://pleiades.stoa.org/places/187536,Salurnis,11.213073,46.240205
187563,https://pleiades.stoa.org/places/187563,Summus Vicus,10.353903,46.166421
187569,https://pleiades.stoa.org/places/187569,Tarrenz,10.762062,47.262394
187608,https://pleiades.stoa.org/places/187608,Veldidena,11.399902,47.253961
187616,https://pleiades.stoa.org/places/187616,Vervassium,11.119064,46.311065
197092,https://pleiades.stoa.org/places/197092,Aegida,13.764656,45.55341
197095,https://pleiades.stoa.org/places/197095,Aequum,16.655704,43.739278
197111,https://pleiades.stoa.org/places/197111,Alveria,15.823191,44.045357
197126,https://pleiades.stoa.org/places/197126,Aquae Balissae/Municipium Iasorum,17.224015,45.593653
197133,https://pleiades.stoa.org/places/197133,Arausa,15.79233,43.804229
197143,https://pleiades.stoa.org/places/197143,Arupium,15.268748,44.84851
197158,https://pleiades.stoa.org/places/197158,Baloie,17.090799,44.282804
197160,https://pleiades.stoa.org/places/197160,Bassiana,16.935227,47.254062
197170,https://pleiades.stoa.org/places/197170,Bistua Nova,17.437348,44.053454
197175,https://pleiades.stoa.org/places/197175,Borovo,18.976973,45.401043
197186,https://pleiades.stoa.org/places/197186,Caesariana,17.965908,47.059822
197193,https://pleiades.stoa.org/places/197193,Carnium,14.355657,46.239202
197206,https://pleiades.stoa.org/places/197206,Celeia,15.27184,46.219721
197225,https://pleiades.stoa.org/places/197225,Corinium,15.633504,44.104527
197244,https://pleiades.stoa.org/places/197244,Delminium,17.313894,43.644639
197247,https://pleiades.stoa.org/places/197247,Diluntum,17.958448,43.078729
197262,https://pleiades.stoa.org/places/197262,Epetium,16.525751,43.507324
197263,https://pleiades.stoa.org/places/197263,Epidaurum,18.218868,42.58101
197308,https://pleiades.stoa.org/places/197308,Humagum,13.520182,45.433033
197326,https://pleiades.stoa.org/places/197326,Iovia,16.61509,46.253769
197330,https://pleiades.stoa.org/places/197330,Iuenna,14.700828,46.557259
197347,https://pleiades.stoa.org/places/197347,Lauriana,14.275837,45.29127
197355,https://pleiades.stoa.org/places/197355,Limusa,17.800783,46.048273
197358,https://pleiades.stoa.org/places/197358,Lopsica,14.92,44.928868
197371,https://pleiades.stoa.org/places/197371,Marsonia,18.018769,45.161708
197380,https://pleiades.stoa.org/places/197380,Metulum,15.299752,45.209371
197381,https://pleiades.stoa.org/places/197381,Moge(n)tiana,17.314149,47.118283
197383,https://pleiades.stoa.org/places/197383,Monate,14.488806,47.216049
197384,https://pleiades.stoa.org/places/197384,Monetium,15.124266,44.998136
197386,https://pleiades.stoa.org/places/197386,Muccurum,17.020743,43.295215
197390,https://pleiades.stoa.org/places/197390,Mursella,17.391686,47.514636
197391,https://pleiades.stoa.org/places/197391,Mursella,18.53692,45.61634
197394,https://pleiades.stoa.org/places/197394,Mutila,13.936563,44.8219
197404,https://pleiades.stoa.org/places/197404,Nedinum,15.497238,44.071458
197410,https://pleiades.stoa.org/places/197410,Ninia,16.194786,44.038272
197411,https://pleiades.stoa.org/places/197411,Noreia,14.526732,47.013808
197419,https://pleiades.stoa.org/places/197419,Oneum,16.692144,43.444003
197420,https://pleiades.stoa.org/places/197420,Ortopla,14.892387,44.71907
197431,https://pleiades.stoa.org/places/197431,Pelva,16.7775,43.875555
197438,https://pleiades.stoa.org/places/197438,Piquentum,13.969415,45.406399
197439,https://pleiades.stoa.org/places/197439,Piranum,13.568078,45.528129
197441,https://pleiades.stoa.org/places/197441,Pituntium,16.552733,43.484422
197442,https://pleiades.stoa.org/places/197442,Plana,18.403282,42.966309
197447,https://pleiades.stoa.org/places/197447,Poidikon,15.269071,47.410494
197457,https://pleiades.stoa.org/places/197457,Praetorium Latobicorum,14.995969,45.909064
197470,https://pleiades.stoa.org/places/197470,Raparia,14.535292,45.306779
197482,https://pleiades.stoa.org/places/197482,Sala,16.585295,46.846569
197489,https://pleiades.stoa.org/places/197489,Salthua,18.653543,42.766414
197491,https://pleiades.stoa.org/places/197491,Salvium,16.751098,44.048361
197502,https://pleiades.stoa.org/places/197502,Scardona,15.922959,43.817746
197512,https://pleiades.stoa.org/places/197512,Sidrona,15.792445,44.09906
197515,https://pleiades.stoa.org/places/197515,Siparis,13.507065,45.467448
197523,https://pleiades.stoa.org/places/197523,Sopianae,18.228059,46.07335
197525,https://pleiades.stoa.org/places/197525,Splonum,16.699712,44.843597
197526,https://pleiades.stoa.org/places/197526,Stagnum,17.696979,42.838187
197530,https://pleiades.stoa.org/places/197530,Stiriate,14.243126,47.568826
197534,https://pleiades.stoa.org/places/197534,Synodion/Magnum,16.313369,43.793599
197539,https://pleiades.stoa.org/places/197539,Tambia,16.201613,43.724105
197550,https://pleiades.stoa.org/places/197550,Terponus,15.241512,45.128905
197555,https://pleiades.stoa.org/places/197555,Tragurium,16.25063,43.517639
197558,https://pleiades.stoa.org/places/197558,Tricciana,18.101446,46.837681
197575,https://pleiades.stoa.org/places/197575,Vegium,15.073469,44.524317
197582,https://pleiades.stoa.org/places/197582,Vindonianus Vicus,19.049955,47.599932
206917,https://pleiades.stoa.org/places/206917,Ampelum,23.231394,46.107572
206970,https://pleiades.stoa.org/places/206970,Blandiana,23.385611,45.979074
206975,https://pleiades.stoa.org/places/206975,Bononia,22.8759,43.993221
206976,https://pleiades.stoa.org/places/206976,Bor,22.096861,44.077732
206988,https://pleiades.stoa.org/places/206988,Brucla,23.729304,46.312309
207099,https://pleiades.stoa.org/places/207099,Drinum Fl.,19.281148,44.863592
207242,https://pleiades.stoa.org/places/207242,Lipova,21.684316,46.081725
207267,https://pleiades.stoa.org/places/207267,Margum,21.061748,44.69123
207293,https://pleiades.stoa.org/places/207293,Montana,23.226095,43.408743
207331,https://pleiades.stoa.org/places/207331,Partiskon,20.145953,46.253698
207382,https://pleiades.stoa.org/places/207382,Remesiana,22.293498,43.214499
207416,https://pleiades.stoa.org/places/207416,Salinae,23.864109,46.388681
207425,https://pleiades.stoa.org/places/207425,Sarmizegetusa (Regia),23.323961,45.669615
207489,https://pleiades.stoa.org/places/207489,Tautiomosis,23.481703,43.372595
207563,https://pleiades.stoa.org/places/207563,Vorovum Minor,23.421135,43.30463
216711,https://pleiades.stoa.org/places/216711,Aristaeum,27.894173,42.702932
216721,https://pleiades.stoa.org/places/216721,Aulaiouteichos/Agathopolis,27.939514,42.0994
216732,https://pleiades.stoa.org/places/216732,Bessapara,24.436297,42.101814
216765,https://pleiades.stoa.org/places/216765,Chersonesos,27.769811,42.280098
216803,https://pleiades.stoa.org/places/216803,Emporium Discoduraterae,25.368331,43.02356
216804,https://pleiades.stoa.org/places/216804,Emporium Piretensium,25.170433,43.127711
216806,https://pleiades.stoa.org/places/216806,Erite/Ereta,27.913242,43.054598
216878,https://pleiades.stoa.org/places/216878,Marcianopolis,27.585033,43.22504
216983,https://pleiades.stoa.org/places/216983,Shoumen,27.0268,43.282228
217030,https://pleiades.stoa.org/places/217030,Tylis,25.546871,42.574012
217042,https://pleiades.stoa.org/places/217042,Vicus Buteridavensis,28.703659,44.688795
217043,https://pleiades.stoa.org/places/217043,Vicus Celeris,28.735548,44.449148
217046,https://pleiades.stoa.org/places/217046,Vicus Longinopara,24.149789,43.072712
217047,https://pleiades.stoa.org/places/217047,Vicus Novus,28.717477,44.891421
217048,https://pleiades.stoa.org/places/217048,Vicus Petrus,28.605266,44.809832
217049,https://pleiades.stoa.org/places/217049,Vicus Quintionis,28.712282,44.569999
217052,https://pleiades.stoa.org/places/217052,Vicus Scenopesis,28.112919,44.519308
217053,https://pleiades.stoa.org/places/217053,Vicus Siamus,24.028619,43.656893
217054,https://pleiades.stoa.org/places/217054,Vicus Trullensium,24.014034,43.171847
226510,https://pleiades.stoa.org/places/226510,Aepolium,30.189972,45.845873
226517,https://pleiades.stoa.org/places/226517,Aloustou Phrourion,34.40467,44.674357
226634,https://pleiades.stoa.org/places/226634,Isiakon Limen,30.778144,46.530976
226636,https://pleiades.stoa.org/places/226636,Istrianon Limen,30.738061,46.582286
226670,https://pleiades.stoa.org/places/226670,Kremniskoi,30.156331,45.825743
226674,https://pleiades.stoa.org/places/226674,Lagyra,34.184323,44.500726
226675,https://pleiades.stoa.org/places/226675,Lampas,34.34999,44.601117
226708,https://pleiades.stoa.org/places/226708,Palaia Chersonesos,33.408798,44.563122
226755,https://pleiades.stoa.org/places/226755,Scopuli,30.925487,46.612386
226772,https://pleiades.stoa.org/places/226772,Ta Antiphilou,29.72392,45.821653
226777,https://pleiades.stoa.org/places/226777,Perekop,33.692719,46.161621
236329,https://pleiades.stoa.org/places/236329,Amallobriga/Abulobrica,-4.999241,41.501445
236330,https://pleiades.stoa.org/places/236330,Ambisna/Ambinon,-4.480256,42.454288
236332,https://pleiades.stoa.org/places/236332,Aquae Calidae,-8.563431,42.632649
236340,https://pleiades.stoa.org/places/236340,Arboukale/Albocela,-5.394988,41.525944
236345,https://pleiades.stoa.org/places/236345,Artabron Limen,-9.264682,42.919018
236357,https://pleiades.stoa.org/places/236357,Aurium/Aurenses/Auriensis,-7.864602,42.340013
236358,https://pleiades.stoa.org/places/236358,Autraka,-4.138905,42.28808
236360,https://pleiades.stoa.org/places/236360,Avia,-5.292256,40.903398
236370,https://pleiades.stoa.org/places/236370,Bergidum Flavium,-6.725657,42.599819
236395,https://pleiades.stoa.org/places/236395,Caladunum,-7.634577,41.856332
236397,https://pleiades.stoa.org/places/236397,Caliabriga/Calabria,-6.810177,41.10045
236412,https://pleiades.stoa.org/places/236412,Castellum Aviliobris,-8.862073,43.284939
236413,https://pleiades.stoa.org/places/236413,Castellum Meidunium,-8.02163,42.465315
236414,https://pleiades.stoa.org/places/236414,Castellum Toletum,-7.065619,42.656647
236419,https://pleiades.stoa.org/places/236419,Cauca,-4.519114,41.218346
236441,https://pleiades.stoa.org/places/236441,Comeniaca/Coviacense Castrum,-5.519839,42.294052
236449,https://pleiades.stoa.org/places/236449,Dactionum,-7.510725,42.518433
236459,https://pleiades.stoa.org/places/236459,Eldana,-6.639731,41.020581
236462,https://pleiades.stoa.org/places/236462,Equosera,-5.150424,42.8363
236464,https://pleiades.stoa.org/places/236464,Flavionavia,-5.927681,43.555855
236468,https://pleiades.stoa.org/places/236468,Forum Limicorum,-7.603322,42.086263
236493,https://pleiades.stoa.org/places/236493,Iuliobriga,-4.113918,42.985111
236497,https://pleiades.stoa.org/places/236497,Kamarika,-4.846251,42.826231
236501,https://pleiades.stoa.org/places/236501,Lacobriga,-4.601768,42.338959
236509,https://pleiades.stoa.org/places/236509,Lansbrica/Lais,-8.030578,42.359912
236520,https://pleiades.stoa.org/places/236520,Longobriga,-7.212323,40.963753
236534,https://pleiades.stoa.org/places/236534,Mantua,-3.869146,40.486951
236546,https://pleiades.stoa.org/places/236546,Mirobriga,-6.52277,40.597188
236570,https://pleiades.stoa.org/places/236570,Noouion,-8.8883,42.785266
236571,https://pleiades.stoa.org/places/236571,Nova Augusta,-3.444992,42.123055
236576,https://pleiades.stoa.org/places/236576,Ocelum,-7.444713,40.234811
236589,https://pleiades.stoa.org/places/236589,Pailontion,-5.391312,43.330624
236592,https://pleiades.stoa.org/places/236592,Pallantia,-4.12924,42.095283
236600,https://pleiades.stoa.org/places/236600,Phlaouia Lambris,-8.058923,43.284743
236603,https://pleiades.stoa.org/places/236603,Pisoraca,-4.33076,42.594547
236607,https://pleiades.stoa.org/places/236607,Polibedenses,-6.278403,41.039387
236612,https://pleiades.stoa.org/places/236612,Portus Veseiasueca,-4.401424,43.388143
236638,https://pleiades.stoa.org/places/236638,Saldania,-4.73616,42.522247
236641,https://pleiades.stoa.org/places/236641,Salionka,-3.501164,42.665403
236655,https://pleiades.stoa.org/places/236655,Segisama Iulia,-4.010136,42.515742
236657,https://pleiades.stoa.org/places/236657,Segontia Paramika,-3.573403,42.947764
236691,https://pleiades.stoa.org/places/236691,Tritium,-3.484908,42.459336
236714,https://pleiades.stoa.org/places/236714,Vicus Atucausensis,-8.091271,41.272282
236715,https://pleiades.stoa.org/places/236715,Vicus Aunigainum,-4.064007,43.4131555
236717,https://pleiades.stoa.org/places/236717,Vicus Vagornicensis,-7.310258,41.607351
236718,https://pleiades.stoa.org/places/236718,Vicus Veniensis,-7.186387,40.228178
246145,https://pleiades.stoa.org/places/246145,Adeba,0.474684,40.471026
246153,https://pleiades.stoa.org/places/246153,Alba,-2.290949,42.856039
246157,https://pleiades.stoa.org/places/246157,Alisanco,-2.81693,42.414205
246158,https://pleiades.stoa.org/places/246158,Allobo,-1.121939,41.770383
246165,https://pleiades.stoa.org/places/246165,Antequia,-3.110597,42.635243
246181,https://pleiades.stoa.org/places/246181,Aratikos,-1.50248,41.511128
246193,https://pleiades.stoa.org/places/246193,Arriaca/Arentia,-3.196797,40.650874
246194,https://pleiades.stoa.org/places/246194,Askerris,0.359738,42.284446
246206,https://pleiades.stoa.org/places/246206,Auca,-3.309364,42.386504
246207,https://pleiades.stoa.org/places/246207,Auci,-0.443911,41.220893
246208,https://pleiades.stoa.org/places/246208,Augustobriga,-1.984799,41.8314
246237,https://pleiades.stoa.org/places/246237,Bene(h)arnum,-0.434655,43.332678
246244,https://pleiades.stoa.org/places/246244,Beturri/Bitouris,-1.836091,42.774678
246247,https://pleiades.stoa.org/places/246247,Bilbilis (Augusta),-1.603219,41.38201
246255,https://pleiades.stoa.org/places/246255,Bourtina,-0.579741,42.037142
246292,https://pleiades.stoa.org/places/246292,Caravis,-1.461182,41.833113
246294,https://pleiades.stoa.org/places/246294,Carcas(s)o/Col. Iulia,2.364076,43.205842
246295,https://pleiades.stoa.org/places/246295,Carduae,-1.603797,41.38196
246299,https://pleiades.stoa.org/places/246299,Car(t)a,-1.553244,42.375252
246301,https://pleiades.stoa.org/places/246301,Cascantum,-1.679195,41.998968
246317,https://pleiades.stoa.org/places/246317,Caucholiberi,3.082308,42.524503
246318,https://pleiades.stoa.org/places/246318,Caum,-0.001435,41.961262
246319,https://pleiades.stoa.org/places/246319,Cauterets,-0.114151,42.887377
246354,https://pleiades.stoa.org/places/246354,Consoranni,1.138354,43.00174
246355,https://pleiades.stoa.org/places/246355,Contrebia (Belaisca),-1.030536,41.509148
246356,https://pleiades.stoa.org/places/246356,Contrebia Leucada,-1.94689,41.999629
246365,https://pleiades.stoa.org/places/246365,Deobriga,-2.912018,42.707897
246369,https://pleiades.stoa.org/places/246369,Dertosa/Hibera Iulia Ilercavonia,0.520955,40.811004
246394,https://pleiades.stoa.org/places/246394,Flaviobriga,-3.219572,43.382784
246403,https://pleiades.stoa.org/places/246403,Gallika Phlaouia,0.348931,41.522438
246405,https://pleiades.stoa.org/places/246405,Gebala,-2.531439,42.915111
246413,https://pleiades.stoa.org/places/246413,Hebromagus/Eburomagus,2.112346,43.242555
246426,https://pleiades.stoa.org/places/246426,Ictium,1.083777,43.612693
246429,https://pleiades.stoa.org/places/246429,Ilduro,2.393392,41.526084
246433,https://pleiades.stoa.org/places/246433,Ill(ib)erris/Helena,2.972194,42.599218
246435,https://pleiades.stoa.org/places/246435,Ilurcis/Grac(ch)urris,-1.749327,42.178586
246437,https://pleiades.stoa.org/places/246437,Iluro,-0.604491,43.193235
246439,https://pleiades.stoa.org/places/246439,Indibilis,0.423109,40.418701
246441,https://pleiades.stoa.org/places/246441,Indike,3.096713,42.13088
246442,https://pleiades.stoa.org/places/246442,Ioulia Libika,1.979549,42.462864
246451,https://pleiades.stoa.org/places/246451,Keresos,0.410824,41.462854
246452,https://pleiades.stoa.org/places/246452,Kissa/Cissis,1.1803775,41.088946
246457,https://pleiades.stoa.org/places/246457,Labitulosa,0.287408,42.144689
246459,https://pleiades.stoa.org/places/246459,Lactora,0.620535,43.933383
246461,https://pleiades.stoa.org/places/246461,Lapurdum,-1.474944,43.492723
246462,https://pleiades.stoa.org/places/246462,Lassira,-0.20249,40.646247
246463,https://pleiades.stoa.org/places/246463,Lauro,2.298222,41.647877
246469,https://pleiades.stoa.org/places/246469,Libia,-3.046514,42.503667
246476,https://pleiades.stoa.org/places/246476,Loutia,-2.445851,40.972242
246526,https://pleiades.stoa.org/places/246526,Oiasso,-1.789233,43.338169
246532,https://pleiades.stoa.org/places/246532,Ologicus,-1.65162,42.481491
246536,https://pleiades.stoa.org/places/246536,Orgia,1.443316,42.356017
246543,https://pleiades.stoa.org/places/246543,Otobesa/Etobesa,0.33925,41.384376
246544,https://pleiades.stoa.org/places/246544,Ouisontion,-2.762914,41.911629
246546,https://pleiades.stoa.org/places/246546,Ouxama Barka,-3.064401,42.890853
246549,https://pleiades.stoa.org/places/246549,Pagus Gallorum et Segardinenssium,-1.317826,41.869807
246564,https://pleiades.stoa.org/places/246564,Platea,-1.647023,41.354379
246634,https://pleiades.stoa.org/places/246634,Segeda,-1.51768,41.289132
246635,https://pleiades.stoa.org/places/246635,Segesamunculum,-3.135624,42.491242
246636,https://pleiades.stoa.org/places/246636,Segia,-1.137115,42.129367
246642,https://pleiades.stoa.org/places/246642,Segortia Lanka,-3.401668,41.610033
246651,https://pleiades.stoa.org/places/246651,Setelsis,1.517689,41.993609
246655,https://pleiades.stoa.org/places/246655,Sigarra,1.54146,41.705442
246679,https://pleiades.stoa.org/places/246679,Tarba,0.074264,43.23314
246684,https://pleiades.stoa.org/places/246684,Tarusco,1.607821,42.845038
246689,https://pleiades.stoa.org/places/246689,Tertakom,-1.60642,41.607358
246712,https://pleiades.stoa.org/places/246712,Turiaso,-1.725329,41.902823
246713,https://pleiades.stoa.org/places/246713,Turissa,2.932083,41.72016
246718,https://pleiades.stoa.org/places/246718,Urgellum,1.459471,42.356297
246740,https://pleiades.stoa.org/places/246740,Victoriacum,-2.671675,42.846718
246742,https://pleiades.stoa.org/places/246742,Vicus Aquensis,0.15015,43.065186
246748,https://pleiades.stoa.org/places/246748,Virovesca,-3.32337,42.550298
255962,https://pleiades.stoa.org/places/255962,Aipora/Ebora,-6.354245,36.779174
255981,https://pleiades.stoa.org/places/255981,Arcos de la Frontera,-5.812505,36.750651
255990,https://pleiades.stoa.org/places/255990,Artigi,-5.545601,38.722599
255992,https://pleiades.stoa.org/places/255992,Arunda,-5.166408,36.74194
255994,https://pleiades.stoa.org/places/255994,Asido,-5.927867,36.467791
256002,https://pleiades.stoa.org/places/256002,Axati,-5.526244,37.659304
256004,https://pleiades.stoa.org/places/256004,Baedro,-5.14839,38.501008
256007,https://pleiades.stoa.org/places/256007,Baesippo,-5.91903,36.192554
256032,https://pleiades.stoa.org/places/256032,Brutobriga,-5.800357,38.974054
256034,https://pleiades.stoa.org/places/256034,Burdoga,-5.812472,36.750825
256043,https://pleiades.stoa.org/places/256043,Callet,-5.626201,37.052305
256048,https://pleiades.stoa.org/places/256048,Canama,-5.671333,37.614154
256062,https://pleiades.stoa.org/places/256062,Carruca,-5.231015,37.41149
256086,https://pleiades.stoa.org/places/256086,Caura,-6.05183,37.285041
256087,https://pleiades.stoa.org/places/256087,Caurium,-6.539731,39.98359
256091,https://pleiades.stoa.org/places/256091,Ceret,-6.137337,36.686622
256103,https://pleiades.stoa.org/places/256103,Cetaria,-5.433107,36.07249
256124,https://pleiades.stoa.org/places/256124,Conobaria/Colobana,-6.078318,36.919538
256147,https://pleiades.stoa.org/places/256147,Curiga,-6.27437,38.086816
256149,https://pleiades.stoa.org/places/256149,Detumo,-5.174338,37.773018
256159,https://pleiades.stoa.org/places/256159,Erisane/Arsa,-5.913705,36.512531
256170,https://pleiades.stoa.org/places/256170,Fodinae,-6.591867,37.693899
256225,https://pleiades.stoa.org/places/256225,Iluro,-4.706673,36.822609
256227,https://pleiades.stoa.org/places/256227,Iporca,-5.639549,37.747647
256228,https://pleiades.stoa.org/places/256228,Iptuci,-5.555577,36.789695
256232,https://pleiades.stoa.org/places/256232,(I)Tucci,-6.363638,37.44811
256236,https://pleiades.stoa.org/places/256236,Iulipa,-5.657006,38.649671
256241,https://pleiades.stoa.org/places/256241,Kalath(ous)a/Kaldouba,-5.67388,36.713728
256244,https://pleiades.stoa.org/places/256244,Kortikata,-6.820648,37.909276
256246,https://pleiades.stoa.org/places/256246,Lac(c)obriga,-8.673247,37.101902
256247,https://pleiades.stoa.org/places/256247,Lacca,-5.726258,36.826411
256253,https://pleiades.stoa.org/places/256253,Lacunis,-6.274346,38.08679
256254,https://pleiades.stoa.org/places/256254,Laelia,-6.165904,37.427015
256256,https://pleiades.stoa.org/places/256256,Lama,-6.088261,40.030524
256258,https://pleiades.stoa.org/places/256258,Lascuta,-5.723687,36.460524
256260,https://pleiades.stoa.org/places/256260,Lastigi,-6.269587,37.523585
256293,https://pleiades.stoa.org/places/256293,Mellaria,-5.683253,36.066459
256295,https://pleiades.stoa.org/places/256295,Mercablum/Merifabion,-6.088556,36.276482
256297,https://pleiades.stoa.org/places/256297,Metallum Vipascense,-8.1663225,37.876779
256314,https://pleiades.stoa.org/places/256314,Munda,-5.141862,37.419687
256322,https://pleiades.stoa.org/places/256322,Nabrissa,-6.078402,36.919504
256326,https://pleiades.stoa.org/places/256326,Nescania,-4.682723,36.931327
256332,https://pleiades.stoa.org/places/256332,Obulcula,-5.348392,37.462227
256334,https://pleiades.stoa.org/places/256334,Oducia,-5.733109,37.609852
256339,https://pleiades.stoa.org/places/256339,Olontigi,-6.248394,37.305179
256340,https://pleiades.stoa.org/places/256340,O(no)ba,-5.453482,36.434053
256344,https://pleiades.stoa.org/places/256344,Osset,-6.035436,37.358375
256345,https://pleiades.stoa.org/places/256345,Ossonoba,-7.935108,37.01535
256346,https://pleiades.stoa.org/places/256346,O(sso)noba,-6.949713,37.257074
256347,https://pleiades.stoa.org/places/256347,Ostippo,-4.878531,37.291478
256349,https://pleiades.stoa.org/places/256349,Ostur,-6.429457,37.387743
256357,https://pleiades.stoa.org/places/256357,Patulus Portus,-8.797667,37.833556
256358,https://pleiades.stoa.org/places/256358,Pax Iulia/Pax Augusta/Col. Pacensis,-7.865225,38.015604
256362,https://pleiades.stoa.org/places/256362,Phornakis,-6.180009,38.507411
256383,https://pleiades.stoa.org/places/256383,Portus Hannibalis,-8.534366,37.137602
256407,https://pleiades.stoa.org/places/256407,Sabetanum,-4.824214,37.654881
256408,https://pleiades.stoa.org/places/256408,Sabora,-5.024355,36.934635
256411,https://pleiades.stoa.org/places/256411,Saepo,-5.464318,36.579768
256412,https://pleiades.stoa.org/places/256412,Saguntia,-5.834164,36.552106
256417,https://pleiades.stoa.org/places/256417,Sal(pens)a,-5.781536,37.181512
256437,https://pleiades.stoa.org/places/256437,Saudo/Sandone,-5.813403,36.833192
256439,https://pleiades.stoa.org/places/256439,Segida,-6.589301,38.378494
256440,https://pleiades.stoa.org/places/256440,Segida,-5.283804,37.701667
256444,https://pleiades.stoa.org/places/256444,Seria,-6.771094,38.319329
256446,https://pleiades.stoa.org/places/256446,Serpa,-7.593028,37.940797
256449,https://pleiades.stoa.org/places/256449,Siarum,-5.751603,37.052397
256456,https://pleiades.stoa.org/places/256456,Solia,-4.679484,38.475076
256464,https://pleiades.stoa.org/places/256464,Tamusia,-6.072083,39.346303
256486,https://pleiades.stoa.org/places/256486,Tubucci,-8.281265,39.445539
256492,https://pleiades.stoa.org/places/256492,Turirecina/Regina,-5.806689,36.67173
256494,https://pleiades.stoa.org/places/256494,Turobriga,-6.949438,37.969389
256499,https://pleiades.stoa.org/places/256499,Ulia (Fidentia),-4.698889,37.648657
256510,https://pleiades.stoa.org/places/256510,Vama,-6.685149,38.490784
256511,https://pleiades.stoa.org/places/256511,Ventipo,-4.759548,37.29389
256521,https://pleiades.stoa.org/places/256521,Villo,-5.300639,37.218871
256523,https://pleiades.stoa.org/places/256523,Zafra,-6.416509,38.4257
265762,https://pleiades.stoa.org/places/265762,Abdera,-3.022514,36.748068
265763,https://pleiades.stoa.org/places/265763,Ab(ou)la/Al(a)ba,-2.78011,37.141162
265764,https://pleiades.stoa.org/places/265764,Abra,-3.959262,37.765419
265785,https://pleiades.stoa.org/places/265785,Aiungi,-4.086744,37.591065
265787,https://pleiades.stoa.org/places/265787,Alaba,-3.088457,39.128726
265796,https://pleiades.stoa.org/places/265796,Alonis,-0.555223,38.192287
265805,https://pleiades.stoa.org/places/265805,Ascua/Osqua,-4.540804,36.88614
265807,https://pleiades.stoa.org/places/265807,Asso,-1.898076,38.021113
265820,https://pleiades.stoa.org/places/265820,Baria,-1.774899,37.245407
265826,https://pleiades.stoa.org/places/265826,Begastrum,-1.79093,38.094532
265829,https://pleiades.stoa.org/places/265829,Bora,-4.039839,37.662473
265835,https://pleiades.stoa.org/places/265835,Calecula/Callicula,-3.751041,37.251442
265851,https://pleiades.stoa.org/places/265851,Cartima,-4.630784,36.711379
265867,https://pleiades.stoa.org/places/265867,Cisimbrium,-4.38714,37.385397
265882,https://pleiades.stoa.org/places/265882,Ebura,-3.924959,37.463838
265886,https://pleiades.stoa.org/places/265886,Edeba,-3.362253,38.640276
265893,https://pleiades.stoa.org/places/265893,Epora,-4.381896,38.026033
265925,https://pleiades.stoa.org/places/265925,Iliturgicola,-4.148005,37.511643
265926,https://pleiades.stoa.org/places/265926,Illikitanos Limen,-0.614465,38.184959
265927,https://pleiades.stoa.org/places/265927,Ilorci,-1.254941,38.081834
265930,https://pleiades.stoa.org/places/265930,Ilurco,-3.767231,37.267154
265935,https://pleiades.stoa.org/places/265935,Ipolcobulcola,-4.273434,37.443593
265946,https://pleiades.stoa.org/places/265946,Laminium,-3.053453,38.899451
265952,https://pleiades.stoa.org/places/265952,Longuntica,-1.581155,37.403784
265959,https://pleiades.stoa.org/places/265959,Maenuba/Menova,-4.100678,36.77864
265961,https://pleiades.stoa.org/places/265961,Mainake,-4.094288,36.741931
265965,https://pleiades.stoa.org/places/265965,Mariana,-2.92748,38.547361
265967,https://pleiades.stoa.org/places/265967,Marruca,-4.602629,37.595765
265970,https://pleiades.stoa.org/places/265970,Mentesa Bastia,-3.692715,37.741633
265974,https://pleiades.stoa.org/places/265974,Monturque,-4.581713,37.473348
265975,https://pleiades.stoa.org/places/265975,Morana,-4.601944,37.350654
265982,https://pleiades.stoa.org/places/265982,Obulco,-4.184754,37.870867
265983,https://pleiades.stoa.org/places/265983,Ocules,-2.86232,39.98188
265985,https://pleiades.stoa.org/places/265985,Onuba,-4.496471,37.953182
265994,https://pleiades.stoa.org/places/265994,Ossigi,-3.560303,37.848915
266005,https://pleiades.stoa.org/places/266005,Portos Magnos,-2.467902,36.840205
266017,https://pleiades.stoa.org/places/266017,Sacili,-4.50716,38.005797
266034,https://pleiades.stoa.org/places/266034,Sebelaci,-0.138097,39.959582
266037,https://pleiades.stoa.org/places/266037,Selambina,-3.587137,36.74623
266051,https://pleiades.stoa.org/places/266051,(S)Ucia,-4.186553,38.074265
266070,https://pleiades.stoa.org/places/266070,Tucci/Col. Augusta Gemella,-3.966243,37.722761
266072,https://pleiades.stoa.org/places/266072,Tugia,-3.152365,37.877689
266081,https://pleiades.stoa.org/places/266081,Ucubi/Col. Claritas Iulia,-4.552369,37.682102
266087,https://pleiades.stoa.org/places/266087,Urgao/Vircao,-4.054925,37.93645
266094,https://pleiades.stoa.org/places/266094,Vicus Cuminarius,-3.499679,39.960387
275721,https://pleiades.stoa.org/places/275721,Sidi Said,-5.574834,33.891331
285411,https://pleiades.stoa.org/places/285411,Ala Miliaria/Tigit,0.250236,35.099704
285412,https://pleiades.stoa.org/places/285412,Albulae/Praesidium Sufative,-1.144788,35.301602
285413,https://pleiades.stoa.org/places/285413,Altava,-1.031484,34.903623
285415,https://pleiades.stoa.org/places/285415,Aquae Sirenses,-0.049719,35.31646
285418,https://pleiades.stoa.org/places/285418,Ballene Praesidium,0.352432,35.721173
285424,https://pleiades.stoa.org/places/285424,Castra Nova,0.069577,35.590223
285425,https://pleiades.stoa.org/places/285425,Castra Puer(or)um,-0.896073,35.70429
285430,https://pleiades.stoa.org/places/285430,Columnata,1.521582,35.470067
285444,https://pleiades.stoa.org/places/285444,Gadaum Castra,0.824593,35.929412
285456,https://pleiades.stoa.org/places/285456,Kaputtasaccora,-0.719489,34.947302
285488,https://pleiades.stoa.org/places/285488,Mina,0.559522,35.737087
285535,https://pleiades.stoa.org/places/285535,Tepidae,-1.140982,35.065103
295219,https://pleiades.stoa.org/places/295219,Arsennaria,0.873111,36.334326
295246,https://pleiades.stoa.org/places/295246,Castellum Tulei,3.792489,36.76875
295299,https://pleiades.stoa.org/places/295299,Lambdia,2.775955,36.266978
295304,https://pleiades.stoa.org/places/295304,Manliana,2.220412,36.26087
295354,https://pleiades.stoa.org/places/295354,Thanaramusa Castra,2.914292,36.135629
305043,https://pleiades.stoa.org/places/305043,Castellum Arsacalitanum,6.45677,36.306151
305044,https://pleiades.stoa.org/places/305044,Castellum Aurelianense Antoninianense/Caput Saltus Horreorum Pardalarii,5.204559,36.165613
305046,https://pleiades.stoa.org/places/305046,Castellum Dianense,5.337892,36.033333
305047,https://pleiades.stoa.org/places/305047,Castellum Elefantum,6.474222,36.378888
305050,https://pleiades.stoa.org/places/305050,Castellum Mastarense,6.472302,36.379688
305053,https://pleiades.stoa.org/places/305053,Castellum Subzuaritanum,6.516829,36.233093
305057,https://pleiades.stoa.org/places/305057,Castellum Zugal,6.13124,36.409238
305058,https://pleiades.stoa.org/places/305058,Celtianis,6.588689,36.838344
305092,https://pleiades.stoa.org/places/305092,Horrea,5.181813,36.333308
305127,https://pleiades.stoa.org/places/305127,Pagus Thigillava,5.699995,36.266866
305128,https://pleiades.stoa.org/places/305128,Paratianis,7.156637,36.91671
305146,https://pleiades.stoa.org/places/305146,Sapadenses,5.427363,36.356127
305150,https://pleiades.stoa.org/places/305150,Sigus,6.78528,36.122312
305155,https://pleiades.stoa.org/places/305155,Subtabarti,5.684923,36.187011
305160,https://pleiades.stoa.org/places/305160,Tacatua,7.380568,37.065966
305161,https://pleiades.stoa.org/places/305161,Thabarbusis,7.240989,37.054332
305168,https://pleiades.stoa.org/places/305168,Tigisis,6.9426995,36.110665999999995
305180,https://pleiades.stoa.org/places/305180,Vahartanenses,5.983386,36.550096
305188,https://pleiades.stoa.org/places/305188,Zattara,7.531821,36.328022
314839,https://pleiades.stoa.org/places/314839,Abbi(…),9.57173,36.16242
314840,https://pleiades.stoa.org/places/314840,Abbir Cella(e),9.844189,36.466607
314841,https://pleiades.stoa.org/places/314841,Abbir Maius,10.008826,36.374
314842,https://pleiades.stoa.org/places/314842,Abitina(e),9.549085,36.627874
314859,https://pleiades.stoa.org/places/314859,Ain-Golea,9.332035,36.469751
314870,https://pleiades.stoa.org/places/314870,Ain-Kradkrada,9.21613,36.646154
314887,https://pleiades.stoa.org/places/314887,Aradi,9.609691,36.309996
314891,https://pleiades.stoa.org/places/314891,Asadi,10.45704,36.420272
314892,https://pleiades.stoa.org/places/314892,Aspis/Clipea,11.115794,36.838512
314893,https://pleiades.stoa.org/places/314893,Aulodes,9.571439,36.823067
314895,https://pleiades.stoa.org/places/314895,Avensa,9.099738,36.58353
314896,https://pleiades.stoa.org/places/314896,Avioccala,9.70456,36.184232
314901,https://pleiades.stoa.org/places/314901,Biha Bilta,9.58426,36.925886
314908,https://pleiades.stoa.org/places/314908,Bisica Lucana,9.634267,36.397969
314929,https://pleiades.stoa.org/places/314929,Chul,10.591034,36.649178
314931,https://pleiades.stoa.org/places/314931,Cigisa,10.099599,36.79961
314936,https://pleiades.stoa.org/places/314936,Civitas Mizigitanorum,9.350631,36.439552
314953,https://pleiades.stoa.org/places/314953,Felicitan(i),9.648624,36.830987
314955,https://pleiades.stoa.org/places/314955,Fundus Bassianus,9.774381,37.129658
314959,https://pleiades.stoa.org/places/314959,Furnos Maius,9.582593,36.136476
314960,https://pleiades.stoa.org/places/314960,Furnos Minus,9.830048,36.693084
314962,https://pleiades.stoa.org/places/314962,Gales,9.69998,36.266625
314965,https://pleiades.stoa.org/places/314965,Gillium,9.038332,36.477401
315044,https://pleiades.stoa.org/places/315044,Inuca,10.012412,36.728132
315061,https://pleiades.stoa.org/places/315061,Lares,8.841397,36.081288
315070,https://pleiades.stoa.org/places/315070,Masculula,8.517999,36.354507
315072,https://pleiades.stoa.org/places/315072,Maxula,10.271569,36.768841
315074,https://pleiades.stoa.org/places/315074,Mediccera,10.26075,36.195833
315075,https://pleiades.stoa.org/places/315075,Membressa,9.613446,36.648688
315082,https://pleiades.stoa.org/places/315082,Missua,10.899956,36.999978
315083,https://pleiades.stoa.org/places/315083,Miz(…),9.50765,36.421726
315088,https://pleiades.stoa.org/places/315088,Muzuc,9.800296,36.025724
315094,https://pleiades.stoa.org/places/315094,Nepheris,10.383068,36.615106
315103,https://pleiades.stoa.org/places/315103,Pagus Fortunalis,9.954528,36.610887
315111,https://pleiades.stoa.org/places/315111,Pagus Veneriensis,8.749857,36.333162
315114,https://pleiades.stoa.org/places/315114,Picus,9.142701,36.615628
315131,https://pleiades.stoa.org/places/315131,Rucuma,9.521675,37.048181
315134,https://pleiades.stoa.org/places/315134,Sabzia,9.827731,36.286683
315147,https://pleiades.stoa.org/places/315147,Segermes,10.301692,36.345023
315148,https://pleiades.stoa.org/places/315148,Semta,9.887345,36.269282
315153,https://pleiades.stoa.org/places/315153,Sicilibba,9.873597,36.68588
315172,https://pleiades.stoa.org/places/315172,Siminga,9.992434,36.457987
315178,https://pleiades.stoa.org/places/315178,Sululos,9.605158,36.461372
315180,https://pleiades.stoa.org/places/315180,Sustri,9.29794,36.547633
315185,https://pleiades.stoa.org/places/315185,Tapphugabe(n)sis,9.525144,36.287237
315186,https://pleiades.stoa.org/places/315186,Tegla,10.847646,36.959233
315188,https://pleiades.stoa.org/places/315188,Tepelte,9.757767,36.395552
315191,https://pleiades.stoa.org/places/315191,Thabbora,9.434433,36.384209
315194,https://pleiades.stoa.org/places/315194,Thaca,10.113359,36.280128
315195,https://pleiades.stoa.org/places/315195,Thacia,9.050218,36.30267
315197,https://pleiades.stoa.org/places/315197,Thagari Maius,9.947919,36.446852
315202,https://pleiades.stoa.org/places/315202,Thibicaae,9.791064,36.322229
315205,https://pleiades.stoa.org/places/315205,Thibuli,9.842198,36.631882
315206,https://pleiades.stoa.org/places/315206,Thigibba Bure,9.081467,36.475683
315208,https://pleiades.stoa.org/places/315208,Thimida,9.763771,37.16244
315210,https://pleiades.stoa.org/places/315210,Thimida Regia,10.141835,36.640739
315213,https://pleiades.stoa.org/places/315213,Thinissut,10.585889,36.429258
315214,https://pleiades.stoa.org/places/315214,Thisiduo,9.667333,36.680351
315218,https://pleiades.stoa.org/places/315218,Thubba,9.801327,36.878082
315228,https://pleiades.stoa.org/places/315228,Tichilla,9.444863,36.552416
315233,https://pleiades.stoa.org/places/315233,Tunes,10.171649,36.79923
315236,https://pleiades.stoa.org/places/315236,Turris,9.793709,36.656954
315241,https://pleiades.stoa.org/places/315241,Uccula,9.524142,36.767496
315243,https://pleiades.stoa.org/places/315243,Ucres,9.97083,36.901123
315244,https://pleiades.stoa.org/places/315244,Ucubi,8.892196,36.238518
315246,https://pleiades.stoa.org/places/315246,Ureu,9.535499,36.875269
315250,https://pleiades.stoa.org/places/315250,Uzali Sar,9.688235,36.811582
315251,https://pleiades.stoa.org/places/315251,Uzalis,10.033986,37.169048
315253,https://pleiades.stoa.org/places/315253,Vaga,9.184162,36.726581
315258,https://pleiades.stoa.org/places/315258,Vicus Annaeus,9.906042,36.263392
315260,https://pleiades.stoa.org/places/315260,Vicus Bovius,9.825728,36.6633
315261,https://pleiades.stoa.org/places/315261,Vicus Haterianus,9.763611,36.325319
315264,https://pleiades.stoa.org/places/315264,Vina,10.550673,36.510508
315270,https://pleiades.stoa.org/places/315270,Zigira,9.400005,36.600011
324670,https://pleiades.stoa.org/places/324670,Aubuzza,8.598432,35.952388
324671,https://pleiades.stoa.org/places/324671,Avidus Vicus,10.736343,35.574804
324675,https://pleiades.stoa.org/places/324675,Bennafa,10.066684,34.301014
324693,https://pleiades.stoa.org/places/324693,Chusira,9.364815,35.81447
324714,https://pleiades.stoa.org/places/324714,Gurza,10.532444,35.870495
324772,https://pleiades.stoa.org/places/324772,Macomades Minores/Iunci,10.497324,34.525858
324773,https://pleiades.stoa.org/places/324773,Macota,9.146933,35.921724
324783,https://pleiades.stoa.org/places/324783,Mididi,9.057096,35.806271
324789,https://pleiades.stoa.org/places/324789,Muzuc,9.710379,35.979006
324795,https://pleiades.stoa.org/places/324795,Obba,8.829587,35.944739
324821,https://pleiades.stoa.org/places/324821,Tabira,10.012399,34.524248
324822,https://pleiades.stoa.org/places/324822,Taparura,10.757806,34.738326
324834,https://pleiades.stoa.org/places/324834,Thugga Terebenthina,9.014215,35.829469
324836,https://pleiades.stoa.org/places/324836,Tituli,8.50238,35.809048
324837,https://pleiades.stoa.org/places/324837,Turratenses,8.0811225,35.4340675
324840,https://pleiades.stoa.org/places/324840,Urusi,9.577272,35.987089
324841,https://pleiades.stoa.org/places/324841,Usil(l)a/Usula,10.923014,34.956536
324842,https://pleiades.stoa.org/places/324842,Uzaae,10.583314,35.729372
324843,https://pleiades.stoa.org/places/324843,Uzappa,9.330468,35.924034
324844,https://pleiades.stoa.org/places/324844,Uzita,10.758926,35.68762
324848,https://pleiades.stoa.org/places/324848,Vazi Sarra,9.530301,36.01617
324849,https://pleiades.stoa.org/places/324849,Vegesela,8.699126,35.443295
324852,https://pleiades.stoa.org/places/324852,Zella,11.060551,35.500579
334493,https://pleiades.stoa.org/places/334493,Aras,4.292015,35.818752
334513,https://pleiades.stoa.org/places/334513,Casae,6.368344,35.627706
334523,https://pleiades.stoa.org/places/334523,Castellum Vanarzanense,5.149438,36.00289
334525,https://pleiades.stoa.org/places/334525,Cedias,7.274729,35.255479
334532,https://pleiades.stoa.org/places/334532,Claudi,6.904966,35.463468
334571,https://pleiades.stoa.org/places/334571,Lambafundi,6.465983,35.481197
334572,https://pleiades.stoa.org/places/334572,Lambiridi,6.077305,35.503767
334575,https://pleiades.stoa.org/places/334575,Leges Maiores,7.395885,35.068699
334592,https://pleiades.stoa.org/places/334592,Mesarfelta,5.592835,35.036204
334600,https://pleiades.stoa.org/places/334600,Nicivibus,5.605431,35.550149
334629,https://pleiades.stoa.org/places/334629,Tfilzi,6.009593,35.1741
334653,https://pleiades.stoa.org/places/334653,Ubaza Castellum,7.734771,34.912061
334657,https://pleiades.stoa.org/places/334657,Varturliani,5.834472,35.875202
334660,https://pleiades.stoa.org/places/334660,Vazaivi,7.360908,35.290424
334663,https://pleiades.stoa.org/places/334663,Vescera,5.726688,34.856454
344287,https://pleiades.stoa.org/places/344287,Ad Templum,9.016781,33.583387
344292,https://pleiades.stoa.org/places/344292,Amarea,13.708559,32.786852
344359,https://pleiades.stoa.org/places/344359,Gaphara,13.873798,32.776021
344413,https://pleiades.stoa.org/places/344413,Kinyps,14.447329,32.527937
344424,https://pleiades.stoa.org/places/344424,Locri,12.111326,32.91658
344571,https://pleiades.stoa.org/places/344571,Zitha,11.112905,33.503895
354146,https://pleiades.stoa.org/places/354146,Sabae,14.440406,27.067972
363924,https://pleiades.stoa.org/places/363924,Arae Philaenorum,18.788188,30.293895
363932,https://pleiades.stoa.org/places/363932,Automalax,19.116715,30.299612
363948,https://pleiades.stoa.org/places/363948,Boreum,19.700194,30.475859
363954,https://pleiades.stoa.org/places/363954,Digdida Selorum,18.16671,30.69797
364036,https://pleiades.stoa.org/places/364036,Zure,16.828866,31.191297
373727,https://pleiades.stoa.org/places/373727,Agabis,22.022689,32.724784
373746,https://pleiades.stoa.org/places/373746,Aziris,22.880611,32.683784
373767,https://pleiades.stoa.org/places/373767,Chairekla,20.644052,32.254203
373772,https://pleiades.stoa.org/places/373772,Chersis,22.416823,32.850093
373781,https://pleiades.stoa.org/places/373781,Dionysos,23.097992,32.515142
373833,https://pleiades.stoa.org/places/373833,Kainopolis,21.349978,32.76663
373872,https://pleiades.stoa.org/places/373872,Phykous,21.631788,32.919182
383601,https://pleiades.stoa.org/places/383601,Bretina,10.872761,45.643262
383612,https://pleiades.stoa.org/places/383612,Castelletto Ticino,8.63684,45.718711
383621,https://pleiades.stoa.org/places/383621,Coeba,8.034988,44.387325
383657,https://pleiades.stoa.org/places/383657,Forum Vibii,7.374977,44.785652
383666,https://pleiades.stoa.org/places/383666,Grebia,10.354428,46.0695155
383669,https://pleiades.stoa.org/places/383669,Hasta,8.206756,44.900895
383693,https://pleiades.stoa.org/places/383693,Leucerae,9.390035,45.852986
383700,https://pleiades.stoa.org/places/383700,Litubium,9.037371,44.950485
383739,https://pleiades.stoa.org/places/383739,Parra,9.887912,45.872575
383743,https://pleiades.stoa.org/places/383743,Plumbia,8.633496,45.652008
383756,https://pleiades.stoa.org/places/383756,Retovium,8.592305,45.291593
383773,https://pleiades.stoa.org/places/383773,Sebuinus Vicus,8.571296,45.774415
383775,https://pleiades.stoa.org/places/383775,Segesta Tigulliorum,9.396776,44.273159
383809,https://pleiades.stoa.org/places/383809,Vardagate,8.444375,45.08329
383822,https://pleiades.stoa.org/places/383822,Vicus Baginas,7.880721,44.448981
383827,https://pleiades.stoa.org/places/383827,Voberna,10.50093,45.64235
393419,https://pleiades.stoa.org/places/393419,Fabbrica dei Soci,11.352543,45.158508
393423,https://pleiades.stoa.org/places/393423,Fondo Paviani,11.307631,45.190712
393443,https://pleiades.stoa.org/places/393443,Ligeris,11.031731,45.917205
393454,https://pleiades.stoa.org/places/393454,Mons Silicis,11.750443,45.239638
393478,https://pleiades.stoa.org/places/393478,Portus Reatinus,12.909068,45.617971
403196,https://pleiades.stoa.org/places/403196,Cellole,11.001712,43.487846
403197,https://pleiades.stoa.org/places/403197,Colle delle Carbonaie,10.41119,44.109277
403251,https://pleiades.stoa.org/places/403251,Pescia,10.691445,43.898167
403281,https://pleiades.stoa.org/places/403281,Tempagnano,10.526964,43.848303
413009,https://pleiades.stoa.org/places/413009,Allumiere,11.90501,42.157369
413060,https://pleiades.stoa.org/places/413060,Camerinum,13.068764,43.140369
413090,https://pleiades.stoa.org/places/413090,Cliternia,13.041311,42.314542
413100,https://pleiades.stoa.org/places/413100,Collepezzuto,13.292748,42.163929
413113,https://pleiades.stoa.org/places/413113,Cupra Montana,13.116404,43.446878
413196,https://pleiades.stoa.org/places/413196,Matilica,13.011553,43.255092
413197,https://pleiades.stoa.org/places/413197,Matrinum,14.135503,42.534535
413208,https://pleiades.stoa.org/places/413208,Montedoro di Scapezzano,13.146849,43.73167
413210,https://pleiades.stoa.org/places/413210,Monteferetra,12.346122,43.896791
413226,https://pleiades.stoa.org/places/413226,Novilara,12.932178,43.858934
413228,https://pleiades.stoa.org/places/413228,Numana,13.62142,43.511271
413241,https://pleiades.stoa.org/places/413241,Paganica,13.470296,42.359661
413256,https://pleiades.stoa.org/places/413256,Pisaurum,12.91577,43.912081
413259,https://pleiades.stoa.org/places/413259,Pitino,13.236158,43.279891
413262,https://pleiades.stoa.org/places/413262,Pitinum Pisaurense,12.441276,43.803909
413263,https://pleiades.stoa.org/places/413263,Planina,13.161432,43.485376
413267,https://pleiades.stoa.org/places/413267,Poggio Sommavilla,12.527235,42.309147
413276,https://pleiades.stoa.org/places/413276,Punta La Penna,14.714246,42.17132
413278,https://pleiades.stoa.org/places/413278,Quintianum,11.652634,42.273848
413284,https://pleiades.stoa.org/places/413284,Regis Villa/Regae,11.597172,42.30819
413319,https://pleiades.stoa.org/places/413319,Sorrina,12.104818,42.417376
413338,https://pleiades.stoa.org/places/413338,Tifernum Mataurense,12.416182,43.666421
413375,https://pleiades.stoa.org/places/413375,Vespasiae,13.020469,42.787963
413385,https://pleiades.stoa.org/places/413385,Villalfonsina,14.571047,42.160985
422836,https://pleiades.stoa.org/places/422836,Antemnae,12.500656,41.937528
422893,https://pleiades.stoa.org/places/422893,Ciciliano,12.939843,41.960711
423054,https://pleiades.stoa.org/places/423054,S. Rufina,12.371721,41.942714
432654,https://pleiades.stoa.org/places/432654,Afragola,14.30722,40.921039
432670,https://pleiades.stoa.org/places/432670,Amalfitana Civitas,14.60257,40.634361
432709,https://pleiades.stoa.org/places/432709,Aufidena,14.108223,41.784299
432713,https://pleiades.stoa.org/places/432713,Aversa,14.207679,40.973328
432787,https://pleiades.stoa.org/places/432787,Cliternia,15.034695,41.957052
432797,https://pleiades.stoa.org/places/432797,Colle Tassito,13.873828,42.011101
432847,https://pleiades.stoa.org/places/432847,Fregellanum,13.513236,41.5461
432865,https://pleiades.stoa.org/places/432865,Gioia dei Marsi,13.684089,41.956093
432866,https://pleiades.stoa.org/places/432866,Giurlanda,13.666003,42.026717
432871,https://pleiades.stoa.org/places/432871,Hamae,14.071241,40.880458
432944,https://pleiades.stoa.org/places/432944,Monte Acero,14.491642,41.258879
432945,https://pleiades.stoa.org/places/432945,Monte Annamunna,13.568226,41.922008
432994,https://pleiades.stoa.org/places/432994,Oratino,14.586791,41.584927
433002,https://pleiades.stoa.org/places/433002,Pagus Meflanus,14.85632,41.241971500000005
433004,https://pleiades.stoa.org/places/433004,Pagus Vescinus,13.81796,41.28326
433023,https://pleiades.stoa.org/places/433023,Piano della Civitella,13.907756,42.003875
433043,https://pleiades.stoa.org/places/433043,Porticone,14.990563,41.995784
433070,https://pleiades.stoa.org/places/433070,Rufrae,14.078067,41.376142
433093,https://pleiades.stoa.org/places/433093,S. Marzano,14.586219,40.776589
433098,https://pleiades.stoa.org/places/433098,S. Valentino Torio,14.601766,40.793704
433100,https://pleiades.stoa.org/places/433100,S. Vittore,13.933789,41.462515
433130,https://pleiades.stoa.org/places/433130,Striano,14.577508,40.817055
433197,https://pleiades.stoa.org/places/433197,Vicus Feniculensis,14.076529,41.013131
433198,https://pleiades.stoa.org/places/433198,Vicus Palatius,14.173299,41.191896
442434,https://pleiades.stoa.org/places/442434,Acerina,15.958032,41.396699
442435,https://pleiades.stoa.org/places/442435,Acer(r)onia,15.425661,40.561913
442436,https://pleiades.stoa.org/places/442436,Ac(h)eruntia,15.937511,40.793108
442465,https://pleiades.stoa.org/places/442465,Anxia,15.925556,40.517656
442473,https://pleiades.stoa.org/places/442473,Arcora,15.056818,41.933003
442475,https://pleiades.stoa.org/places/442475,Arenosola,14.939334,40.540759
442498,https://pleiades.stoa.org/places/442498,Barduli,16.283979,41.319271
442501,https://pleiades.stoa.org/places/442501,Baselice,14.973654,41.394903
442505,https://pleiades.stoa.org/places/442505,Bisaccia,15.375327,41.013876
442506,https://pleiades.stoa.org/places/442506,Bitetto,16.748738,41.039253
442529,https://pleiades.stoa.org/places/442529,Carmeia,15.595272,41.432799
442553,https://pleiades.stoa.org/places/442553,Corato,16.410747,41.153137
442562,https://pleiades.stoa.org/places/442562,Cupola,15.829659,41.516008
442589,https://pleiades.stoa.org/places/442589,Frigento,15.100624,41.012349
442616,https://pleiades.stoa.org/places/442616,Hyria/Uria,15.830385,41.882097
442625,https://pleiades.stoa.org/places/442625,Kallipolis/Anxa,17.978842,40.056251
442631,https://pleiades.stoa.org/places/442631,Leonessa,15.604385,41.077678
442646,https://pleiades.stoa.org/places/442646,Marsico Nuovo,15.735452,40.423964
442648,https://pleiades.stoa.org/places/442648,Masseria Finocchito,15.143061,41.644416
442649,https://pleiades.stoa.org/places/442649,Masseria Manes,15.055296,41.91225
442651,https://pleiades.stoa.org/places/442651,Melfi,15.65361,40.998352
442660,https://pleiades.stoa.org/places/442660,Minervino Murge,16.079226,41.085323
442665,https://pleiades.stoa.org/places/442665,Montecorvino Rovella,14.978917,40.692828
442686,https://pleiades.stoa.org/places/442686,Natiolum,16.672566,41.187539
442694,https://pleiades.stoa.org/places/442694,Nusco,15.084903,40.887294
442700,https://pleiades.stoa.org/places/442700,Oppidovetere,15.188879,40.877644
442721,https://pleiades.stoa.org/places/442721,Pisciolo,15.335012,40.952407
442737,https://pleiades.stoa.org/places/442737,Praetorium Publilianum,15.366244,41.826086
442757,https://pleiades.stoa.org/places/442757,Sala Consilina,15.592351,40.394869
442758,https://pleiades.stoa.org/places/442758,Sal(a)pia(i)/Elpia,15.9598715,41.3985735
442759,https://pleiades.stoa.org/places/442759,Sal(a)pia(i)/Salinae,15.9933,41.403381
442778,https://pleiades.stoa.org/places/442778,S. Mauro Forte,16.252542,40.486546
442782,https://pleiades.stoa.org/places/442782,S. Pietro,17.486182,40.663091
442788,https://pleiades.stoa.org/places/442788,Satrianum,15.629515,40.559001
442801,https://pleiades.stoa.org/places/442801,Soletum,18.207212,40.189577
442815,https://pleiades.stoa.org/places/442815,Teanum Apulum,15.261276,41.739367
442822,https://pleiades.stoa.org/places/442822,Toritto,16.680612,40.999245
442823,https://pleiades.stoa.org/places/442823,Torre Castiglione,17.123892,40.917303
442824,https://pleiades.stoa.org/places/442824,Torre Guaceto,17.799019,40.715068
442825,https://pleiades.stoa.org/places/442825,Torre Mare,16.997615,41.087312
442826,https://pleiades.stoa.org/places/442826,Torre Ovo,17.50737,40.304855
452266,https://pleiades.stoa.org/places/452266,Aufugum,16.158919,39.405983
452270,https://pleiades.stoa.org/places/452270,Battifarano,16.220337,40.160801
452271,https://pleiades.stoa.org/places/452271,Belvedere,16.888016,39.213498
452273,https://pleiades.stoa.org/places/452273,Bisignano,16.287161,39.512593
452289,https://pleiades.stoa.org/places/452289,Le Castella,17.022757,38.909729
452398,https://pleiades.stoa.org/places/452398,Palinurus,15.28813,40.035965
452409,https://pleiades.stoa.org/places/452409,Portus Orestis,15.836332,38.352423
452418,https://pleiades.stoa.org/places/452418,Rocca di Neto,17.002695,39.191342
452420,https://pleiades.stoa.org/places/452420,Roccanova,16.204071,40.213155
452421,https://pleiades.stoa.org/places/452421,Roscianum,16.634153,39.576395
452426,https://pleiades.stoa.org/places/452426,Sambiase,16.283308,38.966633
452431,https://pleiades.stoa.org/places/452431,S. Onofrio,16.407713,38.32516
452452,https://pleiades.stoa.org/places/452452,Skidros,15.63048,40.076278
452462,https://pleiades.stoa.org/places/452462,Taisia(i),15.703056,38.002718
452466,https://pleiades.stoa.org/places/452466,Taurianum,15.871422,38.394393
452471,https://pleiades.stoa.org/places/452471,Terravecchia,16.94689,39.465946
452482,https://pleiades.stoa.org/places/452482,Trapeia,15.896267,38.679109
452496,https://pleiades.stoa.org/places/452496,Zinga,16.918296,39.261899
462278,https://pleiades.stoa.org/places/462278,Leon,15.23553,37.115623
472051,https://pleiades.stoa.org/places/472051,Alista,9.334952,41.73492
472052,https://pleiades.stoa.org/places/472052,Alouka,8.802407,42.253495
472056,https://pleiades.stoa.org/places/472056,Asinkon,9.166371,42.252111
472066,https://pleiades.stoa.org/places/472066,Favoni Portus,9.397573,41.770115
472078,https://pleiades.stoa.org/places/472078,Kanelate,9.302439,42.680427
472080,https://pleiades.stoa.org/places/472080,Keneston,9.266061,42.172503
472081,https://pleiades.stoa.org/places/472081,Kentourinon,9.351912,42.965989
472083,https://pleiades.stoa.org/places/472083,Kersounon,9.185004,42.666293
472086,https://pleiades.stoa.org/places/472086,Klounion,9.474582,42.773685
472095,https://pleiades.stoa.org/places/472095,Mantinon,9.442685,42.691157
472099,https://pleiades.stoa.org/places/472099,Matisa,8.981508,41.627192
472102,https://pleiades.stoa.org/places/472102,Opinon,9.412043,42.231536
472104,https://pleiades.stoa.org/places/472104,Ouenikion,9.174704,42.237367
472107,https://pleiades.stoa.org/places/472107,Ourkinion,8.761599,42.040029
472109,https://pleiades.stoa.org/places/472109,Palania,8.849904,42.501906
472111,https://pleiades.stoa.org/places/472111,Pauka,8.799868,41.711504
472121,https://pleiades.stoa.org/places/472121,Rhopikon,8.892453,42.57175
472126,https://pleiades.stoa.org/places/472126,Saone,8.701978,42.112565
472128,https://pleiades.stoa.org/places/472128,Sermigion,8.889751,42.200898
472131,https://pleiades.stoa.org/places/472131,Syrakousanos Limen,9.23404,41.40727
472133,https://pleiades.stoa.org/places/472133,Talkinon,9.20048,42.23177
472139,https://pleiades.stoa.org/places/472139,Toutelas Bomos,9.534194,42.209673
481709,https://pleiades.stoa.org/places/481709,Akrolissos,19.68251,41.765716
481711,https://pleiades.stoa.org/places/481711,Albanopolis,19.792561,41.512333
481713,https://pleiades.stoa.org/places/481713,Alkomena,21.315014,41.27587
481722,https://pleiades.stoa.org/places/481722,Antigoneia,20.218777,40.0534
481724,https://pleiades.stoa.org/places/481724,Antipatreia,19.949707,40.699778
481741,https://pleiades.stoa.org/places/481741,Argyros,20.697761,40.2576765
481750,https://pleiades.stoa.org/places/481750,Aulon,19.473197,40.484898
481761,https://pleiades.stoa.org/places/481761,Beue,20.753371,40.845999
481770,https://pleiades.stoa.org/places/481770,Bouthoe,18.831815,42.279737
481773,https://pleiades.stoa.org/places/481773,Bryanion,21.219321,41.237017
481789,https://pleiades.stoa.org/places/481789,Chimaira,19.733345,40.116661
481803,https://pleiades.stoa.org/places/481803,Diabolis,20.88809,40.719894
481804,https://pleiades.stoa.org/places/481804,Dimalion,19.829579,40.732235
481833,https://pleiades.stoa.org/places/481833,Eratyra,21.512379,40.344248
481844,https://pleiades.stoa.org/places/481844,Germania,23.264178,42.289175
481859,https://pleiades.stoa.org/places/481859,Hekatompedon,20.078242,40.252618
481879,https://pleiades.stoa.org/places/481879,Kerax,20.679107,41.177324
481883,https://pleiades.stoa.org/places/481883,Kolobaise,21.562403,41.351447
481902,https://pleiades.stoa.org/places/481902,Lyke,21.099874,40.765172
481914,https://pleiades.stoa.org/places/481914,Meteon,19.361598,42.472528
481934,https://pleiades.stoa.org/places/481934,Omphalion,20.266734,40.033333
481952,https://pleiades.stoa.org/places/481952,Pelagonia,21.610691,41.313278
481955,https://pleiades.stoa.org/places/481955,Pelion,20.959876,40.641298
481999,https://pleiades.stoa.org/places/481999,Spinopara,22.78247,42.324277
482000,https://pleiades.stoa.org/places/482000,Sportela,23.172221,42.128406
482028,https://pleiades.stoa.org/places/482028,Uscana,20.968838,41.513625
491515,https://pleiades.stoa.org/places/491515,Aioleion,23.181617,40.302463
491516,https://pleiades.stoa.org/places/491516,Aisa,23.060368,40.309275
491517,https://pleiades.stoa.org/places/491517,Allante,22.598961,40.734818
491521,https://pleiades.stoa.org/places/491521,Anthemous,23.284334,40.417722
491523,https://pleiades.stoa.org/places/491523,Antigoneia,23.053413,40.379935
491527,https://pleiades.stoa.org/places/491527,Argos,21.885071,41.581351
491528,https://pleiades.stoa.org/places/491528,Ar(r)olos,23.326317,41.011737
491529,https://pleiades.stoa.org/places/491529,Asseros,23.009519,40.81222
491538,https://pleiades.stoa.org/places/491538,Bargala,22.26784,41.800995
491555,https://pleiades.stoa.org/places/491555,Bragylai,22.851025,41.001146
491560,https://pleiades.stoa.org/places/491560,Chalastra,22.781173,40.704218
491562,https://pleiades.stoa.org/places/491562,Charakoma,22.959993,40.793957
491570,https://pleiades.stoa.org/places/491570,Dikaia,22.947121,40.460491
491588,https://pleiades.stoa.org/places/491588,Elimia,21.854851,40.2893
491593,https://pleiades.stoa.org/places/491593,Euboia/Dausara,22.12943,40.76918
491598,https://pleiades.stoa.org/places/491598,Genderros,22.323485,40.815597
491602,https://pleiades.stoa.org/places/491602,Gigonos,23.022765,40.326285
491605,https://pleiades.stoa.org/places/491605,Gortynia,22.514174,41.151379
491619,https://pleiades.stoa.org/places/491619,Ichnai,22.591256,40.764014
491625,https://pleiades.stoa.org/places/491625,Kaisareia,21.841153,40.171821
491637,https://pleiades.stoa.org/places/491637,Kithas,23.055907,40.396714
491639,https://pleiades.stoa.org/places/491639,Klitai,22.824816,40.857202
491665,https://pleiades.stoa.org/places/491665,Moryllos,22.808193,40.90058
491683,https://pleiades.stoa.org/places/491683,Paroikopolis/Parthikopolis,23.277848,41.561119
491694,https://pleiades.stoa.org/places/491694,Phakos,22.504667,40.755214
491697,https://pleiades.stoa.org/places/491697,Pimpleia,22.493148,40.143408
491700,https://pleiades.stoa.org/places/491700,Pleume,23.20344,40.295137
491712,https://pleiades.stoa.org/places/491712,Rhaikelos,22.854091,40.471036
491715,https://pleiades.stoa.org/places/491715,Sane,23.306117,40.098381
491718,https://pleiades.stoa.org/places/491718,Sinos,23.223955,40.291278
491719,https://pleiades.stoa.org/places/491719,Sintia,23.207402,41.397636
491729,https://pleiades.stoa.org/places/491729,Spartolos,23.159843,40.316347
491732,https://pleiades.stoa.org/places/491732,Strepsa,23.138509,40.483197
491737,https://pleiades.stoa.org/places/491737,Tauriana,22.734,40.998063
491740,https://pleiades.stoa.org/places/491740,Therme,22.94402,40.58155
491742,https://pleiades.stoa.org/places/491742,Tiberia,22.652189,41.407323
491743,https://pleiades.stoa.org/places/491743,Tinde,23.026394,40.395222
501322,https://pleiades.stoa.org/places/501322,Abarnis,26.734359,40.378253
501332,https://pleiades.stoa.org/places/501332,Agora,26.786353,40.513545
501335,https://pleiades.stoa.org/places/501335,Aige,23.666064,39.978627
501336,https://pleiades.stoa.org/places/501336,Aigospotamos,26.599366,40.331504
501345,https://pleiades.stoa.org/places/501345,Alopekonnesos,26.249544,40.313939
501348,https://pleiades.stoa.org/places/501348,Anastasioupolis,25.075784,41.116182
501351,https://pleiades.stoa.org/places/501351,Antisara,24.381282,40.924111
501352,https://pleiades.stoa.org/places/501352,Aphrodisias/Col. Flaviopolis,26.834645,40.538708
501361,https://pleiades.stoa.org/places/501361,Arnai/Turris Calarnea,23.589125,40.49636
501374,https://pleiades.stoa.org/places/501374,Berge,23.508247,40.910982
501375,https://pleiades.stoa.org/places/501375,Bergepolis,25.013705,41.057585
501381,https://pleiades.stoa.org/places/501381,Bourdepa,26.212932,41.774648
501397,https://pleiades.stoa.org/places/501397,Deris,26.808976,40.657809
501399,https://pleiades.stoa.org/places/501399,Dikaia,25.165653,40.99287
501402,https://pleiades.stoa.org/places/501402,Doriskos,26.164008,40.873623
501404,https://pleiades.stoa.org/places/501404,Drabos,26.335897,40.358138
501406,https://pleiades.stoa.org/places/501406,Drys,25.675192,40.856489
501411,https://pleiades.stoa.org/places/501411,Elaious,26.223326,40.054457
501414,https://pleiades.stoa.org/places/501414,Euporia,23.562336,41.066769
501422,https://pleiades.stoa.org/places/501422,Galepsos,23.688564,40.200006
501427,https://pleiades.stoa.org/places/501427,Hadrianopolis,24.257643,41.140485
501436,https://pleiades.stoa.org/places/501436,Ide,26.689216,40.504079
501455,https://pleiades.stoa.org/places/501455,Kapros,23.780104,40.59221
501458,https://pleiades.stoa.org/places/501458,Kardia/Lysimacheia,26.75081,40.548232
501465,https://pleiades.stoa.org/places/501465,Kerdylion,23.797514,40.825219
501470,https://pleiades.stoa.org/places/501470,Kobrys,26.848989,40.589514
501471,https://pleiades.stoa.org/places/501471,Koila,26.367552,40.207121
501474,https://pleiades.stoa.org/places/501474,Kolonai,26.91075,40.280834
501475,https://pleiades.stoa.org/places/501475,Komotene,25.445868,41.11702
501483,https://pleiades.stoa.org/places/501483,Kressa,26.625855,40.351152
501485,https://pleiades.stoa.org/places/501485,Krithote,26.651664,40.406725
501488,https://pleiades.stoa.org/places/501488,Kypasis,26.841143,40.625134
501497,https://pleiades.stoa.org/places/501497,Limnai,26.272679,40.27056
501516,https://pleiades.stoa.org/places/501516,Mesambria,25.630902,40.86393
501522,https://pleiades.stoa.org/places/501522,Neapolis,23.529229,40.017316
501526,https://pleiades.stoa.org/places/501526,Nike,26.852251,41.594606
501534,https://pleiades.stoa.org/places/501534,Oldenoi,23.595469,41.029245
501543,https://pleiades.stoa.org/places/501543,Paion,26.639597,40.505429
501544,https://pleiades.stoa.org/places/501544,Paisos,26.787097,40.400225
501546,https://pleiades.stoa.org/places/501546,Paktye,26.780688,40.485384
501547,https://pleiades.stoa.org/places/501547,Palaiperkote,26.686456,40.23637
501553,https://pleiades.stoa.org/places/501553,Parthenopolis (Chalkidike),23.872183,40.131786
501559,https://pleiades.stoa.org/places/501559,Phagres,23.940471,40.760666
501567,https://pleiades.stoa.org/places/501567,Piloros,23.724709,40.342219
501582,https://pleiades.stoa.org/places/501582,Prossotsani,23.966607,41.177865
501595,https://pleiades.stoa.org/places/501595,Sale,25.875051,40.844659
501620,https://pleiades.stoa.org/places/501620,Skione,23.574785,39.939063
501645,https://pleiades.stoa.org/places/501645,Topeiros (Paradeisos),24.773105,41.079556
501649,https://pleiades.stoa.org/places/501649,Traianoupolis,26.057249499999998,40.858827000000005
501651,https://pleiades.stoa.org/places/501651,Tripolis,24.148897,41.144676
501661,https://pleiades.stoa.org/places/501661,Xantheia,25.429509,40.905051
501667,https://pleiades.stoa.org/places/501667,Zone,25.755818,40.848568
511143,https://pleiades.stoa.org/places/511143,Agrilion,29.751201,40.178685
511161,https://pleiades.stoa.org/places/511161,Artanes,29.604165,41.17132
511172,https://pleiades.stoa.org/places/511172,Athyras,28.589971,41.034016
511174,https://pleiades.stoa.org/places/511174,Aureliane,29.808751,40.404585
511178,https://pleiades.stoa.org/places/511178,Baris,27.655361,40.102177
511179,https://pleiades.stoa.org/places/511179,Basilica Therma,29.042755,40.205714
511180,https://pleiades.stoa.org/places/511180,Basilinoupolis,29.558621,40.607148
511187,https://pleiades.stoa.org/places/511187,Bisanthe/Rhaidestos,27.508023,40.978415
511194,https://pleiades.stoa.org/places/511194,Brylleion/Myrleia/Apamea/Col. Iulia Concordia,28.88274275,40.37557275
511195,https://pleiades.stoa.org/places/511195,Burtudizon,27.092423,41.427933
511208,https://pleiades.stoa.org/places/511208,Chelai,30.337495,41.183009
511226,https://pleiades.stoa.org/places/511226,Daskyleion,28.674196,40.377645
511227,https://pleiades.stoa.org/places/511227,Daunion Teichos,28.038408,41.053506
511231,https://pleiades.stoa.org/places/511231,Delkos,28.678392,41.299878
511237,https://pleiades.stoa.org/places/511237,Diolkides,29.860234,40.72268
511240,https://pleiades.stoa.org/places/511240,Drepanon/Helenopolis,29.502087,40.721717
511241,https://pleiades.stoa.org/places/511241,Dr(o)usipara,27.543955,41.300089
511245,https://pleiades.stoa.org/places/511245,Eikote,29.129058,40.280026
511247,https://pleiades.stoa.org/places/511247,Elaia,29.785796,40.748896
511249,https://pleiades.stoa.org/places/511249,Elekosmioi,29.03797,40.35359
511259,https://pleiades.stoa.org/places/511259,Geragathe,29.945055,40.811719
511264,https://pleiades.stoa.org/places/511264,Harpagion,27.391984,40.334274
511273,https://pleiades.stoa.org/places/511273,Herakleion,29.662955,40.70093
511274,https://pleiades.stoa.org/places/511274,Hermoton/Hermaion,27.057312,40.326329
511282,https://pleiades.stoa.org/places/511282,Kabia,30.299985,40.500052
511285,https://pleiades.stoa.org/places/511285,Kalpe,30.1965195,41.1435155
511305,https://pleiades.stoa.org/places/511305,Libyssa,29.539812,40.769562
511307,https://pleiades.stoa.org/places/511307,Limnai,29.502079,40.721716
511308,https://pleiades.stoa.org/places/511308,Linon,27.196542,40.431121
511316,https://pleiades.stoa.org/places/511316,Memnonos Kome,27.581689,40.28219
511318,https://pleiades.stoa.org/places/511318,Miletopolis,28.316486,40.083458
511334,https://pleiades.stoa.org/places/511334,Neon Teichos,27.824531,41.017925
511348,https://pleiades.stoa.org/places/511348,Otroia,29.810629,40.284653
511351,https://pleiades.stoa.org/places/511351,Panion/Theodosiopolis,27.466995,40.907132
511358,https://pleiades.stoa.org/places/511358,Petrozetoi,29.88112,40.89809
511366,https://pleiades.stoa.org/places/511366,Plakia,28.27741,40.397648
511368,https://pleiades.stoa.org/places/511368,Poimanenon,27.892299,40.07897
511372,https://pleiades.stoa.org/places/511372,Prainetos,29.618865,40.689761
511387,https://pleiades.stoa.org/places/511387,Psillion,29.847158,41.133616
511390,https://pleiades.stoa.org/places/511390,Pytheion/Pythia Therma,29.223869,40.603880000000004
511391,https://pleiades.stoa.org/places/511391,Pythopolis,29.413577,40.396001
511397,https://pleiades.stoa.org/places/511397,Rhegion,28.77522,41.008349
511400,https://pleiades.stoa.org/places/511400,Rhoe,30.227622,41.168505
511407,https://pleiades.stoa.org/places/511407,Sangaros,29.062942,40.639267
511409,https://pleiades.stoa.org/places/511409,Sarkotyle,29.526255,40.079298
511415,https://pleiades.stoa.org/places/511415,Serreion Teichos/Ganos,27.324357,40.750541
511417,https://pleiades.stoa.org/places/511417,Sirkanos,29.683367,40.866636
511419,https://pleiades.stoa.org/places/511419,Skylake,28.388808,40.387037
511423,https://pleiades.stoa.org/places/511423,Strobilos,29.335621,40.654483
511430,https://pleiades.stoa.org/places/511430,Tataula,29.439902500000002,40.024799
511434,https://pleiades.stoa.org/places/511434,Terbos,30.018851,40.509541
511436,https://pleiades.stoa.org/places/511436,Tetrakomia,29.47451,40.514307
511440,https://pleiades.stoa.org/places/511440,Thrakia Kome,27.927064,40.361304
511443,https://pleiades.stoa.org/places/511443,Thynias,27.985781,41.884086
511449,https://pleiades.stoa.org/places/511449,Tiristasis/Tyrodiza,27.114093,40.617746
511451,https://pleiades.stoa.org/places/511451,Trikomia,30.032644,40.960845
520956,https://pleiades.stoa.org/places/520956,Ammoi,28.884702,40.980169
520957,https://pleiades.stoa.org/places/520957,Amykos,29.091469,41.135316
520962,https://pleiades.stoa.org/places/520962,Archeion,29.027404,41.0482435
520963,https://pleiades.stoa.org/places/520963,Argyronion,29.076268,41.165174
520974,https://pleiades.stoa.org/places/520974,Blachernai,28.94271,41.039547
520976,https://pleiades.stoa.org/places/520976,Boradion,29.067899,41.102125
520984,https://pleiades.stoa.org/places/520984,Bythias,29.035349,41.060799
520987,https://pleiades.stoa.org/places/520987,Chalcaea,29.079825,41.188254
520991,https://pleiades.stoa.org/places/520991,Chelae,29.119739,41.187015
520992,https://pleiades.stoa.org/places/520992,Chelai/Philemporos,29.043942,41.078024
520995,https://pleiades.stoa.org/places/520995,Chrysopolis,29.012856,41.020639
521001,https://pleiades.stoa.org/places/521001,Damalis/Bous,29.011071,41.02526
521004,https://pleiades.stoa.org/places/521004,Dekaton,28.810737,40.974534
521012,https://pleiades.stoa.org/places/521012,Eirenaion,29.082169,41.106975
521018,https://pleiades.stoa.org/places/521018,Eutropiou,29.041628,40.975037
521026,https://pleiades.stoa.org/places/521026,Hebdomon,28.876487,40.976033
521028,https://pleiades.stoa.org/places/521028,Henaton,28.830716,40.975888
521029,https://pleiades.stoa.org/places/521029,Heraion/Hiereia,29.033945,40.969562
521036,https://pleiades.stoa.org/places/521036,Himeros,29.025097,40.998516
521041,https://pleiades.stoa.org/places/521041,Iasonion/Daphne,29.001901,41.043598
521050,https://pleiades.stoa.org/places/521050,Kalamos,29.033624,41.056678
521051,https://pleiades.stoa.org/places/521051,Kalos Agros,29.036633,41.155348
521052,https://pleiades.stoa.org/places/521052,Kampos,28.878683,40.983338
521056,https://pleiades.stoa.org/places/521056,Kepos,28.953206,41.022065
521058,https://pleiades.stoa.org/places/521058,Kikonion,29.053148,41.050331
521061,https://pleiades.stoa.org/places/521061,Kosilaos,29.243551,40.874011
521068,https://pleiades.stoa.org/places/521068,Kyparodes,29.054246,41.104446
521070,https://pleiades.stoa.org/places/521070,Lasthenes/Leosthenion/Sosthenion,29.052603,41.115124
521086,https://pleiades.stoa.org/places/521086,Mochadion,29.119903,41.198455
521087,https://pleiades.stoa.org/places/521087,Moukaporis,29.082421,41.138794
521090,https://pleiades.stoa.org/places/521090,Myrileion,29.108786,41.214643
521093,https://pleiades.stoa.org/places/521093,Nausikleia,29.065455,41.078182
521094,https://pleiades.stoa.org/places/521094,Nausimachion,29.053607,41.059363
521104,https://pleiades.stoa.org/places/521104,Palodes,29.099572,41.123881
521106,https://pleiades.stoa.org/places/521106,Panteichion,29.23513,40.876585
521108,https://pleiades.stoa.org/places/521108,Parabolos,29.030439,41.052491
521109,https://pleiades.stoa.org/places/521109,Paulines,28.941721,41.04052
521110,https://pleiades.stoa.org/places/521110,Pegai/Krenides,28.965242,41.035504
521111,https://pleiades.stoa.org/places/521111,Pege,28.915896,40.999905
521113,https://pleiades.stoa.org/places/521113,Pharmakia/Therapeia,29.049999,41.133339
521115,https://pleiades.stoa.org/places/521115,Phidalia Petra,29.050838,41.099551
